Python 3.5.3 (/usr/bin/python3)
>>> %Run rover_rtk_test.py
$GNRMC,153016.00,A,4014.78474,N,11138.94968,W,0.003,,190318,,,A*74
$GNVTG,,T,,M,0.003,N,0.006,K,A*38
$GNGGA,153016.00,4014.78474,N,11138.94968,W,1,12,0.62,1420.2,M,-18.8,M,,*47
$GNGSA,A,3,01,03,14,23,31,22,32,26,25,16,11,,1.13,0.62,0.94*17
$GNGSA,A,3,87,70,74,73,80,71,72,,,,,,1.13,0.62,0.94*12
$GPGSV,4,1,13,01,37,243,42,03,55,310,46,04,,,47,11,13,235,34*4D
$GPGSV,4,2,13,14,44,064,45,16,10,160,38,18,,,43,22,75,285,49*4F
$GPGSV,4,3,13,23,26,281,41,25,14,042,37,26,30,135,45,31,60,054,50*76
$GPGSV,4,4,13,32,20,079,46*44
$GLGSV,3,1,09,70,34,103,40,71,67,024,48,72,30,318,45,73,71,106,50*68
$GLGSV,3,2,09,74,33,186,46,80,28,034,42,86,03,242,21,87,14,294,40*6B
$GLGSV,3,3,09,88,07,338,*53
$GNGLL,4014.78474,N,11138.94968,W,153016.00,A,A*6C
$GNTXT,01,01,02,u-blox AG - www.u-blox.com*4E
$GNTXT,01,01,02,HW UBX-M8030 00080000*60
$GNTXT,01,01,02,EXT CORE 3.01 (db0c89)*68
$GNTXT,01,01,02,ROM BASE 3.01 (107888)*25
$GNTXT,01,01,02,FWVER=HPG 1.40REF*0B
$GNTXT,01,01,02,PROTVER=20.30*19
$GNTXT,01,01,02,MOD=NEO-M8P-2*7B
$GNTXT,01,01,02,FIS=0xEF4015 (100111)*58
$GNTXT,01,01,02,GPS;GLO;BDS*06
$GNTXT,01,01,02,QZSS*58
$GNTXT,01,01,02,GNSS OTP=GPS;GLO*37
$GNTXT,01,01,02,LLC=FFFFFFFF-FFFFFFED-FFFFFFFF-FFFFF79E-FFFFFF69*2E
$GNTXT,01,01,02,ANTSUPERV=AC SD PDoS SR*3E
$GNTXT,01,01,02,ANTSTATUS=OK*25
$GNTXT,01,01,02,PF=300*4B
-----clearing default messages-----
-----writing RTK GPS enabling messages-----
-----reading results of RTK GPS messages-----
0seconds
UBX: 0xb5620501020006000e37
UBX: 0xb56201075c0078557a08e20703130f1e11f7eb030000516e01000301ea12a4b073bd791dfd1760621500b8ab1500ba0300005f05000002000000050000000500000006000000000000006600000080a81201710000001219263b0000000000000000e388
UBX-NAV-RELPOSNED b562013c28000000000078557a080000000000000000000000000000000000000000000000000000000001000000b58f
ver0 station 0
142235000ms - Monday 15:30:35
position: 0.0m N +-0.0m, 0.0m E +-0.0m, 0.0m D +-0.0m
gnssOk? True diffSoln? False relPosValid? False
carrSoln: No soln
isMoving? False extrapRefPos? False extrapRebObs? False1seconds
UBX: 0xb56201075c0060597a08e20703130f1e12f7eb030000b76d01000301ea12a5b073bd761dfd17476215009fab1500b70300005b050000fdffffff000000000500000003000000000000005c00000080a81201710000001219263b0000000000000000e005
UBX-NAV-RELPOSNED b562013c28000000000060597a080000000000000000000000000000000000000000000000000000000001000000a1bb
ver0 station 0
142236000ms - Monday 15:30:36
position: 0.0m N +-0.0m, 0.0m E +-0.0m, 0.0m D +-0.0m
gnssOk? True diffSoln? False relPosValid? False
carrSoln: No soln
isMoving? False extrapRefPos? False extrapRebObs? False2seconds
UBX: 0xb56201075c00485d7a08e20703130f1e13f7eb0300001d6d01000301ea12a7b073bd741dfd173d62150094ab1500b40300005705000000000000feffffff1200000002000000000000007f00000080a81201710000001219263b00000000000000004793
UBX-NAV-RELPOSNED b562013c280000000000485d7a0800000000000000000000000000000000000000000000000000000000010000008de7
ver0 station 0
142237000ms - Monday 15:30:37
position: 0.0m N +-0.0m, 0.0m E +-0.0m, 0.0m D +-0.0m
gnssOk? True diffSoln? False relPosValid? False
carrSoln: No soln
isMoving? False extrapRefPos? False extrapRebObs? False3seconds
UBX: 0xb56201075c0030617a08e20703130f1e14f7eb030000826c01000301ea12a8b073bd721dfd172862150080ab1500b203000054050000fbffffff040000000a00000006000000000000006700000080a81201710000001219263b00000000000000004e0a
UBX-NAV-RELPOSNED b562013c28000000000030617a0800000000000000000000000000000000000000000000000000000000010000007913
ver0 station 0
142238000ms - Monday 15:30:38
position: 0.0m N +-0.0m, 0.0m E +-0.0m, 0.0m D +-0.0m
gnssOk? True diffSoln? False relPosValid? False
carrSoln: No soln
isMoving? False extrapRefPos? False extrapRebObs? False4seconds
UBX: 0xb56201075c0018657a08e20703130f1e15f7eb030000e86b01000301ea12aab073bd701dfd171062150067ab1500b003000051050000feffffff000000000f00000002000000000000007100000080a81201710000001219263b00000000000000007425
UBX-NAV-RELPOSNED b562013c28000000000018657a080000000000000000000000000000000000000000000000000000000001000000653f
ver0 station 0
142239000ms - Monday 15:30:39
position: 0.0m N +-0.0m, 0.0m E +-0.0m, 0.0m D +-0.0m
gnssOk? True diffSoln? False relPosValid? False
carrSoln: No soln
isMoving? False extrapRefPos? False extrapRebObs? False5seconds
UBX: 0xb56201075c0000697a08e20703130f1e16f7eb0300004d6b01000301ea12abb073bd6f1dfd17f36115004aab1500ae0300004f0500000400000002000000edffffff04000000000000007600000080a81201710000001219263b0000000000000000747c
UBX-NAV-RELPOSNED b562013c28000000000000697a080000000000000000000000000000000000000000000000000000000001000000516b
ver0 station 0
142240000ms - Monday 15:30:40
position: 0.0m N +-0.0m, 0.0m E +-0.0m, 0.0m D +-0.0m
gnssOk? True diffSoln? False relPosValid? False
carrSoln: No soln
isMoving? False extrapRefPos? False extrapRebObs? False6seconds
UBX: 0xb56201075c00e86c7a08e20703130f1e17f7eb030000b36a01000301ea12adb073bd6e1dfd17e86115003fab1500ac0300004c050000ffffffff01000000f4ffffff01000000000000007b00000080a81201710000001219263b0000000000000000ab22
UBX-NAV-RELPOSNED b562013c280000000000e86c7a0800000000000000000000000000000000000000000000000000000000010000003c74
ver0 station 0
142241000ms - Monday 15:30:41
position: 0.0m N +-0.0m, 0.0m E +-0.0m, 0.0m D +-0.0m
gnssOk? True diffSoln? False relPosValid? False
carrSoln: No soln
isMoving? False extrapRefPos? False extrapRebObs? False7seconds
UBX: 0xb56201075c00d0707a08e20703130f1e18f7eb030000196a01000301ea12aeb073bd6c1dfd17db61150033ab1500aa030000490500000400000001000000f8ffffff04000000000000006700000080a81201710000001219263b0000000000000000da12
UBX-NAV-RELPOSNED b562013c280000000000d0707a08000000000000000000000000000000000000000000000000000000000100000028a0
ver0 station 0
142242000ms - Monday 15:30:42
position: 0.0m N +-0.0m, 0.0m E +-0.0m, 0.0m D +-0.0m
gnssOk? True diffSoln? False relPosValid? False
carrSoln: No soln
isMoving? False extrapRefPos? False extrapRebObs? False8seconds
UBX: 0xb56201075c00b8747a08e20703130f1e19f7eb0300007f6901000301ea12b0b073bd6a1dfd17cd61150025ab1500a90300004605000002000000feffffff0500000003000000000000006b00000080a81201710000001219263b00000000000000001751
UBX-NAV-RELPOSNED b562013c280000000000b8747a08000000000000000000000000000000000000000000000000000000000100000014cc
ver0 station 0
142243000ms - Monday 15:30:43
position: 0.0m N +-0.0m, 0.0m E +-0.0m, 0.0m D +-0.0m
gnssOk? True diffSoln? False relPosValid? False
carrSoln: No soln
isMoving? False extrapRefPos? False extrapRebObs? False9seconds
UBX: 0xb56201075c00a0787a08e20703130f1e1af7eb030000e56801000301ea12b2b073bd681dfd17b961150011ab1500a803000043050000fcffffffffffffff0700000004000000000000006600000080a81201710000001219263b00000000000000003332
UBX-NAV-RELPOSNED b562013c280000000000a0787a08000000000000000000000000000000000000000000000000000000000100000000f8
ver0 station 0
142244000ms - Monday 15:30:44
position: 0.0m N +-0.0m, 0.0m E +-0.0m, 0.0m D +-0.0m
gnssOk? True diffSoln? False relPosValid? False
carrSoln: No soln
isMoving? False extrapRefPos? False extrapRebObs? False10seconds
UBX: 0xb56201075c00887c7a08e20703130f1e1bf7eb0300004b6801000301ea12b4b073bd661dfd17a6611500fdaa1500a703000041050000ffffffff02000000feffffff03000000000000005f00000080a81201710000001219263b000000000000000050fd
UBX-NAV-RELPOSNED b562013c280000000000887c7a080000000000000000000000000000000000000000000000000000000001000000ec24
ver0 station 0
142245000ms - Monday 15:30:45
position: 0.0m N +-0.0m, 0.0m E +-0.0m, 0.0m D +-0.0m
gnssOk? True diffSoln? False relPosValid? False
carrSoln: No soln
isMoving? False extrapRefPos? False extrapRebObs? False11seconds
UBX: 0xb56201075c0070807a08e20703130f1e1cf7eb030000b16701000301ea12b6b073bd651dfd17a2611500faaa1500a60300003f050000fdffffff01000000edffffff03000000000000008000000080a81201710000001219263b0000000000000000a668
UBX-NAV-RELPOSNED b562013c28000000000070807a080000000000000000000000000000000000000000000000000000000001000000d850
ver0 station 0
142246000ms - Monday 15:30:46
position: 0.0m N +-0.0m, 0.0m E +-0.0m, 0.0m D +-0.0m
gnssOk? True diffSoln? False relPosValid? False
carrSoln: No soln
isMoving? False extrapRefPos? False extrapRebObs? False12seconds
UBX: 0xb56201075c0058847a08e20703130f1e1df7eb030000186701000301ea12b7b073bd631dfd1793611500eaaa1500a50300003e050000ffffffff05000000fbffffff05000000000000006700000080a81201710000001219263b0000000000000000d54e
UBX-NAV-RELPOSNED b562013c28000000000058847a080000000000000000000000000000000000000000000000000000000001000000c47c
ver0 station 0
142247000ms - Monday 15:30:47
position: 0.0m N +-0.0m, 0.0m E +-0.0m, 0.0m D +-0.0m
gnssOk? True diffSoln? False relPosValid? False
carrSoln: No soln
isMoving? False extrapRefPos? False extrapRebObs? False13seconds
UBX: 0xb56201075c0040887a08e20703130f1e1ef7eb0300007e6601000301ea12b9b073bd611dfd1792611500e9aa1500a60300003d050000fdffffff04000000eaffffff05000000000000008100000080a81201710000001219263b00000000000000002b8d
UBX-NAV-RELPOSNED b562013c28000000000040887a080000000000000000000000000000000000000000000000000000000001000000b0a8
ver0 station 0
142248000ms - Monday 15:30:48
position: 0.0m N +-0.0m, 0.0m E +-0.0m, 0.0m D +-0.0m
gnssOk? True diffSoln? False relPosValid? False
carrSoln: No soln
isMoving? False extrapRefPos? False extrapRebObs? False14seconds
UBX: 0xb56201075c00288c7a08e20703130f1e1ff7eb030000e56501000301ea12bbb073bd5f1dfd1793611500eaaa1500a60300003c0500000400000007000000e1ffffff09000000000000007b00000080a81201710000001219263b00000000000000008116
UBX-NAV-RELPOSNED b562013c280000000000288c7a0800000000000000000000000000000000000000000000000000000000010000009cd4
ver0 station 0
142249000ms - Monday 15:30:49
position: 0.0m N +-0.0m, 0.0m E +-0.0m, 0.0m D +-0.0m
gnssOk? True diffSoln? False relPosValid? False
carrSoln: No soln
isMoving? False extrapRefPos? False extrapRebObs? False15seconds
UBX: 0xb56201075c0010907a08e20703130f1e20f7eb0300004d6501000301ea12bcb073bd5e1dfd178f611500e7aa1500a60300003b0500000000000001000000d5ffffff02000000000000008100000080a81201710000001219263b0000000000000000b7b0
UBX-NAV-RELPOSNED b562013c28000000000010907a0800000000000000000000000000000000000000000000000000000000010000008800
ver0 station 0
142250000ms - Monday 15:30:50
position: 0.0m N +-0.0m, 0.0m E +-0.0m, 0.0m D +-0.0m
gnssOk? True diffSoln? False relPosValid? False
carrSoln: No soln
isMoving? False extrapRefPos? False extrapRebObs? False16seconds
UBX: 0xb56201075c00f8937a08e20703130f1e21f7eb030000b56401000301ea12bdb073bd5c1dfd1792611500eaaa1500a70300003b0500000000000001000000fbffffff01000000000000006d00000080a81201710000001219263b000000000000000021b4
UBX-NAV-RELPOSNED b562013c280000000000f8937a0800000000000000000000000000000000000000000000000000000000010000007309
ver0 station 0
142251000ms - Monday 15:30:51
position: 0.0m N +-0.0m, 0.0m E +-0.0m, 0.0m D +-0.0m
gnssOk? True diffSoln? False relPosValid? False
carrSoln: No soln
isMoving? False extrapRefPos? False extrapRebObs? False17seconds
UBX: 0xb56201075c00e0977a08e20703130f1e22f7eb0300001d6401000301ea12bfb073bd5b1dfd1794611500ecaa1500a70300003a0500000100000002000000ffffffff03000000000000005b00000080a81201710000001219263b00000000000000007026
UBX-NAV-RELPOSNED b562013c280000000000e0977a0800000000000000000000000000000000000000000000000000000000010000005f35
ver0 station 0
142252000ms - Monday 15:30:52
position: 0.0m N +-0.0m, 0.0m E +-0.0m, 0.0m D +-0.0m
gnssOk? True diffSoln? False relPosValid? False
carrSoln: No soln
isMoving? False extrapRefPos? False extrapRebObs? False18seconds
19seconds
UBX: 0xb56201075c0098a37a08e20703130f1e25f7eb030000506201000303ea12d7b073bd4e1dfd17136115006baa15009b030000290500000000000006000000060000000600000000000000180000008c988100710000001219263b00000000000000008d13
UBX-NAV-RELPOSNED b562013c28000000000098a37a08430200003600000008000000602a3000621d0000e91400009933000007000000aedd
ver0 station 0
142255000ms - Monday 15:30:55
position: 5.7996m N +-0.7522m, 0.5442m E +-0.5353m, 0.0848m D +-1.3209m
gnssOk? True diffSoln? True relPosValid? True
carrSoln: No soln
isMoving? False extrapRefPos? False extrapRebObs? False20seconds
UBX: 0xb56201075c0080a77a08e20703130f1e26f7eb030000b56101000303ea12dfb073bd4c1dfd17336115008baa1500920300001c050000ffffffffffffffff000000000100000000000000040000008afc1800710000001219263b0000000000000000da14
UBX-NAV-RELPOSNED b562013c28000000000080a77a08410200003d000000050000004c2c1e002b1d00009c1400001733000007000000727b
ver0 station 0
142256000ms - Monday 15:30:56
position: 5.7776m N +-0.7467m, 0.6144m E +-0.5276m, 0.053000000000000005m D +-1.3079m
gnssOk? True diffSoln? True relPosValid? True
carrSoln: No soln
isMoving? False extrapRefPos? False extrapRebObs? False21seconds
UBX: 0xb56201075c0068ab7a08e20703130f1e27f7eb0300001a6101000343ea12d6b073bd501dfd1749611500a1aa1500bf010000b10100000000000001000000070000000100000000000000050000009f4c1b00710000001219263b0000000000000000c8be
UBX-NAV-RELPOSNED b562013c28000000000068ab7a0846020000350000000300000027590900a10d0000e90a0000e71000000f000000aa79
ver0 station 0
142257000ms - Monday 15:30:57
position: 5.8239m N +-0.3489m, 0.5389m E +-0.2793m, 0.0309m D +-0.4327m
gnssOk? True diffSoln? True relPosValid? True
carrSoln: float
isMoving? False extrapRefPos? False extrapRebObs? False22seconds
UBX: 0xb56201075c0050af7a08e20703130f1e28f7eb030000826001000343ea12d4b073bd511dfd17446115009baa1500b901000087010000ffffffff040000000900000005000000000000000400000074e11400710000001219263b00000000000000004748
UBX-NAV-RELPOSNED b562013c28000000000050af7a0847020000330000000300000020463e00710d0000be0a0000430f00000f000000b027
ver0 station 0
142258000ms - Monday 15:30:58
position: 5.8332m N +-0.3441m, 0.517m E +-0.275m, 0.036199999999999996m D +-0.3907m
gnssOk? True diffSoln? True relPosValid? True
carrSoln: float
isMoving? False extrapRefPos? False extrapRebObs? False23seconds
UBX: 0xb56201075c0038b37a08e20703130f1e29f7ea030000ec5f01000343ea12d1b073bd521dfd17f56015004caa1500af01000084010000010000000300000003000000040000000000000005000000035b1c00710000001219263b0000000000000000fdb0
UBX-NAV-RELPOSNED b562013c28000000000038b37a0848020000310000000b0000003a0c3400230d0000830a0000290f00000f000000d68d
ver0 station 0
142259000ms - Monday 15:30:59
position: 5.8458m N +-0.3363m, 0.49119999999999997m E +-0.2691m, 0.1152m D +-0.3881m
gnssOk? True diffSoln? True relPosValid? True
carrSoln: float
isMoving? False extrapRefPos? False extrapRebObs? False24seconds
UBX: 0xb56201075c0020b77a08e20703130f1e2af7eb030000565f01000343ea12ccb073bd561dfd1770601500c8a91500a40100007901000005000000ffffffff0500000005000000000000000300000086bf0f00710000001219263b00000000000000000c47
UBX-NAV-RELPOSNED b562013c28000000000020b77a084c0200002d00000018000000561c4e00cf0c0000440a0000bc0e00000f0000001383
ver0 station 0
142260000ms - Monday 15:31:0
position: 5.8886m N +-0.3279m, 0.45280000000000004m E +-0.2628m, 0.2478m D +-0.3772m
gnssOk? True diffSoln? True relPosValid? True
carrSoln: float
isMoving? False extrapRefPos? False extrapRebObs? False25seconds
UBX: 0xb56201075c0008bb7a08e20703130f1e2bf7eb030000c15e01000343ea12cab073bd5e1dfd17d66015002eaa1500990100006e01000006000000000000000a00000006000000000000000400000023201300710000001219263b00000000000000002eea
UBX-NAV-RELPOSNED b562013c28000000000008bb7a08560200002b0000000e0000000e393800710c0000000a0000500e00000f000000ae52
ver0 station 0
142261000ms - Monday 15:31:1
position: 5.981400000000001m N +-0.3185m, 0.4357m E +-0.256m, 0.1456m D +-0.3664m
gnssOk? True diffSoln? True relPosValid? True
carrSoln: float
isMoving? False extrapRefPos? False extrapRebObs? False26seconds
UBX: 0xb56201075c00f0be7a08e20703130f1e2cf7eb0300002b5e01000383ea12a3b073bd681dfd1765621500bcab15000e0000000a0000000100000000000000070000000100000070d0bf01050000005bbd1900710000001219263b0000000000000000a53e
UBX-NAV-RELPOSNED b562013c280000000000f0be7a08610200000a000000e7ffffff0628e300640000006400000064000000170000003a74
ver0 station 0
142262000ms - Monday 15:31:2
position: 6.0906m N +-0.01m, 0.10400000000000001m E +-0.01m, -0.2273m D +-0.01m
gnssOk? True diffSoln? True relPosValid? True
carrSoln: fix
isMoving? False extrapRefPos? False extrapRebObs? False27seconds
UBX: 0xb56201075c00d8c27a08e20703130f1e2df7eb030000955d01000383ea12a3b073bd681dfd1767621500beab15000e0000000a0000000100000002000000fdffffff0200000070d0bf0103000000cc101200710000001219263b0000000000000000b062
UBX-NAV-RELPOSNED b562013c280000000000d8c27a08610200000a000000e7ffffff0b19d100640000006400000064000000170000000aa3
ver0 station 0
142263000ms - Monday 15:31:3
position: 6.0911m N +-0.01m, 0.10250000000000001m E +-0.01m, -0.2291m D +-0.01m
gnssOk? True diffSoln? True relPosValid? True
carrSoln: fix
isMoving? False extrapRefPos? False extrapRebObs? False28seconds
UBX: 0xb56201075c00c0c67a08e20703130f1e2ef7eb030000005d01000383ea12a3b073bd681dfd1764621500bcab15000e0000000a00000001000000feffffff010000000200000070d0bf010300000082e21700710000001219263b0000000000000000902c
UBX-NAV-RELPOSNED b562013c280000000000c0c67a08610200000a000000e7ffffff1e1aeb00640000006400000064000000170000002432
ver0 station 0
142264000ms - Monday 15:31:4
position: 6.093m N +-0.01m, 0.10260000000000001m E +-0.01m, -0.2265m D +-0.01m
gnssOk? True diffSoln? True relPosValid? True
carrSoln: fix
isMoving? False extrapRefPos? False extrapRebObs? False29seconds
UBX: 0xb56201075c00a8ca7a08e20703130f1e2ff7ec0300006b5c01000383ea12a3b073bd681dfd1768621500c0ab15000e0000000a00000004000000ffffffff070000000400000070d0bf0104000000a2151800710000001219263b0000000000000000511a
UBX-NAV-RELPOSNED b562013c280000000000a8ca7a08610200000a000000e7ffffff1923c40064000000640000006400000017000000ede7
ver0 station 0
142265000ms - Monday 15:31:5
position: 6.0925m N +-0.01m, 0.10350000000000001m E +-0.01m, -0.2304m D +-0.01m
gnssOk? True diffSoln? True relPosValid? True
carrSoln: fix
isMoving? False extrapRefPos? False extrapRebObs? False30seconds
UBX: 0xb56201075c0090ce7a08e20703130f1e30f7ec030000d55b01000383ea12a3b073bd681dfd1766621500bdab15000e0000000a00000006000000ffffffff080000000600000070d0bf010300000071321200710000001219263b00000000000000008cd0
UBX-NAV-RELPOSNED b562013c28000000000090ce7a08610200000a000000e7ffffff201cdb0064000000640000006400000017000000f0b8
ver0 station 0
142266000ms - Monday 15:31:6
position: 6.0931999999999995m N +-0.01m, 0.1028m E +-0.01m, -0.2281m D +-0.01m
gnssOk? True diffSoln? True relPosValid? True
carrSoln: fix
isMoving? False extrapRefPos? False extrapRebObs? False31seconds
UBX: 0xb56201075c0078d27a08e20703130f1e31f7ec030000405b01000383ea12a3b073bd681dfd176a621500c2ab15000e0000000a0000000400000002000000040000000400000070d0bf010300000088c71100710000001219263b00000000000000009645
UBX-NAV-RELPOSNED b562013c28000000000078d27a08610200000a000000e7ffffff0d21ac00640000006400000064000000170000009f79
ver0 station 0
142267000ms - Monday 15:31:7
position: 6.0912999999999995m N +-0.01m, 0.1033m E +-0.01m, -0.2328m D +-0.01m
gnssOk? True diffSoln? True relPosValid? True
carrSoln: fix
isMoving? False extrapRefPos? False extrapRebObs? False32seconds
UBX: 0xb56201075c0060d67a08e20703130f1e32f7ec030000ab5a01000383ea12a3b073bd681dfd1767621500beab15000e0000000a00000008000000030000000a0000000800000070d0bf010400000032181400710000001219263b0000000000000000f411
UBX-NAV-RELPOSNED b562013c28000000000060d67a08610200000a000000e7ffffff1933cf0064000000640000006400000017000000cc61
ver0 station 0
142268000ms - Monday 15:31:8
position: 6.0925m N +-0.01m, 0.1051m E +-0.01m, -0.2293m D +-0.01m
gnssOk? True diffSoln? True relPosValid? True
carrSoln: fix
isMoving? False extrapRefPos? False extrapRebObs? False33seconds
UBX: 0xb56201075c0048da7a08e20703130f1e33f7ec030000175a01000383ea12a3b073bd681dfd1767621500bfab15000e0000000a0000000300000000000000060000000300000070d0bf01030000003c961300710000001219263b0000000000000000c3eb
UBX-NAV-RELPOSNED b562013c28000000000048da7a08610200000a000000e7ffffff2d29cb0064000000640000006400000017000000be17
ver0 station 0
142269000ms - Monday 15:31:9
position: 6.0945m N +-0.01m, 0.10410000000000001m E +-0.01m, -0.22970000000000002m D +-0.01m
gnssOk? True diffSoln? True relPosValid? True
carrSoln: fix
isMoving? False extrapRefPos? False extrapRebObs? False34seconds
UBX: 0xb56201075c0030de7a08e20703130f1e34f7ec030000825901000383ea12a3b073bd681dfd1768621500bfab15000e0000000a000000fcffffff00000000fdffffff0400000070d0bf0103000000e3911100700000001219263b0000000000000000a5fb
UBX-NAV-RELPOSNED b562013c28000000000030de7a08610200000a000000e7ffffff071dc800640000006400000064000000170000007531
ver0 station 0
142270000ms - Monday 15:31:10
position: 6.0907m N +-0.01m, 0.1029m E +-0.01m, -0.23m D +-0.01m
gnssOk? True diffSoln? True relPosValid? True
carrSoln: fix
isMoving? False extrapRefPos? False extrapRebObs? False35seconds
UBX: 0xb56201075c0018e27a08e20703130f1e35f7ec030000ee5801000383ea12a3b073bd681dfd1764621500bcab15000e0000000a0000000100000002000000030000000200000070d0bf0103000000a91a1500700000001219263b00000000000000005ad9
UBX-NAV-RELPOSNED b562013c28000000000018e27a08610200000a000000e7ffffff142eea0064000000640000006400000017000000a108
ver0 station 0
142271000ms - Monday 15:31:11
position: 6.092m N +-0.01m, 0.1046m E +-0.01m, -0.2266m D +-0.01m
gnssOk? True diffSoln? True relPosValid? True
carrSoln: fix
isMoving? False extrapRefPos? False extrapRebObs? False36seconds
UBX: 0xb56201075c0000e67a08e20703130f1e36f7ec0300005a5801000383ea12a3b073bd681dfd1766621500bdab15000e0000000a000000fdffffffffffffff000000000300000070d0bf010300000041001400700000001219263b00000000000000002433
UBX-NAV-RELPOSNED b562013c28000000000000e67a08610200000a000000e7ffffff022adc00640000006400000064000000170000006984
ver0 station 0
142272000ms - Monday 15:31:12
position: 6.0902m N +-0.01m, 0.1042m E +-0.01m, -0.228m D +-0.01m
gnssOk? True diffSoln? True relPosValid? True
carrSoln: fix
isMoving? False extrapRefPos? False extrapRebObs? False37seconds
UBX: 0xb56201075c00e8e97a08e20703130f1e37f7ec030000c55701000383ea12a3b073bd681dfd1762621500b9ab15000e0000000a0000000700000000000000040000000700000070d0bf0104000000b9b61700700000001219263b0000000000000000bdaf
UBX-NAV-RELPOSNED b562013c280000000000e8e97a08610200000a000000e8ffffff1027a00064000000640000006400000017000000244c
ver0 station 0
142273000ms - Monday 15:31:13
position: 6.0916m N +-0.01m, 0.1039m E +-0.01m, -0.22399999999999998m D +-0.01m
gnssOk? True diffSoln? True relPosValid? True
carrSoln: fix
isMoving? False extrapRefPos? False extrapRebObs? False38seconds
UBX: 0xb56201075c00d0ed7a08e20703130f1e38f7ec030000315701000383ea12a3b073bd681dfd1767621500beab15000e0000000a0000000100000002000000080000000200000070d0bf010300000070bd1100700000001219263b0000000000000000d2a6
UBX-NAV-RELPOSNED b562013c280000000000d0ed7a08610200000a000000e7ffffff072ed000640000006400000064000000170000003d91
ver0 station 0
142274000ms - Monday 15:31:14
position: 6.0907m N +-0.01m, 0.1046m E +-0.01m, -0.22920000000000001m D +-0.01m
gnssOk? True diffSoln? True relPosValid? True
carrSoln: fix
isMoving? False extrapRefPos? False extrapRebObs? False39seconds
UBX: 0xb56201075c00b8f17a08e20703130f1e39f7ec0300009c5601000383ea12a3b073bd681dfd1765621500bdab15000e0000000a000000fdffffff02000000070000000400000070d0bf0102000000d7311000700000001219263b0000000000000000f9f9
UBX-NAV-RELPOSNED b562013c280000000000b8f17a08610200000a000000e7ffffff001ddd00640000006400000064000000170000001ed8
ver0 station 0
142275000ms - Monday 15:31:15
position: 6.09m N +-0.01m, 0.1029m E +-0.01m, -0.2279m D +-0.01m
gnssOk? True diffSoln? True relPosValid? True
carrSoln: fix
isMoving? False extrapRefPos? False extrapRebObs? False40seconds
UBX: 0xb56201075c00a0f57a08e20703130f1e3af7ec030000085601000383ea12a3b073bd681dfd1763621500bbab15000e0000000a000000fdfffffffcffffff070000000500000070d0bf0102000000fe300f00700000001219263b00000000000000006be4
UBX-NAV-RELPOSNED b562013c280000000000a0f57a08610200000a000000e7ffffff0c1ff200640000006400000064000000170000002d94
ver0 station 0
142276000ms - Monday 15:31:16
position: 6.0912m N +-0.01m, 0.10310000000000001m E +-0.01m, -0.2258m D +-0.01m
gnssOk? True diffSoln? True relPosValid? True
carrSoln: fix
isMoving? False extrapRefPos? False extrapRebObs? False41seconds
UBX: 0xb56201075c0088f97a08e20703130f1e3bf7ec030000735501000383ea12a3b073bd681dfd1766621500bdab15000e0000000a00000001000000fdffffff0c0000000300000070d0bf0103000000aab80e00700000001219263b000000000000000006f7
UBX-NAV-RELPOSNED b562013c28000000000088f97a08600200000a000000e7ffffff5f1ddc0064000000640000006400000017000000536a
ver0 station 0
142277000ms - Monday 15:31:17
position: 6.0895m N +-0.01m, 0.1029m E +-0.01m, -0.228m D +-0.01m
gnssOk? True diffSoln? True relPosValid? True
carrSoln: fix
isMoving? False extrapRefPos? False extrapRebObs? False42seconds
UBX: 0xb56201075c0070fd7a08e20703130f1f00f7eb030000de5401000383ea12a3b073bd681dfd1766621500beab15000e0000000a0000000100000001000000fcffffff0100000070d0bf0102000000667a1200700000001219263b00000000000000009503
UBX-NAV-RELPOSNED b562013c28000000000070fd7a08610200000a000000e7ffffff1114d30064000000640000006400000017000000e051
ver0 station 0
142278000ms - Monday 15:31:18
position: 6.0916999999999994m N +-0.01m, 0.10200000000000001m E +-0.01m, -0.2289m D +-0.01m
gnssOk? True diffSoln? True relPosValid? True
carrSoln: fix
isMoving? False extrapRefPos? False extrapRebObs? False43seconds
UBX: 0xb56201075c0058017b08e20703130f1f01f7eb030000495401000383ea12a3b073bd681dfd1769621500c0ab15000e0000000a0000000500000000000000030000000500000070d0bf0103000000630b1500700000001219263b000000000000000096a2
UBX-NAV-RELPOSNED b562013c28000000000058017b08610200000a000000e7ffffff2424be0064000000640000006400000017000000dbd1
ver0 station 0
142279000ms - Monday 15:31:19
position: 6.0935999999999995m N +-0.01m, 0.10360000000000001m E +-0.01m, -0.231m D +-0.01m
gnssOk? True diffSoln? True relPosValid? True
carrSoln: fix
isMoving? False extrapRefPos? False extrapRebObs? False44seconds
UBX: 0xb56201075c0040057b08e20703130f1f02f7eb030000b55301000383ea12a3b073bd681dfd1768621500c0ab15000e0000000a0000000000000000000000050000000000000070d0bf0102000000a0e00d00700000001219263b0000000000000000ee00
UBX-NAV-RELPOSNED b562013c28000000000040057b08610200000a000000e7ffffff0915c10064000000640000006400000017000000a0fa
ver0 station 0
142280000ms - Monday 15:31:20
position: 6.0908999999999995m N +-0.01m, 0.10210000000000001m E +-0.01m, -0.2307m D +-0.01m
gnssOk? True diffSoln? True relPosValid? True
carrSoln: fix
isMoving? False extrapRefPos? False extrapRebObs? False45seconds
UBX: 0xb56201075c0028097b08e20703130f1f03f7eb030000205301000383ea12a3b073bd681dfd176e621500c6ab15000e0000000a0000000200000002000000060000000200000070d0bf01020000007be90c00700000001219263b00000000000000003c5b
UBX-NAV-RELPOSNED b562013c28000000000028097b08600200000a000000e6ffffff5524e900640000006400000064000000170000000dcb
ver0 station 0
142281000ms - Monday 15:31:21
position: 6.0885m N +-0.01m, 0.10360000000000001m E +-0.01m, -0.23670000000000002m D +-0.01m
gnssOk? True diffSoln? True relPosValid? True
carrSoln: fix
isMoving? False extrapRefPos? False extrapRebObs? False46seconds
UBX: 0xb56201075c00100d7b08e20703130f1f04f7ec0300008b5201000383ea12a3b073bd681dfd176b621500c3ab15000e0000000a000000ffffffff02000000fdffffff0200000070d0bf0102000000cd310f00700000001219263b00000000000000001930
UBX-NAV-RELPOSNED b562013c280000000000100d7b08600200000a000000e7ffffff512ea40064000000640000006400000017000000bba3
ver0 station 0
142282000ms - Monday 15:31:22
position: 6.0881m N +-0.01m, 0.1046m E +-0.01m, -0.2336m D +-0.01m
gnssOk? True diffSoln? True relPosValid? True
carrSoln: fix
isMoving? False extrapRefPos? False extrapRebObs? False47seconds
UBX: 0xb56201075c00f8107b08e20703130f1f05f7ec030000f65101000383ea12a3b073bd681dfd1769621500c1ab15000e0000000a000000ffffffff00000000feffffff0100000070d0bf0102000000abfe0c00700000001219263b00000000000000001191
UBX-NAV-RELPOSNED b562013c280000000000f8107b08600200000a000000e7ffffff6123b70064000000640000006400000017000000be71
ver0 station 0
142283000ms - Monday 15:31:23
position: 6.0897m N +-0.01m, 0.10350000000000001m E +-0.01m, -0.2317m D +-0.01m
gnssOk? True diffSoln? True relPosValid? True
carrSoln: fix
isMoving? False extrapRefPos? False extrapRebObs? False48seconds
UBX: 0xb56201075c00e0147b08e20703130f1f063704000000605101000383ea12a3b073bd681dfd1767621500bfab15000e0000000a000000fffffffffeffffff020000000200000070d0bf010200000000cf0f00700000001219263b0000000000000000e5c3
UBX-NAV-RELPOSNED b562013c280000000000e0147b08610200000a000000e7ffffff1a20cd00640000006400000064000000170000007784
ver0 station 0
142284000ms - Monday 15:31:24
position: 6.0926m N +-0.01m, 0.1032m E +-0.01m, -0.2295m D +-0.01m
gnssOk? True diffSoln? True relPosValid? True
carrSoln: fix
isMoving? False extrapRefPos? False extrapRebObs? False49seconds
UBX: 0xb56201075c00c8187b08e20703130f1f073704000000cb5001000383ea12a3b073bd681dfd1768621500c0ab15000e0000000a0000000100000003000000f5ffffff0300000070d0bf0104000000186a1600700000001219263b0000000000000000f8d3
UBX-NAV-RELPOSNED b562013c280000000000c8187b08610200000a000000e7ffffff221fc40064000000640000006400000017000000619b
ver0 station 0
142285000ms - Monday 15:31:25
position: 6.0934m N +-0.01m, 0.10310000000000001m E +-0.01m, -0.2304m D +-0.01m
gnssOk? True diffSoln? True relPosValid? True
carrSoln: fix
isMoving? False extrapRefPos? False extrapRebObs? False50seconds
UBX: 0xb56201075c00b01c7b08e20703130f1f083704000000365001000383ea12a3b073bd681dfd1769621500c0ab15000e0000000a00000005000000fffffffffaffffff0500000070d0bf0102000000fed20d00700000001219263b00000000000000009861
UBX-NAV-RELPOSNED b562013c280000000000b01c7b08610200000a000000e7ffffff2a1ebc00640000006400000064000000170000004cc4
ver0 station 0
142286000ms - Monday 15:31:26
position: 6.0942m N +-0.01m, 0.10300000000000001m E +-0.01m, -0.2312m D +-0.01m
gnssOk? True diffSoln? True relPosValid? True
carrSoln: fix
isMoving? False extrapRefPos? False extrapRebObs? False51seconds
UBX: 0xb56201075c0098207b08e20703130f1f093704000000a14f01000383ea12a3b073bd681dfd1767621500beab15000e0000000a00000006000000ffffffff040000000600000070d0bf0103000000aa3f0f00700000001219263b000000000000000016ed
UBX-NAV-RELPOSNED b562013c28000000000098207b08610200000a000000e7ffffff2014d1006400000064000000640000001700000039e4
ver0 station 0
142287000ms - Monday 15:31:27
position: 6.0931999999999995m N +-0.01m, 0.10200000000000001m E +-0.01m, -0.2291m D +-0.01m
gnssOk? True diffSoln? True relPosValid? True
carrSoln: fix
isMoving? False extrapRefPos? False extrapRebObs? False52seconds
UBX: 0xb56201075c0080247b08e20703130f1f0a37040000000d4f01000383ea12a3b073bd681dfd176a621500c1ab15000e0000000a0000000000000001000000010000000100000070d0bf01020000004f4e0f00700000001219263b00000000000000001f0e
UBX-NAV-RELPOSNED b562013c28000000000080247b08610200000a000000e7ffffff0f1fb400640000006400000064000000170000000283
ver0 station 0
142288000ms - Monday 15:31:28
position: 6.0915m N +-0.01m, 0.10310000000000001m E +-0.01m, -0.232m D +-0.01m
gnssOk? True diffSoln? True relPosValid? True
carrSoln: fix
isMoving? False extrapRefPos? False extrapRebObs? False53seconds
UBX: 0xb56201075c0068287b08e20703130f1f0b3704000000784e01000383ea12a3b073bd681dfd1769621500c0ab15000e0000000a000000ffffffffffffffff000000000200000070d0bf0102000000471a0d00700000001219263b00000000000000002d21
UBX-NAV-RELPOSNED b562013c28000000000068287b08600200000a000000e7ffffff591fbd006400000064000000640000001700000040f9
ver0 station 0
142289000ms - Monday 15:31:29
position: 6.0889m N +-0.01m, 0.10310000000000001m E +-0.01m, -0.2311m D +-0.01m
gnssOk? True diffSoln? True relPosValid? True
carrSoln: fix
isMoving? False extrapRefPos? False extrapRebObs? False54seconds
UBX: 0xb56201075c00502c7b08e20703130f1f0c3704000000e34d01000383ea12a3b073bd681dfd176a621500c2ab15000e0000000a0000000200000004000000000000000500000070d0bf0103000000bed11400700000001219263b0000000000000000ce77
UBX-NAV-RELPOSNED b562013c280000000000502c7b08610200000a000000e7ffffff0627af0064000000640000006400000017000000d465
ver0 station 0
142290000ms - Monday 15:31:30
position: 6.0906m N +-0.01m, 0.1039m E +-0.01m, -0.23249999999999998m D +-0.01m
gnssOk? True diffSoln? True relPosValid? True
carrSoln: fix
isMoving? False extrapRefPos? False extrapRebObs? False55seconds
UBX: 0xb56201075c0038307b08e20703130f1f0d37040000004e4d01000383ea12a3b073bd681dfd1767621500bfab15000e0000000a00000000000000fdffffffffffffff0300000070d0bf0103000000d68e1600700000001219263b0000000000000000e55c
UBX-NAV-RELPOSNED b562013c28000000000038307b08610200000a000000e7ffffff220bcc0064000000640000006400000017000000ddb7
ver0 station 0
142291000ms - Monday 15:31:31
position: 6.0934m N +-0.01m, 0.10110000000000001m E +-0.01m, -0.2296m D +-0.01m
gnssOk? True diffSoln? True relPosValid? True
carrSoln: fix
isMoving? False extrapRefPos? False extrapRebObs? False56seconds
UBX: 0xb56201075c0020347b08e20703130f1f0e3704000000ba4c01000383ea12a3b073bd681dfd1766621500beab15000e0000000a00000004000000feffffff090000000500000070d0bf010500000044171700700000001219263b000000000000000049b6
UBX-NAV-RELPOSNED b562013c28000000000020347b08610200000a000000e7ffffff221ed70064000000640000006400000017000000e712
ver0 station 0
142292000ms - Monday 15:31:32
position: 6.0934m N +-0.01m, 0.10300000000000001m E +-0.01m, -0.2285m D +-0.01m
gnssOk? True diffSoln? True relPosValid? True
carrSoln: fix
isMoving? False extrapRefPos? False extrapRebObs? False57seconds
UBX: 0xb56201075c0008387b08e20703130f1f0f3704000000244c01000383ea12a3b073bd681dfd1769621500c0ab15000e0000000a0000000100000003000000010000000300000070d0bf01030000006af61500700000001219263b0000000000000000a1f7
UBX-NAV-RELPOSNED b562013c28000000000008387b08610200000a000000e7ffffff1f14be0064000000640000006400000017000000ad82
ver0 station 0
142293000ms - Monday 15:31:33
position: 6.0931m N +-0.01m, 0.10200000000000001m E +-0.01m, -0.231m D +-0.01m
gnssOk? True diffSoln? True relPosValid? True
carrSoln: fix
isMoving? False extrapRefPos? False extrapRebObs? False58seconds
UBX: 0xb56201075c00f03b7b08e20703130f1f1037030000008f4b01000383ea12a3b073bd681dfd1764621500bcab15000e0000000a0000000400000001000000060000000400000070d0bf0103000000be091300700000001219263b000000000000000059b4
UBX-NAV-RELPOSNED b562013c280000000000f03b7b08610200000a000000e7ffffff2a10e90064000000640000006400000017000000ca21
ver0 station 0
142294000ms - Monday 15:31:34
position: 6.0942m N +-0.01m, 0.10160000000000001m E +-0.01m, -0.2267m D +-0.01m
gnssOk? True diffSoln? True relPosValid? True
carrSoln: fix
isMoving? False extrapRefPos? False extrapRebObs? False59seconds
UBX: 0xb56201075c00d83f7b08e20703130f1f113703000000fa4a01000383ea12a3b073bd681dfd1765621500bdab15000e0000000a000000ffffffff05000000030000000500000070d0bf010200000001961000700000001219263b0000000000000000781e
UBX-NAV-RELPOSNED b562013c280000000000d83f7b08610200000a000000e7ffffff2718e10064000000640000006400000017000000b319
ver0 station 0
142295000ms - Monday 15:31:35
position: 6.0939m N +-0.01m, 0.1024m E +-0.01m, -0.2275m D +-0.01m
gnssOk? True diffSoln? True relPosValid? True
carrSoln: fix
isMoving? False extrapRefPos? False extrapRebObs? False60seconds
UBX: 0xb56201075c00c0437b08e20703130f1f123703000000654a01000383ea12a3b073bd681dfd1764621500bbab15000e0000000a0000000200000001000000000000000200000070d0bf0102000000acd21100700000001219263b0000000000000000b1cc
UBX-NAV-RELPOSNED b562013c280000000000c0437b08610200000a000000e7ffffff1b17ee00640000006400000064000000170000009f2c
ver0 station 0
142296000ms - Monday 15:31:36
position: 6.0927m N +-0.01m, 0.1023m E +-0.01m, -0.2262m D +-0.01m
gnssOk? True diffSoln? True relPosValid? True
carrSoln: fix
isMoving? False extrapRefPos? False extrapRebObs? False61seconds
UBX: 0xb56201075c00a8477b08e20703130f1f133704000000d04901000383ea12a3b073bd681dfd1767621500beab15000e0000000a000000fdffffffffffffff020000000400000070d0bf010300000029ec1800700000001219263b0000000000000000a5c3
UBX-NAV-RELPOSNED b562013c280000000000a8477b08610200000a000000e7ffffff1503cf00640000006400000064000000170000005236
ver0 station 0
142297000ms - Monday 15:31:37
position: 6.0921m N +-0.01m, 0.1003m E +-0.01m, -0.2293m D +-0.01m
gnssOk? True diffSoln? True relPosValid? True
carrSoln: fix
isMoving? False extrapRefPos? False extrapRebObs? False62seconds
UBX: 0xb56201075c00904b7b08e20703130f1f1437040000003b4901000383ea12a3b073bd681dfd1768621500bfab15000e0000000a000000ffffffff01000000ffffffff0100000070d0bf0103000000786a1300700000001219263b0000000000000000c52d
UBX-NAV-RELPOSNED b562013c280000000000904b7b08610200000a000000e7ffffff270cc8006400000064000000640000001700000052f7
ver0 station 0
142298000ms - Monday 15:31:38
position: 6.0939m N +-0.01m, 0.10120000000000001m E +-0.01m, -0.23m D +-0.01m
gnssOk? True diffSoln? True relPosValid? True
carrSoln: fix
isMoving? False extrapRefPos? False extrapRebObs? False63seconds
UBX: 0xb56201075c00784f7b08e20703130f1f153704000000a64801000383ea12a3b073bd681dfd176b621500c2ab15000e0000000a000000ffffffffffffffffffffffff0100000070d0bf01030000008b401200700000001219263b000000000000000005aa
UBX-NAV-RELPOSNED b562013c280000000000784f7b08610200000a000000e7ffffff0b08a90064000000640000006400000017000000ff79
ver0 station 0
142299000ms - Monday 15:31:39
position: 6.0911m N +-0.01m, 0.1008m E +-0.01m, -0.2331m D +-0.01m
gnssOk? True diffSoln? True relPosValid? True
carrSoln: fix
isMoving? False extrapRefPos? False extrapRebObs? False64seconds
UBX: 0xb56201075c0060537b08e20703130f1f163704000000114801000383ea12a3b073bd681dfd1767621500bfab15000e0000000a00000000000000ffffffff020000000100000070d0bf010200000085d41100700000001219263b0000000000000000ecca
UBX-NAV-RELPOSNED b562013c28000000000060537b086102000009000000e7ffffff1964ca006400000064000000640000001700000075c7
ver0 station 0
142300000ms - Monday 15:31:40
position: 6.0925m N +-0.01m, 0.09999999999999999m E +-0.01m, -0.2298m D +-0.01m
gnssOk? True diffSoln? True relPosValid? True
carrSoln: fix
isMoving? False extrapRefPos? False extrapRebObs? False65seconds
UBX: 0xb56201075c0048577b08e20703130f1f1737040000007c4701000383ea12a3b073bd681dfd1767621500bfab15000e0000000a00000005000000000000000c0000000500000070d0bf0104000000ea091500700000001219263b0000000000000000fa0a
UBX-NAV-RELPOSNED b562013c28000000000048577b08610200000a000000e7ffffff2a01c900640000006400000064000000170000000ff8
ver0 station 0
142301000ms - Monday 15:31:41
position: 6.0942m N +-0.01m, 0.10010000000000001m E +-0.01m, -0.2299m D +-0.01m
gnssOk? True diffSoln? True relPosValid? True
carrSoln: fix
isMoving? False extrapRefPos? False extrapRebObs? False66seconds
UBX: 0xb56201075c00305b7b08e20703130f1f183704000000e74601000383ea12a3b073bd681dfd1765621500bdab15000e0000000a0000000200000003000000090000000300000070d0bf0103000000538d0f00700000001219263b00000000000000002e7d
UBX-NAV-RELPOSNED b562013c280000000000305b7b08610200000a000000e7ffffff330ae000640000006400000064000000170000002421
ver0 station 0
142302000ms - Monday 15:31:42
position: 6.0950999999999995m N +-0.01m, 0.101m E +-0.01m, -0.2276m D +-0.01m
gnssOk? True diffSoln? True relPosValid? True
carrSoln: fix
isMoving? False extrapRefPos? False extrapRebObs? False67seconds
UBX: 0xb56201075c00185f7b08e20703130f1f193704000000514601000383ea12a3b073bd681dfd1768621500bfab15000e0000000a0000000500000001000000020000000500000070d0bf010300000041f21100700000001219263b0000000000000000dbea
UBX-NAV-RELPOSNED b562013c280000000000185f7b08610200000a000000e7ffffff3b0cc40064000000640000006400000017000000fe1b
ver0 station 0
142303000ms - Monday 15:31:43
position: 6.095899999999999m N +-0.01m, 0.10120000000000001m E +-0.01m, -0.2304m D +-0.01m
gnssOk? True diffSoln? True relPosValid? True
carrSoln: fix
isMoving? False extrapRefPos? False extrapRebObs? False68seconds
UBX: 0xb56201075c0000637b08e20703130f1f1a3704000000bb4501000383ea12a3b073bd681dfd1767621500beab15000e0000000a0000000200000001000000fbffffff0200000070d0bf0103000000fca41100700000001219263b00000000000000008c4d
UBX-NAV-RELPOSNED b562013c28000000000000637b08610200000a000000e7ffffff3016d20064000000640000006400000017000000f725
ver0 station 0
142304000ms - Monday 15:31:44
position: 6.0948m N +-0.01m, 0.1022m E +-0.01m, -0.229m D +-0.01m
gnssOk? True diffSoln? True relPosValid? True
carrSoln: fix
isMoving? False extrapRefPos? False extrapRebObs? False69seconds
70seconds
71seconds
72seconds
73seconds
UBX: 0xb56201075c00707a7b08e20703130f1f2037030000003b4201000383ea12a3b073bd681dfd1767621500beab15000e0000000a00000002000000fdffffff030000000400000070d0bf0103000000d4bc1200700000001219263b00000000000000008ce3
UBX-NAV-RELPOSNED b562013c280000000000707a7b08610200000a000000e7ffffff1917ce00640000006400000064000000170000006409
ver0 station 0
142310000ms - Monday 15:31:50
position: 6.0925m N +-0.01m, 0.1023m E +-0.01m, -0.2294m D +-0.01m
gnssOk? True diffSoln? True relPosValid? True
carrSoln: fix
isMoving? False extrapRefPos? False extrapRebObs? False74seconds
UBX: 0xb56201075c00587e7b08e20703130f1f213703000000a54101000383ea12a3b073bd681dfd1768621500bfab15000e0000000a00000003000000feffffff0a0000000400000070d0bf010500000051c41800700000001219263b00000000000000007aea
UBX-NAV-RELPOSNED b562013c280000000000587e7b08610200000a000000e7ffffff2415c70064000000640000006400000017000000526d
ver0 station 0
142311000ms - Monday 15:31:51
position: 6.0935999999999995m N +-0.01m, 0.10210000000000001m E +-0.01m, -0.2301m D +-0.01m
gnssOk? True diffSoln? True relPosValid? True
carrSoln: fix
isMoving? False extrapRefPos? False extrapRebObs? False75seconds
UBX: 0xb56201075c0040827b08e20703130f1f223703000000104101000383ea12a3b073bd681dfd1766621500beab15000e0000000a00000000000000feffffff000000000200000070d0bf0103000000fd821700700000001219263b00000000000000002738
UBX-NAV-RELPOSNED b562013c28000000000040827b08610200000a000000e7ffffff0d18d3006400000064000000640000001700000036de
ver0 station 0
142312000ms - Monday 15:31:52
position: 6.0912999999999995m N +-0.01m, 0.1024m E +-0.01m, -0.2289m D +-0.01m
gnssOk? True diffSoln? True relPosValid? True
carrSoln: fix
isMoving? False extrapRefPos? False extrapRebObs? False76seconds
UBX: 0xb56201075c0028867b08e20703130f1f2337030000007a4001000383ea12a3b073bd681dfd1768621500c0ab15000e0000000a0000000400000002000000f8ffffff0500000070d0bf010300000003b71200700000001219263b0000000000000000ba14
UBX-NAV-RELPOSNED b562013c28000000000028867b08610200000a000000e7ffffff1010c100640000006400000064000000170000000b6a
ver0 station 0
142313000ms - Monday 15:31:53
position: 6.0916m N +-0.01m, 0.10160000000000001m E +-0.01m, -0.2307m D +-0.01m
gnssOk? True diffSoln? True relPosValid? True
carrSoln: fix
isMoving? False extrapRefPos? False extrapRebObs? False77seconds
UBX: 0xb56201075c00108a7b08e20703130f1f243703000000e43f01000383ea12a3b073bd681dfd176b621500c2ab15000e0000000a000000f9fffffffdffffff040000000800000070d0bf010300000030911300700000001219263b00000000000000001921
UBX-NAV-RELPOSNED b562013c280000000000108a7b08600200000a000000e7ffffff5f14a90064000000640000006400000017000000313e
ver0 station 0
142314000ms - Monday 15:31:54
position: 6.0895m N +-0.01m, 0.10200000000000001m E +-0.01m, -0.2331m D +-0.01m
gnssOk? True diffSoln? True relPosValid? True
carrSoln: fix
isMoving? False extrapRefPos? False extrapRebObs? False78seconds
UBX: 0xb56201075c00f88d7b08e20703130f1f2537030000004f3f01000383ea12a3b073bd681dfd176b621500c2ab15000e0000000a000000fcffffff01000000fbffffff0400000070d0bf010300000006711000700000001219263b00000000000000001d36
UBX-NAV-RELPOSNED b562013c280000000000f88d7b08610200000a000000e7ffffff0a0caa0064000000640000006400000017000000c13d
ver0 station 0
142315000ms - Monday 15:31:55
position: 6.091m N +-0.01m, 0.10120000000000001m E +-0.01m, -0.23299999999999998m D +-0.01m
gnssOk? True diffSoln? True relPosValid? True
carrSoln: fix
isMoving? False extrapRefPos? False extrapRebObs? False79seconds
UBX: 0xb56201075c00e0917b08e20703130f1f263703000000b93e01000383ea12a3b073bd681dfd176d621500c5ab15000e0000000a000000fdfffffffbffffff030000000500000070d0bf01030000002f6e1300700000001219263b0000000000000000a542
UBX-NAV-RELPOSNED b562013c280000000000e0917b08610200000a000000e6ffffff1203f60064000000640000006400000017000000f79e
ver0 station 0
142316000ms - Monday 15:31:56
position: 6.0918m N +-0.01m, 0.1003m E +-0.01m, -0.2354m D +-0.01m
gnssOk? True diffSoln? True relPosValid? True
carrSoln: fix
isMoving? False extrapRefPos? False extrapRebObs? False80seconds
UBX: 0xb56201075c00c8957b08e20703130f1f273704000000233e01000383ea12a3b073bd681dfd1767621500bfab15000e0000000a000000fffffffffdffffff080000000300000070d0bf0104000000dcc91800700000001219263b00000000000000000643
UBX-NAV-RELPOSNED b562013c280000000000c8957b08610200000a000000e7ffffff070fc90064000000640000006400000017000000b8c0
ver0 station 0
142317000ms - Monday 15:31:57
position: 6.0907m N +-0.01m, 0.1015m E +-0.01m, -0.2299m D +-0.01m
gnssOk? True diffSoln? True relPosValid? True
carrSoln: fix
isMoving? False extrapRefPos? False extrapRebObs? False81seconds
UBX: 0xb56201075c00b0997b08e20703130f1f2837040000008d3d01000383ea12a3b073bd681dfd1765621500bcab15000e0000000a000000ffffffff00000000000000000100000070d0bf0103000000c2f01400700000001219263b00000000000000005b75
UBX-NAV-RELPOSNED b562013c280000000000b0997b08610200000a000000e7ffffff1e1be60064000000640000006400000017000000e4a6
ver0 station 0
142318000ms - Monday 15:31:58
position: 6.093m N +-0.01m, 0.1027m E +-0.01m, -0.227m D +-0.01m
gnssOk? True diffSoln? True relPosValid? True
carrSoln: fix
isMoving? False extrapRefPos? False extrapRebObs? False82seconds
UBX: 0xb56201075c00989d7b08e20703130f1f293704000000f73c01000383ea12a3b073bd681dfd176d621500c4ab15000e0000000a0000000000000003000000100000000300000070d0bf0105000000f0f31b00700000001219263b00000000000000001481
UBX-NAV-RELPOSNED b562013c280000000000989d7b08600200000a000000e6ffffff5512f800640000006400000064000000170000000e7f
ver0 station 0
142319000ms - Monday 15:31:59
position: 6.0885m N +-0.01m, 0.1018m E +-0.01m, -0.23520000000000002m D +-0.01m
gnssOk? True diffSoln? True relPosValid? True
carrSoln: fix
isMoving? False extrapRefPos? False extrapRebObs? False83seconds
UBX: 0xb56201075c0080a17b08e20703130f1f2a3704000000613c01000383ea12a3b073bd681dfd176c621500c4ab15000e0000000a00000000000000fffffffff6ffffff0100000070d0bf010400000018141500700000001219263b0000000000000000868a
UBX-NAV-RELPOSNED b562013c28000000000080a17b08600200000a000000e6ffffff610cfe00640000006400000064000000170000000695
ver0 station 0
142320000ms - Monday 15:32:0
position: 6.0897m N +-0.01m, 0.10120000000000001m E +-0.01m, -0.2346m D +-0.01m
gnssOk? True diffSoln? True relPosValid? True
carrSoln: fix
isMoving? False extrapRefPos? False extrapRebObs? False84seconds
UBX: 0xb56201075c0068a57b08e20703130f1f2b3704000000cb3b01000383ea12a3b073bd681dfd176d621500c5ab15000e0000000a0000000200000000000000fbffffff0200000070d0bf010300000014521600700000001219263b00000000000000002453
UBX-NAV-RELPOSNED b562013c28000000000068a57b08610200000a000000e6ffffff040df500640000006400000064000000170000008e0e
ver0 station 0
142321000ms - Monday 15:32:1
position: 6.0904m N +-0.01m, 0.1013m E +-0.01m, -0.23550000000000001m D +-0.01m
gnssOk? True diffSoln? True relPosValid? True
carrSoln: fix
isMoving? False extrapRefPos? False extrapRebObs? False85seconds
UBX: 0xb56201075c0050a97b08e20703130f1f2c3704000000353b01000383ea12a3b073bd681dfd176a621500c2ab15000e0000000a00000002000000feffffff050000000300000070d0bf0103000000d5330f00700000001219263b00000000000000001902
UBX-NAV-RELPOSNED b562013c28000000000050a97b08610200000a000000e7ffffff2518b0006400000064000000640000001700000062dd
ver0 station 0
142322000ms - Monday 15:32:2
position: 6.0937m N +-0.01m, 0.1024m E +-0.01m, -0.2324m D +-0.01m
gnssOk? True diffSoln? True relPosValid? True
carrSoln: fix
isMoving? False extrapRefPos? False extrapRebObs? False86seconds
UBX: 0xb56201075c0038ad7b08e20703130f1f2d37040000009f3a01000383ea12a3b073bd681dfd1765621500bdab15000e0000000a0000000100000001000000ffffffff0200000070d0bf010300000021441500700000001219263b0000000000000000c308
UBX-NAV-RELPOSNED b562013c28000000000038ad7b08610200000a000000e7ffffff0e1bdf006400000064000000640000001700000069c4
ver0 station 0
142323000ms - Monday 15:32:3
position: 6.0914m N +-0.01m, 0.1027m E +-0.01m, -0.2277m D +-0.01m
gnssOk? True diffSoln? True relPosValid? True
carrSoln: fix
isMoving? False extrapRefPos? False extrapRebObs? False87seconds
UBX: 0xb56201075c0020b17b08e20703130f1f2e37040000000a3a01000383ea12a3b073bd681dfd1768621500bfab15000e0000000a000000fffffffffcffffff0c0000000400000070d0bf01040000004a001300700000001219263b00000000000000000994
UBX-NAV-RELPOSNED b562013c28000000000020b17b08610200000a000000e7ffffff0d05c600640000006400000064000000170000002578
ver0 station 0
142324000ms - Monday 15:32:4
position: 6.0912999999999995m N +-0.01m, 0.1005m E +-0.01m, -0.2302m D +-0.01m
gnssOk? True diffSoln? True relPosValid? True
carrSoln: fix
isMoving? False extrapRefPos? False extrapRebObs? False88seconds
UBX: 0xb56201075c0008b57b08e20703130f1f2f3704000000743901000383ea12a3b073bd681dfd1767621500beab15000e0000000a0000000200000001000000030000000200000070d0bf0103000000cc531000700000001219263b00000000000000003126
UBX-NAV-RELPOSNED b562013c28000000000008b57b08610200000a000000e7ffffff0f10d000640000006400000064000000170000002851
ver0 station 0
142325000ms - Monday 15:32:5
position: 6.0915m N +-0.01m, 0.10160000000000001m E +-0.01m, -0.22920000000000001m D +-0.01m
gnssOk? True diffSoln? True relPosValid? True
carrSoln: fix
isMoving? False extrapRefPos? False extrapRebObs? False89seconds
UBX: 0xb56201075c00f0b87b08e20703130f1f303703000000df3801000383ea12a3b073bd681dfd1764621500bcab15000e0000000a00000001000000fffffffffcffffff0200000070d0bf01030000009ee71500700000001219263b0000000000000000dc5c
UBX-NAV-RELPOSNED b562013c280000000000f0b87b08610200000a000000e7ffffff2401e70064000000640000006400000017000000307f
ver0 station 0
142326000ms - Monday 15:32:6
position: 6.0935999999999995m N +-0.01m, 0.10010000000000001m E +-0.01m, -0.2269m D +-0.01m
gnssOk? True diffSoln? True relPosValid? True
carrSoln: fix
isMoving? False extrapRefPos? False extrapRebObs? False90seconds
UBX: 0xb56201075c00d8bc7b08e20703130f1f3137030000004a3801000383ea12a3b073bd681dfd1767621500beab15000e0000000a00000006000000fffffffffcffffff0600000070d0bf0104000000145e1900700000001219263b0000000000000000342b
UBX-NAV-RELPOSNED b562013c280000000000d8bc7b08610200000a000000e7ffffff1d06d0006400000064000000640000001700000003e0
ver0 station 0
142327000ms - Monday 15:32:7
position: 6.0929m N +-0.01m, 0.10060000000000001m E +-0.01m, -0.22920000000000001m D +-0.01m
gnssOk? True diffSoln? True relPosValid? True
carrSoln: fix
isMoving? False extrapRefPos? False extrapRebObs? False91seconds
UBX: 0xb56201075c00c0c07b08e20703130f1f323703000000b63701000383ea12a3b073bd681dfd1769621500c1ab15000e0000000a000000f9ffffff05000000fdffffff0900000070d0bf0103000000e4ab1000700000001219263b0000000000000000a197
UBX-NAV-RELPOSNED b562013c280000000000c0c07b08600200000a000000e7ffffff4e05b90064000000640000006400000017000000070f
ver0 station 0
142328000ms - Monday 15:32:8
position: 6.0878m N +-0.01m, 0.1005m E +-0.01m, -0.2315m D +-0.01m
gnssOk? True diffSoln? True relPosValid? True
carrSoln: fix
isMoving? False extrapRefPos? False extrapRebObs? False92seconds
UBX: 0xb56201075c00a8c47b08e20703130f1f333703000000213701000383ea12a3b073bd681dfd1768621500bfab15000e0000000a000000feffffff01000000f8ffffff0300000070d0bf01060000006e931e00700000001219263b00000000000000006fd9
UBX-NAV-RELPOSNED b562013c280000000000a8c47b086002000009000000e7ffffff645dc800640000006400000064000000170000006f6d
ver0 station 0
142329000ms - Monday 15:32:9
position: 6.09m N +-0.01m, 0.0993m E +-0.01m, -0.23m D +-0.01m
gnssOk? True diffSoln? True relPosValid? True
carrSoln: fix
isMoving? False extrapRefPos? False extrapRebObs? False93seconds
UBX: 0xb56201075c0090c87b08e20703130f1f3437030000008d3601000383ea12a3b073bd681dfd1767621500beab15000e0000000a00000000000000ffffffffffffffff0100000070d0bf010300000066341300700000001219263b0000000000000000555d
UBX-NAV-RELPOSNED b562013c28000000000090c87b086002000009000000e7ffffff5963cf00640000006400000064000000170000005dad
ver0 station 0
142330000ms - Monday 15:32:10
position: 6.0889m N +-0.01m, 0.0999m E +-0.01m, -0.2293m D +-0.01m
gnssOk? True diffSoln? True relPosValid? True
carrSoln: fix
isMoving? False extrapRefPos? False extrapRebObs? False94seconds
UBX: 0xb56201075c0078cc7b08e20703130f1f353703000000f93501000383ea12a3b073bd681dfd1763621500bbab15000e0000000a00000002000000feffffff030000000300000070d0bf0103000000ba811200700000001219263b00000000000000005043
UBX-NAV-RELPOSNED b562013c28000000000078cc7b086102000009000000e7ffffff0958f10064000000640000006400000017000000114c
ver0 station 0
142331000ms - Monday 15:32:11
position: 6.0908999999999995m N +-0.01m, 0.0988m E +-0.01m, -0.2259m D +-0.01m
gnssOk? True diffSoln? True relPosValid? True
carrSoln: fix
isMoving? False extrapRefPos? False extrapRebObs? False95seconds
UBX: 0xb56201075c0060d07b08e20703130f1f363703000000663501000383ea12a3b073bd681dfd1762621500b9ab15000e0000000a000000feffffff03000000050000000400000070d0bf0103000000e5591100700000001219263b0000000000000000add7
UBX-NAV-RELPOSNED b562013c28000000000060d07b08610200000a000000e8ffffff130e9d00640000006400000064000000170000006b0e
ver0 station 0
142332000ms - Monday 15:32:12
position: 6.0919m N +-0.01m, 0.1014m E +-0.01m, -0.2243m D +-0.01m
gnssOk? True diffSoln? True relPosValid? True
carrSoln: fix
isMoving? False extrapRefPos? False extrapRebObs? False96seconds
UBX: 0xb56201075c0048d47b08e20703130f1f373703000000d23401000383ea12a3b073bd681dfd1765621500bdab15000e0000000a00000005000000fdffffff0c0000000600000070d0bf01050000009eaa1900700000001219263b00000000000000002a11
UBX-NAV-RELPOSNED b562013c28000000000048d47b086102000009000000e7ffffff165fde0064000000640000006400000017000000ead7
ver0 station 0
142333000ms - Monday 15:32:13
position: 6.0922m N +-0.01m, 0.09949999999999999m E +-0.01m, -0.2278m D +-0.01m
gnssOk? True diffSoln? True relPosValid? True
carrSoln: fix
isMoving? False extrapRefPos? False extrapRebObs? False97seconds
UBX: 0xb56201075c0030d87b08e20703130f1f3837030000003e3401000383ea12a3b073bd681dfd1766621500bdab15000e0000000a000000fdffffff02000000ffffffff0300000070d0bf0103000000679f1400700000001219263b00000000000000002596
UBX-NAV-RELPOSNED b562013c28000000000030d87b08610200000a000000e7ffffff100ad9006400000064000000640000001700000077fe
ver0 station 0
142334000ms - Monday 15:32:14
position: 6.0916m N +-0.01m, 0.101m E +-0.01m, -0.2283m D +-0.01m
gnssOk? True diffSoln? True relPosValid? True
carrSoln: fix
isMoving? False extrapRefPos? False extrapRebObs? False98seconds
UBX: 0xb56201075c0018dc7b08e20703130f1f393703000000aa3301000383ea12a3b073bd681dfd1761621500b9ab15000e0000000a00000001000000feffffff040000000200000070d0bf0104000000e63a1500700000001219263b0000000000000000971a
UBX-NAV-RELPOSNED b562013c28000000000018dc7b08610200000a000000e8ffffff190ea400640000006400000064000000170000003c88
ver0 station 0
142335000ms - Monday 15:32:15
position: 6.0925m N +-0.01m, 0.1014m E +-0.01m, -0.2236m D +-0.01m
gnssOk? True diffSoln? True relPosValid? True
carrSoln: fix
isMoving? False extrapRefPos? False extrapRebObs? False99seconds
UBX: 0xb56201075c0000e07b08e20703130f1f3a3703000000163301000383ea12a3b073bd681dfd1766621500bdab15000e0000000a0000000100000000000000ffffffff0100000070d0bf0103000000f2c11100700000001219263b00000000000000008371
UBX-NAV-RELPOSNED b562013c28000000000000e07b08610200000a000000e7ffffff0c14db006400000064000000640000001700000057e8
ver0 station 0
142336000ms - Monday 15:32:16
position: 6.0912m N +-0.01m, 0.10200000000000001m E +-0.01m, -0.2281m D +-0.01m
gnssOk? True diffSoln? True relPosValid? True
carrSoln: fix
isMoving? False extrapRefPos? False extrapRebObs? False100seconds
UBX: 0xb56201075c00e8e37b08e20703130f1f3b3703000000823201000383ea12a3b073bd681dfd1766621500bdab15000e0000000a0000000100000000000000000000000100000070d0bf010300000011a61200700000001219263b0000000000000000e300
UBX-NAV-RELPOSNED b562013c280000000000e8e37b08610200000a000000e7ffffff2511db006400000064000000640000001700000058ac
ver0 station 0
142337000ms - Monday 15:32:17
position: 6.0937m N +-0.01m, 0.1017m E +-0.01m, -0.2281m D +-0.01m
gnssOk? True diffSoln? True relPosValid? True
carrSoln: fix
isMoving? False extrapRefPos? False extrapRebObs? False101seconds
UBX: 0xb56201075c00d0e77b08e20703130f20003704000000ee3101000383ea12a3b073bd681dfd1768621500c0ab15000e0000000a0000000500000003000000fbffffff0500000070d0bf010200000078f60e00700000001219263b0000000000000000bb98
UBX-NAV-RELPOSNED b562013c280000000000d0e77b08610200000a000000e7ffffff250abf0064000000640000006400000017000000215b
ver0 station 0
142338000ms - Monday 15:32:18
position: 6.0937m N +-0.01m, 0.101m E +-0.01m, -0.2309m D +-0.01m
gnssOk? True diffSoln? True relPosValid? True
carrSoln: fix
isMoving? False extrapRefPos? False extrapRebObs? False102seconds
UBX: 0xb56201075c00b8eb7b08e20703130f200137030000005a3101000383ea12a3b073bd681dfd1769621500c1ab15000e0000000a000000fbffffff05000000ffffffff0700000070d0bf0103000000e17b1500700000001219263b0000000000000000067d
UBX-NAV-RELPOSNED b562013c280000000000b8eb7b08610200000a000000e7ffffff240eb70064000000640000006400000017000000082f
ver0 station 0
142339000ms - Monday 15:32:19
position: 6.0935999999999995m N +-0.01m, 0.1014m E +-0.01m, -0.2317m D +-0.01m
gnssOk? True diffSoln? True relPosValid? True
carrSoln: fix
isMoving? False extrapRefPos? False extrapRebObs? False103seconds
UBX: 0xb56201075c00a0ef7b08e20703130f20023703000000c73001000383ea12a3b073bd681dfd1765621500bdab15000e0000000a0000000200000000000000feffffff0200000070d0bf0104000000c9801b00700000001219263b00000000000000004a05
UBX-NAV-RELPOSNED b562013c280000000000a0ef7b08610200000a000000e7ffffff4b10e00064000000640000006400000017000000466f
ver0 station 0
142340000ms - Monday 15:32:20
position: 6.0975m N +-0.01m, 0.10160000000000001m E +-0.01m, -0.2276m D +-0.01m
gnssOk? True diffSoln? True relPosValid? True
carrSoln: fix
isMoving? False extrapRefPos? False extrapRebObs? False104seconds
UBX: 0xb56201075c0088f37b08e20703130f20033704000000333001000383ea12a3b073bd681dfd1767621500bfab15000e0000000a0000000000000003000000fbffffff0300000070d0bf0106000000db122100700000001219263b00000000000000005319
UBX-NAV-RELPOSNED b562013c28000000000088f37b08610200000a000000e7ffffff2f12cc00640000006400000064000000170000000429
ver0 station 0
142341000ms - Monday 15:32:21
position: 6.0947m N +-0.01m, 0.1018m E +-0.01m, -0.2296m D +-0.01m
gnssOk? True diffSoln? True relPosValid? True
carrSoln: fix
isMoving? False extrapRefPos? False extrapRebObs? False105seconds
UBX: 0xb56201075c0070f77b08e20703130f20043703000000a02f01000383ea12a3b073bd681dfd1768621500bfab15000e0000000a00000004000000fbffffffffffffff0700000070d0bf0103000000296d1500700000001219263b000000000000000047fb
UBX-NAV-RELPOSNED b562013c28000000000070f77b08610200000a000000e7ffffff2605c60064000000640000006400000017000000d43e
ver0 station 0
142342000ms - Monday 15:32:22
position: 6.0938m N +-0.01m, 0.1005m E +-0.01m, -0.2302m D +-0.01m
gnssOk? True diffSoln? True relPosValid? True
carrSoln: fix
isMoving? False extrapRefPos? False extrapRebObs? False106seconds
UBX: 0xb56201075c0058fb7b08e20703130f200537030000000d2f01000383ea12a3b073bd681dfd1768621500bfab15000e0000000a00000006000000fdffffff080000000600000070d0bf0104000000dfbb1800700000001219263b0000000000000000b8f7
UBX-NAV-RELPOSNED b562013c28000000000058fb7b08610200000a000000e7ffffff3d16c70064000000640000006400000017000000e98b
ver0 station 0
142343000ms - Monday 15:32:23
position: 6.0961m N +-0.01m, 0.1022m E +-0.01m, -0.2301m D +-0.01m
gnssOk? True diffSoln? True relPosValid? True
carrSoln: fix
isMoving? False extrapRefPos? False extrapRebObs? False107seconds
UBX: 0xb56201075c0040ff7b08e20703130f200637030000007a2e01000383ea12a3b073bd681dfd1768621500bfab15000e0000000a00000006000000ffffffff050000000600000070d0bf0103000000c0a51400700000001219263b0000000000000000d69c
UBX-NAV-RELPOSNED b562013c28000000000040ff7b08610200000a000000e7ffffff2f16c80064000000640000006400000017000000c8b1
ver0 station 0
142344000ms - Monday 15:32:24
position: 6.0947m N +-0.01m, 0.1022m E +-0.01m, -0.23m D +-0.01m
