Python 3.5.3 (/usr/bin/python3)
>>> %Run rover_rtk_test.py
$GNTXT,01,01,02,u-blox AG - www.u-blox.com*4E
$GNTXT,01,01,02,HW UBX-M8030 00080000*60
$GNTXT,01,01,02,EXT CORE 3.01 (db0c89)*68
$GNTXT,01,01,02,ROM BASE 3.01 (107888)*25
$GNTXT,01,01,02,FWVER=HPG 1.40REF*0B
$GNTXT,01,01,02,PROTVER=20.30*19
$GNTXT,01,01,02,MOD=NEO-M8P-2*7B
$GNTXT,01,01,02,FIS=0xEF4015 (100111)*58
$GNTXT,01,01,02,GPS;GLO;BDS*06
$GNTXT,01,01,02,QZSS*58
$GNTXT,01,01,02,GNSS OTP=GPS;GLO*37
$GNTXT,01,01,02,LLC=FFFFFFFF-FFFFFFED-FFFFFFFF-FFFFF79E-FFFFFF69*2E
$GNTXT,01,01,02,ANTSUPERV=AC SD PDoS SR*3E
$GNTXT,01,01,02,ANTSTATUS=OK*25
$GNTXT,01,01,02,PF=300*4B
$GNRMC,,V,,,,,,,,,,N*4D
$GNVTG,,,,,,,,,N*2E
$GNGGA,,,,,,0,00,99.99,,,,,,*56
$GNGSA,A,1,,,,,,,,,,,,,99.99,99.99,99.99*2E
$GNGSA,A,1,,,,,,,,,,,,,99.99,99.99,99.99*2E
$GPGSV,1,1,00*79
$GLGSV,1,1,00*65
$GNGLL,,,,,,V,N*7A
-----clearing default messages-----
-----writing RTK GPS enabling messages-----
-----reading results of RTK GPS messages-----
0seconds
UBX: 0xb5620501020006000e37
UBX: 0xb56201075c00d0300e00df070a12000f1ef0ffffffff000000000000240000000000000000000000000098bdffffffffffff002a85df0000000000000000000000000000000000000000204e000080a812010f2700001219263b0000000000000000f9da
UBX-NAV-RELPOSNED b562013c280000000000d0300e000000000000000000000000000000000000000000000000000000000000000000737c
ver0 station 0
930000ms - Sunday 0:15:30
position: 0.0m N +-0.0m, 0.0m E +-0.0m, 0.0m D +-0.0m
gnssOk? False diffSoln? False relPosValid? False
carrSoln: No soln
isMoving? False extrapRefPos? False extrapRebObs? False1seconds
UBX: 0xb56201075c00b8340e00df070a12000f1ff0ffffffff000000000000240000000000000000000000000098bdffffffffffff002a85df0000000000000000000000000000000000000000204e000080a812010f2700001219263b0000000000000000e6f8
UBX-NAV-RELPOSNED b562013c280000000000b8340e0000000000000000000000000000000000000000000000000000000000000000005fa8
ver0 station 0
931000ms - Sunday 0:15:31
position: 0.0m N +-0.0m, 0.0m E +-0.0m, 0.0m D +-0.0m
gnssOk? False diffSoln? False relPosValid? False
carrSoln: No soln
isMoving? False extrapRefPos? False extrapRebObs? False2seconds
UBX: 0xb56201075c00a0380e00df070a12000f20f0ffffffff000000000000240000000000000000000000000098bdffffffffffff002a85df0000000000000000000000000000000000000000204e000080a812010f2700001219263b0000000000000000d316
UBX-NAV-RELPOSNED b562013c280000000000a0380e0000000000000000000000000000000000000000000000000000000000000000004bd4
ver0 station 0
932000ms - Sunday 0:15:32
position: 0.0m N +-0.0m, 0.0m E +-0.0m, 0.0m D +-0.0m
gnssOk? False diffSoln? False relPosValid? False
carrSoln: No soln
isMoving? False extrapRefPos? False extrapRebObs? False3seconds
UBX: 0xb56201075c00883c0e00df070a12000f21f0ffffffff000000000000240000000000000000000000000098bdffffffffffff002b85df0000000000000000000000000000000000000000204e000080a812010f2700001219263b0000000000000000c163
UBX-NAV-RELPOSNED b562013c280000000000883c0e0000000000000000000000000000000000000000000000000000000000000000003700
ver0 station 0
933000ms - Sunday 0:15:33
position: 0.0m N +-0.0m, 0.0m E +-0.0m, 0.0m D +-0.0m
gnssOk? False diffSoln? False relPosValid? False
carrSoln: No soln
isMoving? False extrapRefPos? False extrapRebObs? False4seconds
UBX: 0xb56201075c0070400e00df070a12000f22f0ffffffff000000000000240000000000000000000000000098bdffffffffffff002b85df0000000000000000000000000000000000000000204e000080a812010f2700001219263b0000000000000000ae81
UBX-NAV-RELPOSNED b562013c28000000000070400e000000000000000000000000000000000000000000000000000000000000000000232c
ver0 station 0
934000ms - Sunday 0:15:34
position: 0.0m N +-0.0m, 0.0m E +-0.0m, 0.0m D +-0.0m
gnssOk? False diffSoln? False relPosValid? False
carrSoln: No soln
isMoving? False extrapRefPos? False extrapRebObs? False5seconds
UBX: 0xb56201075c0058440e00df070a12000f23f0ffffffff000000000000240000000000000000000000000098bdffffffffffff002b85df0000000000000000000000000000000000000000204e000080a812010f2700001219263b00000000000000009b9f
UBX-NAV-RELPOSNED b562013c28000000000058440e0000000000000000000000000000000000000000000000000000000000000000000f58
ver0 station 0
935000ms - Sunday 0:15:35
position: 0.0m N +-0.0m, 0.0m E +-0.0m, 0.0m D +-0.0m
gnssOk? False diffSoln? False relPosValid? False
carrSoln: No soln
isMoving? False extrapRefPos? False extrapRebObs? False6seconds
UBX: 0xb56201075c0040480e00df070a12000f24f0ffffffff000000000000240000000000000000000000000098bdffffffffffff002c85df0000000000000000000000000000000000000000204e000080a812010f2700001219263b000000000000000089ec
UBX-NAV-RELPOSNED b562013c28000000000040480e000000000000000000000000000000000000000000000000000000000000000000fb84
ver0 station 0
936000ms - Sunday 0:15:36
position: 0.0m N +-0.0m, 0.0m E +-0.0m, 0.0m D +-0.0m
gnssOk? False diffSoln? False relPosValid? False
carrSoln: No soln
isMoving? False extrapRefPos? False extrapRebObs? False7seconds
UBX: 0xb56201075c00284c0e00df070a12000f25f0ffffffff000000000000240000000000000000000000000098bdffffffffffff002c85df0000000000000000000000000000000000000000204e000080a812010f2700001219263b0000000000000000760a
UBX-NAV-RELPOSNED b562013c280000000000284c0e000000000000000000000000000000000000000000000000000000000000000000e7b0
ver0 station 0
937000ms - Sunday 0:15:37
position: 0.0m N +-0.0m, 0.0m E +-0.0m, 0.0m D +-0.0m
gnssOk? False diffSoln? False relPosValid? False
carrSoln: No soln
isMoving? False extrapRefPos? False extrapRebObs? False8seconds
UBX: 0xb56201075c0010500e00df070a12000f26f0ffffffff000000000000240000000000000000000000000098bdffffffffffff002d85df0000000000000000000000000000000000000000204e000080a812010f2700001219263b00000000000000006457
UBX-NAV-RELPOSNED b562013c28000000000010500e000000000000000000000000000000000000000000000000000000000000000000d3dc
ver0 station 0
938000ms - Sunday 0:15:38
position: 0.0m N +-0.0m, 0.0m E +-0.0m, 0.0m D +-0.0m
gnssOk? False diffSoln? False relPosValid? False
carrSoln: No soln
isMoving? False extrapRefPos? False extrapRebObs? False9seconds
UBX: 0xb56201075c00f8530e00df070a12000f27f0ffffffff000000000000240000000000000000000000000098bdffffffffffff002d85df0000000000000000000000000000000000000000204e000080a812010f2700001219263b0000000000000000501a
UBX-NAV-RELPOSNED b562013c280000000000f8530e000000000000000000000000000000000000000000000000000000000000000000bee5
ver0 station 0
939000ms - Sunday 0:15:39
position: 0.0m N +-0.0m, 0.0m E +-0.0m, 0.0m D +-0.0m
gnssOk? False diffSoln? False relPosValid? False
carrSoln: No soln
isMoving? False extrapRefPos? False extrapRebObs? False10seconds
UBX: 0xb56201075c00e0570e00df070a12000f28f0ffffffff000000000000240000000000000000000000000098bdffffffffffff002d85df0000000000000000000000000000000000000000204e000080a812010f2700001219263b00000000000000003d38
UBX-NAV-RELPOSNED b562013c280000000000e0570e000000000000000000000000000000000000000000000000000000000000000000aa11
ver0 station 0
940000ms - Sunday 0:15:40
position: 0.0m N +-0.0m, 0.0m E +-0.0m, 0.0m D +-0.0m
gnssOk? False diffSoln? False relPosValid? False
carrSoln: No soln
isMoving? False extrapRefPos? False extrapRebObs? False11seconds
UBX: 0xb56201075c00c85b0e00df070a12000f29f0ffffffff000000000000240000000000000000000000000098bdffffffffffff002e85df0000000000000000000000000000000000000000204e000080a812010f2700001219263b00000000000000002b85
UBX-NAV-RELPOSNED b562013c280000000000c85b0e000000000000000000000000000000000000000000000000000000000000000000963d
ver0 station 0
941000ms - Sunday 0:15:41
position: 0.0m N +-0.0m, 0.0m E +-0.0m, 0.0m D +-0.0m
gnssOk? False diffSoln? False relPosValid? False
carrSoln: No soln
isMoving? False extrapRefPos? False extrapRebObs? False12seconds
UBX: 0xb56201075c00b05f0e00df070a12000f2af0ffffffff000000000000240000000000000000000000000098bdffffffffffff002f85df0000000000000000000000000000000000000000204e000080a812010f2700001219263b000000000000000019d2
UBX-NAV-RELPOSNED b562013c280000000000b05f0e0000000000000000000000000000000000000000000000000000000000000000008269
ver0 station 0
942000ms - Sunday 0:15:42
position: 0.0m N +-0.0m, 0.0m E +-0.0m, 0.0m D +-0.0m
gnssOk? False diffSoln? False relPosValid? False
carrSoln: No soln
isMoving? False extrapRefPos? False extrapRebObs? False13seconds
UBX: 0xb56201075c0098630e00df070a12000f2bf0ffffffff000000000000240000000000000000000000000098bdffffffffffff002f85df0000000000000000000000000000000000000000204e000080a812010f2700001219263b000000000000000006f0
UBX-NAV-RELPOSNED b562013c28000000000098630e0000000000000000000000000000000000000000000000000000000000000000006e95
ver0 station 0
943000ms - Sunday 0:15:43
position: 0.0m N +-0.0m, 0.0m E +-0.0m, 0.0m D +-0.0m
gnssOk? False diffSoln? False relPosValid? False
carrSoln: No soln
isMoving? False extrapRefPos? False extrapRebObs? False14seconds
UBX: 0xb56201075c0080670e00df070a12000f2cf0ffffffff000000000000240000000000000000000000000098bdffffffffffff002f85df0000000000000000000000000000000000000000204e000080a812010f2700001219263b0000000000000000f30e
UBX-NAV-RELPOSNED b562013c28000000000080670e0000000000000000000000000000000000000000000000000000000000000000005ac1
ver0 station 0
944000ms - Sunday 0:15:44
position: 0.0m N +-0.0m, 0.0m E +-0.0m, 0.0m D +-0.0m
gnssOk? False diffSoln? False relPosValid? False
carrSoln: No soln
isMoving? False extrapRefPos? False extrapRebObs? False15seconds
UBX: 0xb56201075c00686b0e00df070a12000f2df0ffffffff000000000000240000000000000000000000000098bdffffffffffff003085df0000000000000000000000000000000000000000204e000080a812010f2700001219263b0000000000000000e15b
UBX-NAV-RELPOSNED b562013c280000000000686b0e00000000000000000000000000000000000000000000000000000000000000000046ed
ver0 station 0
945000ms - Sunday 0:15:45
position: 0.0m N +-0.0m, 0.0m E +-0.0m, 0.0m D +-0.0m
gnssOk? False diffSoln? False relPosValid? False
carrSoln: No soln
isMoving? False extrapRefPos? False extrapRebObs? False16seconds
UBX: 0xb56201075c00506f0e00df070a12000f2ef0ffffffff000000000000240000000000000000000000000098bdffffffffffff003085df0000000000000000000000000000000000000000204e000080a812010f2700001219263b0000000000000000ce79
UBX-NAV-RELPOSNED b562013c280000000000506f0e0000000000000000000000000000000000000000000000000000000000000000003219
ver0 station 0
946000ms - Sunday 0:15:46
position: 0.0m N +-0.0m, 0.0m E +-0.0m, 0.0m D +-0.0m
gnssOk? False diffSoln? False relPosValid? False
carrSoln: No soln
isMoving? False extrapRefPos? False extrapRebObs? False17seconds
UBX: 0xb56201075c0038730e00df070a12000f2ff0ffffffff000000000000240000000000000000000000000098bdffffffffffff003085df0000000000000000000000000000000000000000204e000080a812010f2700001219263b0000000000000000bb97
UBX-NAV-RELPOSNED b562013c28000000000038730e0000000000000000000000000000000000000000000000000000000000000000001e45
ver0 station 0
947000ms - Sunday 0:15:47
position: 0.0m N +-0.0m, 0.0m E +-0.0m, 0.0m D +-0.0m
gnssOk? False diffSoln? False relPosValid? False
carrSoln: No soln
isMoving? False extrapRefPos? False extrapRebObs? False18seconds
UBX: 0xb56201075c0020770e00df070a12000f30f0ffffffff000000000000240000000000000000000000000098bdffffffffffff003185df0000000000000000000000000000000000000000204e000080a812010f2700001219263b0000000000000000a9e4
UBX-NAV-RELPOSNED b562013c28000000000020770e0000000000000000000000000000000000000000000000000000000000000000000a71
ver0 station 0
948000ms - Sunday 0:15:48
position: 0.0m N +-0.0m, 0.0m E +-0.0m, 0.0m D +-0.0m
gnssOk? False diffSoln? False relPosValid? False
carrSoln: No soln
isMoving? False extrapRefPos? False extrapRebObs? False19seconds
UBX: 0xb56201075c00087b0e00df070a12000f31f0ffffffff000000000000240000000000000000000000000098bdffffffffffff003185df0000000000000000000000000000000000000000204e000080a812010f2700001219263b00000000000000009602
UBX-NAV-RELPOSNED b562013c280000000000087b0e000000000000000000000000000000000000000000000000000000000000000000f69d
ver0 station 0
949000ms - Sunday 0:15:49
position: 0.0m N +-0.0m, 0.0m E +-0.0m, 0.0m D +-0.0m
gnssOk? False diffSoln? False relPosValid? False
carrSoln: No soln
isMoving? False extrapRefPos? False extrapRebObs? False20seconds
UBX: 0xb56201075c00f07e0e00df070a12000f32f0ffffffff000000000000240000000000000000000000000098bdffffffffffff003185df0000000000000000000000000000000000000000204e000080a812010f2700001219263b000000000000000082c5
UBX-NAV-RELPOSNED b562013c280000000000f07e0e000000000000000000000000000000000000000000000000000000000000000000e1a6
ver0 station 0
950000ms - Sunday 0:15:50
position: 0.0m N +-0.0m, 0.0m E +-0.0m, 0.0m D +-0.0m
gnssOk? False diffSoln? False relPosValid? False
carrSoln: No soln
isMoving? False extrapRefPos? False extrapRebObs? False21seconds
UBX: 0xb56201075c00d8820e00df070a12000f33f0ffffffff000000000000240000000000000000000000000098bdffffffffffff003285df0000000000000000000000000000000000000000204e000080a812010f2700001219263b00000000000000007012
UBX-NAV-RELPOSNED b562013c280000000000d8820e000000000000000000000000000000000000000000000000000000000000000000cdd2
ver0 station 0
951000ms - Sunday 0:15:51
position: 0.0m N +-0.0m, 0.0m E +-0.0m, 0.0m D +-0.0m
gnssOk? False diffSoln? False relPosValid? False
carrSoln: No soln
isMoving? False extrapRefPos? False extrapRebObs? False22seconds
UBX: 0xb56201075c00c0860e00df070a12000f34f0ffffffff000000000000240000000000000000000000000098bdffffffffffff003285df0000000000000000000000000000000000000000204e000080a812010f2700001219263b00000000000000005d30
UBX-NAV-RELPOSNED b562013c280000000000c0860e000000000000000000000000000000000000000000000000000000000000000000b9fe
ver0 station 0
952000ms - Sunday 0:15:52
position: 0.0m N +-0.0m, 0.0m E +-0.0m, 0.0m D +-0.0m
gnssOk? False diffSoln? False relPosValid? False
carrSoln: No soln
isMoving? False extrapRefPos? False extrapRebObs? False23seconds
UBX: 0xb56201075c00a88a0e00df070a12000f35f0ffffffff000000000000240000000000000000000000000098bdffffffffffff003285df0000000000000000000000000000000000000000204e000080a812010f2700001219263b00000000000000004a4e
UBX-NAV-RELPOSNED b562013c280000000000a88a0e000000000000000000000000000000000000000000000000000000000000000000a52a
ver0 station 0
953000ms - Sunday 0:15:53
position: 0.0m N +-0.0m, 0.0m E +-0.0m, 0.0m D +-0.0m
gnssOk? False diffSoln? False relPosValid? False
carrSoln: No soln
isMoving? False extrapRefPos? False extrapRebObs? False24seconds
UBX: 0xb56201075c00908e0e00df070a12000f36f0ffffffff000000000000240000000000000000000000000098bdffffffffffff003385df0000000000000000000000000000000000000000204e000080a812010f2700001219263b0000000000000000389b
UBX-NAV-RELPOSNED b562013c280000000000908e0e0000000000000000000000000000000000000000000000000000000000000000009156
ver0 station 0
954000ms - Sunday 0:15:54
position: 0.0m N +-0.0m, 0.0m E +-0.0m, 0.0m D +-0.0m
gnssOk? False diffSoln? False relPosValid? False
carrSoln: No soln
isMoving? False extrapRefPos? False extrapRebObs? False25seconds
UBX: 0xb56201075c0078920e00df070a12000f37f0ffffffff000000000000240000000000000000000000000098bdffffffffffff003485df0000000000000000000000000000000000000000204e000080a812010f2700001219263b000000000000000026e8
UBX-NAV-RELPOSNED b562013c28000000000078920e0000000000000000000000000000000000000000000000000000000000000000007d82
ver0 station 0
955000ms - Sunday 0:15:55
position: 0.0m N +-0.0m, 0.0m E +-0.0m, 0.0m D +-0.0m
gnssOk? False diffSoln? False relPosValid? False
carrSoln: No soln
isMoving? False extrapRefPos? False extrapRebObs? False26seconds
UBX: 0xb56201075c0060960e00df070a12000f38f0ffffffff000000000000240000000000000000000000000098bdffffffffffff003485df0000000000000000000000000000000000000000204e000080a812010f2700001219263b00000000000000001306
UBX-NAV-RELPOSNED b562013c28000000000060960e00000000000000000000000000000000000000000000000000000000000000000069ae
ver0 station 0
956000ms - Sunday 0:15:56
position: 0.0m N +-0.0m, 0.0m E +-0.0m, 0.0m D +-0.0m
gnssOk? False diffSoln? False relPosValid? False
carrSoln: No soln
isMoving? False extrapRefPos? False extrapRebObs? False27seconds
UBX: 0xb56201075c00489a0e00df070a12000f39f0ffffffff000000000000240000000000000000000000000098bdffffffffffff003485df0000000000000000000000000000000000000000204e000080a812010f2700001219263b00000000000000000024
UBX-NAV-RELPOSNED b562013c280000000000489a0e00000000000000000000000000000000000000000000000000000000000000000055da
ver0 station 0
957000ms - Sunday 0:15:57
position: 0.0m N +-0.0m, 0.0m E +-0.0m, 0.0m D +-0.0m
gnssOk? False diffSoln? False relPosValid? False
carrSoln: No soln
isMoving? False extrapRefPos? False extrapRebObs? False28seconds
UBX: 0xb56201075c00309e0e00df070a12000f3af0ffffffff000000000000240000000000000000000000000098bdffffffffffff003585df0000000000000000000000000000000000000000204e000080a812010f2700001219263b0000000000000000ee71
UBX-NAV-RELPOSNED b562013c280000000000309e0e0000000000000000000000000000000000000000000000000000000000000000004106
ver0 station 0
958000ms - Sunday 0:15:58
position: 0.0m N +-0.0m, 0.0m E +-0.0m, 0.0m D +-0.0m
gnssOk? False diffSoln? False relPosValid? False
carrSoln: No soln
isMoving? False extrapRefPos? False extrapRebObs? False29seconds
UBX: 0xb56201075c0018a20e00df070a12000f3bf0ffffffff000000000000240000000000000000000000000098bdffffffffffff003585df0000000000000000000000000000000000000000204e000080a812010f2700001219263b0000000000000000db8f
UBX-NAV-RELPOSNED b562013c28000000000018a20e0000000000000000000000000000000000000000000000000000000000000000002d32
ver0 station 0
959000ms - Sunday 0:15:59
position: 0.0m N +-0.0m, 0.0m E +-0.0m, 0.0m D +-0.0m
gnssOk? False diffSoln? False relPosValid? False
carrSoln: No soln
isMoving? False extrapRefPos? False extrapRebObs? False30seconds
UBX: 0xb56201075c0000a60e00df070a12001000f0ffffffff000000000000240000000000000000000000000098bdffffffffffff003685df0000000000000000000000000000000000000000204e000080a812010f2700001219263b00000000000000008ef7
UBX-NAV-RELPOSNED b562013c28000000000000a60e000000000000000000000000000000000000000000000000000000000000000000195e
ver0 station 0
960000ms - Sunday 0:16:0
position: 0.0m N +-0.0m, 0.0m E +-0.0m, 0.0m D +-0.0m
gnssOk? False diffSoln? False relPosValid? False
carrSoln: No soln
isMoving? False extrapRefPos? False extrapRebObs? False31seconds
UBX: 0xb56201075c00e8a90e00df070a12001001f0ffffffff000000000000240000000000000000000000000098bdffffffffffff003685df0000000000000000000000000000000000000000204e000080a812010f2700001219263b00000000000000007aba
UBX-NAV-RELPOSNED b562013c280000000000e8a90e0000000000000000000000000000000000000000000000000000000000000000000467
ver0 station 0
961000ms - Sunday 0:16:1
position: 0.0m N +-0.0m, 0.0m E +-0.0m, 0.0m D +-0.0m
gnssOk? False diffSoln? False relPosValid? False
carrSoln: No soln
isMoving? False extrapRefPos? False extrapRebObs? False32seconds
UBX: 0xb56201075c00d0ad0e00df070a12001002f0ffffffff000000000000240000000000000000000000000098bdffffffffffff003685df0000000000000000000000000000000000000000204e000080a812010f2700001219263b000000000000000067d8
UBX-NAV-RELPOSNED b562013c280000000000d0ad0e000000000000000000000000000000000000000000000000000000000000000000f093
ver0 station 0
962000ms - Sunday 0:16:2
position: 0.0m N +-0.0m, 0.0m E +-0.0m, 0.0m D +-0.0m
gnssOk? False diffSoln? False relPosValid? False
carrSoln: No soln
isMoving? False extrapRefPos? False extrapRebObs? False33seconds
UBX: 0xb56201075c00b8b10e00df070a12001003f0ffffffff000000000000240000000000000000000000000098bdffffffffffff003785df0000000000000000000000000000000000000000204e000080a812010f2700001219263b00000000000000005525
UBX-NAV-RELPOSNED b562013c280000000000b8b10e000000000000000000000000000000000000000000000000000000000000000000dcbf
ver0 station 0
963000ms - Sunday 0:16:3
position: 0.0m N +-0.0m, 0.0m E +-0.0m, 0.0m D +-0.0m
gnssOk? False diffSoln? False relPosValid? False
carrSoln: No soln
isMoving? False extrapRefPos? False extrapRebObs? False34seconds
UBX: 0xb56201075c00a0b50e00df070a12001004f0ffffffff000000000000240000000000000000000000000098bdffffffffffff003785df0000000000000000000000000000000000000000204e000080a812010f2700001219263b00000000000000004243
UBX-NAV-RELPOSNED b562013c280000000000a0b50e000000000000000000000000000000000000000000000000000000000000000000c8eb
ver0 station 0
964000ms - Sunday 0:16:4
position: 0.0m N +-0.0m, 0.0m E +-0.0m, 0.0m D +-0.0m
gnssOk? False diffSoln? False relPosValid? False
carrSoln: No soln
isMoving? False extrapRefPos? False extrapRebObs? False35seconds
UBX: 0xb56201075c0088b90e00df070a12001005f0ffffffff000000000000240000000000000000000000000098bdffffffffffff003785df0000000000000000000000000000000000000000204e000080a812010f2700001219263b00000000000000002f61
UBX-NAV-RELPOSNED b562013c28000000000088b90e000000000000000000000000000000000000000000000000000000000000000000b417
ver0 station 0
965000ms - Sunday 0:16:5
position: 0.0m N +-0.0m, 0.0m E +-0.0m, 0.0m D +-0.0m
gnssOk? False diffSoln? False relPosValid? False
carrSoln: No soln
isMoving? False extrapRefPos? False extrapRebObs? False36seconds
UBX: 0xb56201075c0070bd0e00df070a12001006f0ffffffff000000000000240000000000000000000000000098bdffffffffffff003885df0000000000000000000000000000000000000000204e000080a812010f2700001219263b00000000000000001dae
UBX-NAV-RELPOSNED b562013c28000000000070bd0e000000000000000000000000000000000000000000000000000000000000000000a043
ver0 station 0
966000ms - Sunday 0:16:6
position: 0.0m N +-0.0m, 0.0m E +-0.0m, 0.0m D +-0.0m
gnssOk? False diffSoln? False relPosValid? False
carrSoln: No soln
isMoving? False extrapRefPos? False extrapRebObs? False37seconds
UBX: 0xb56201075c0058c10e00df070a12001007f0ffffffff000000000000240000000000000000000000000098bdffffffffffff003985df0000000000000000000000000000000000000000204e000080a812010f2700001219263b00000000000000000bfb
UBX-NAV-RELPOSNED b562013c28000000000058c10e0000000000000000000000000000000000000000000000000000000000000000008c6f
ver0 station 0
967000ms - Sunday 0:16:7
position: 0.0m N +-0.0m, 0.0m E +-0.0m, 0.0m D +-0.0m
gnssOk? False diffSoln? False relPosValid? False
carrSoln: No soln
isMoving? False extrapRefPos? False extrapRebObs? False38seconds
UBX: 0xb56201075c0040c50e00df070a12001008f0ffffffff000000000000240000000000000000000000000098bdffffffffffff003985df0000000000000000000000000000000000000000204e000080a812010f2700001219263b0000000000000000f819
UBX-NAV-RELPOSNED b562013c28000000000040c50e000000000000000000000000000000000000000000000000000000000000000000789b
ver0 station 0
968000ms - Sunday 0:16:8
position: 0.0m N +-0.0m, 0.0m E +-0.0m, 0.0m D +-0.0m
gnssOk? False diffSoln? False relPosValid? False
carrSoln: No soln
isMoving? False extrapRefPos? False extrapRebObs? False39seconds
UBX: 0xb56201075c0028c90e00df070a12001009f0ffffffff000000000000240000000000000000000000000098bdffffffffffff003985df0000000000000000000000000000000000000000204e000080a812010f2700001219263b0000000000000000e537
UBX-NAV-RELPOSNED b562013c28000000000028c90e00000000000000000000000000000000000000000000000000000000000000000064c7
ver0 station 0
969000ms - Sunday 0:16:9
position: 0.0m N +-0.0m, 0.0m E +-0.0m, 0.0m D +-0.0m
gnssOk? False diffSoln? False relPosValid? False
carrSoln: No soln
isMoving? False extrapRefPos? False extrapRebObs? False40seconds
41seconds
UBX: 0xb56201075c00e0d40e00df070a1200100cf0ffffffff000000000000240000000000000000000000000098bdffffffffffff003a85df0000000000000000000000000000000000000000204e000080a812010f2700001219263b0000000000000000ac65
UBX-NAV-RELPOSNED b562013c280000000000e0d40e0000000000000000000000000000000000000000000000000000000000000000002728
ver0 station 0
972000ms - Sunday 0:16:12
position: 0.0m N +-0.0m, 0.0m E +-0.0m, 0.0m D +-0.0m
gnssOk? False diffSoln? False relPosValid? False
carrSoln: No soln
isMoving? False extrapRefPos? False extrapRebObs? False42seconds
UBX: 0xb56201075c00c8d80e00df070a1200100df0ffffffff000000000000240000000000000000000000000098bdffffffffffff003b85df0000000000000000000000000000000000000000204e000080a812010f2700001219263b00000000000000009ab2
UBX-NAV-RELPOSNED b562013c280000000000c8d80e0000000000000000000000000000000000000000000000000000000000000000001354
ver0 station 0
973000ms - Sunday 0:16:13
position: 0.0m N +-0.0m, 0.0m E +-0.0m, 0.0m D +-0.0m
gnssOk? False diffSoln? False relPosValid? False
carrSoln: No soln
isMoving? False extrapRefPos? False extrapRebObs? False43seconds
UBX: 0xb56201075c00b0dc0e00df070a1200100ef0ffffffff000000000000240000000000000000000000000098bdffffffffffff003b85df0000000000000000000000000000000000000000204e000080a812010f2700001219263b000000000000000087d0
UBX-NAV-RELPOSNED b562013c280000000000b0dc0e000000000000000000000000000000000000000000000000000000000000000000ff80
ver0 station 0
974000ms - Sunday 0:16:14
position: 0.0m N +-0.0m, 0.0m E +-0.0m, 0.0m D +-0.0m
gnssOk? False diffSoln? False relPosValid? False
carrSoln: No soln
isMoving? False extrapRefPos? False extrapRebObs? False44seconds
UBX: 0xb56201075c0098e00e00df070a1200100ff0ffffffff000000000000240000000000000000000000000098bdffffffffffff003c85df0000000000000000000000000000000000000000204e000080a812010f2700001219263b0000000000000000751d
UBX-NAV-RELPOSNED b562013c28000000000098e00e000000000000000000000000000000000000000000000000000000000000000000ebac
ver0 station 0
975000ms - Sunday 0:16:15
position: 0.0m N +-0.0m, 0.0m E +-0.0m, 0.0m D +-0.0m
gnssOk? False diffSoln? False relPosValid? False
carrSoln: No soln
isMoving? False extrapRefPos? False extrapRebObs? False45seconds
UBX: 0xb56201075c0080e40e00df070a12001010f0ffffffff000000000000240000000000000000000000000098bdffffffffffff003c85df0000000000000000000000000000000000000000204e000080a812010f2700001219263b0000000000000000623b
UBX-NAV-RELPOSNED b562013c28000000000080e40e000000000000000000000000000000000000000000000000000000000000000000d7d8
ver0 station 0
976000ms - Sunday 0:16:16
position: 0.0m N +-0.0m, 0.0m E +-0.0m, 0.0m D +-0.0m
gnssOk? False diffSoln? False relPosValid? False
carrSoln: No soln
isMoving? False extrapRefPos? False extrapRebObs? False46seconds
UBX: 0xb56201075c0068e80e00df070a12001011f0ffffffff000000000000240000000000000000000000000098bdffffffffffff003d85df0000000000000000000000000000000000000000204e000080a812010f2700001219263b00000000000000005088
UBX-NAV-RELPOSNED b562013c28000000000068e80e000000000000000000000000000000000000000000000000000000000000000000c304
ver0 station 0
977000ms - Sunday 0:16:17
position: 0.0m N +-0.0m, 0.0m E +-0.0m, 0.0m D +-0.0m
gnssOk? False diffSoln? False relPosValid? False
carrSoln: No soln
isMoving? False extrapRefPos? False extrapRebObs? False47seconds
UBX: 0xb56201075c0050ec0e00df070a12001012f0ffffffff000000000000240000000000000000000000000098bdffffffffffff003d85df0000000000000000000000000000000000000000204e000080a812010f2700001219263b00000000000000003da6
UBX-NAV-RELPOSNED b562013c28000000000050ec0e000000000000000000000000000000000000000000000000000000000000000000af30
ver0 station 0
978000ms - Sunday 0:16:18
position: 0.0m N +-0.0m, 0.0m E +-0.0m, 0.0m D +-0.0m
gnssOk? False diffSoln? False relPosValid? False
carrSoln: No soln
isMoving? False extrapRefPos? False extrapRebObs? False48seconds
UBX: 0xb56201075c0038f00e00df070a12001013f0ffffffff000000000000240000000000000000000000000098bdffffffffffff003e85df0000000000000000000000000000000000000000204e000080a812010f2700001219263b00000000000000002bf3
UBX-NAV-RELPOSNED b562013c28000000000038f00e0000000000000000000000000000000000000000000000000000000000000000009b5c
ver0 station 0
979000ms - Sunday 0:16:19
position: 0.0m N +-0.0m, 0.0m E +-0.0m, 0.0m D +-0.0m
gnssOk? False diffSoln? False relPosValid? False
carrSoln: No soln
isMoving? False extrapRefPos? False extrapRebObs? False49seconds
UBX: 0xb56201075c0020f40e00df070a12001014f0ffffffff000000000000240000000000000000000000000098bdffffffffffff003e85df0000000000000000000000000000000000000000204e000080a812010f2700001219263b00000000000000001811
UBX-NAV-RELPOSNED b562013c28000000000020f40e0000000000000000000000000000000000000000000000000000000000000000008788
ver0 station 0
980000ms - Sunday 0:16:20
position: 0.0m N +-0.0m, 0.0m E +-0.0m, 0.0m D +-0.0m
gnssOk? False diffSoln? False relPosValid? False
carrSoln: No soln
isMoving? False extrapRefPos? False extrapRebObs? False50seconds
UBX: 0xb56201075c0008f80e00df070a12001015f0ffffffff000000000000240000000000000000000000000098bdffffffffffff003e85df0000000000000000000000000000000000000000204e000080a812010f2700001219263b0000000000000000052f
UBX-NAV-RELPOSNED b562013c28000000000008f80e00000000000000000000000000000000000000000000000000000000000000000073b4
ver0 station 0
981000ms - Sunday 0:16:21
position: 0.0m N +-0.0m, 0.0m E +-0.0m, 0.0m D +-0.0m
gnssOk? False diffSoln? False relPosValid? False
carrSoln: No soln
isMoving? False extrapRefPos? False extrapRebObs? False51seconds
UBX: 0xb56201075c00f0fb0e00df070a12001016f0ffffffff000000000000240000000000000000000000000098bdffffffffffff003f85df0000000000000000000000000000000000000000204e000080a812010f2700001219263b0000000000000000f221
UBX-NAV-RELPOSNED b562013c280000000000f0fb0e0000000000000000000000000000000000000000000000000000000000000000005ebd
ver0 station 0
982000ms - Sunday 0:16:22
position: 0.0m N +-0.0m, 0.0m E +-0.0m, 0.0m D +-0.0m
gnssOk? False diffSoln? False relPosValid? False
carrSoln: No soln
isMoving? False extrapRefPos? False extrapRebObs? False52seconds
UBX: 0xb56201075c00d8ff0e00df070a12001017f0ffffffff000000000000240000000000000000000000000098bdffffffffffff003f85df0000000000000000000000000000000000000000204e000080a812010f2700001219263b0000000000000000df3f
UBX-NAV-RELPOSNED b562013c280000000000d8ff0e0000000000000000000000000000000000000000000000000000000000000000004ae9
ver0 station 0
983000ms - Sunday 0:16:23
position: 0.0m N +-0.0m, 0.0m E +-0.0m, 0.0m D +-0.0m
gnssOk? False diffSoln? False relPosValid? False
carrSoln: No soln
isMoving? False extrapRefPos? False extrapRebObs? False53seconds
UBX: 0xb56201075c00c0030f00df070a12001018f0ffffffff000000000000240000000000000000000000000098bdffffffffffff003f85df0000000000000000000000000000000000000000204e000080a812010f2700001219263b0000000000000000cdb7
UBX-NAV-RELPOSNED b562013c280000000000c0030f0000000000000000000000000000000000000000000000000000000000000000003737
ver0 station 0
984000ms - Sunday 0:16:24
position: 0.0m N +-0.0m, 0.0m E +-0.0m, 0.0m D +-0.0m
gnssOk? False diffSoln? False relPosValid? False
carrSoln: No soln
isMoving? False extrapRefPos? False extrapRebObs? False54seconds
UBX: 0xb56201075c00a8070f00df070a12001019f0ffffffff000000000000240000000000000000000000000098bdffffffffffff004085df0000000000000000000000000000000000000000204e000080a812010f2700001219263b0000000000000000bb04
UBX-NAV-RELPOSNED b562013c280000000000a8070f0000000000000000000000000000000000000000000000000000000000000000002363
ver0 station 0
985000ms - Sunday 0:16:25
position: 0.0m N +-0.0m, 0.0m E +-0.0m, 0.0m D +-0.0m
gnssOk? False diffSoln? False relPosValid? False
carrSoln: No soln
isMoving? False extrapRefPos? False extrapRebObs? False55seconds
UBX: 0xb56201075c00900b0f00df070a1200101af0ffffffff000000000000240000000000000000000000000098bdffffffffffff004085df0000000000000000000000000000000000000000204e000080a812010f2700001219263b0000000000000000a822
UBX-NAV-RELPOSNED b562013c280000000000900b0f0000000000000000000000000000000000000000000000000000000000000000000f8f
ver0 station 0
986000ms - Sunday 0:16:26
position: 0.0m N +-0.0m, 0.0m E +-0.0m, 0.0m D +-0.0m
gnssOk? False diffSoln? False relPosValid? False
carrSoln: No soln
isMoving? False extrapRefPos? False extrapRebObs? False56seconds
UBX: 0xb56201075c00780f0f00df070a1200101bf0ffffffff000000000000240000000000000000000000000098bdffffffffffff004185df0000000000000000000000000000000000000000204e000080a812010f2700001219263b0000000000000000966f
UBX-NAV-RELPOSNED b562013c280000000000780f0f000000000000000000000000000000000000000000000000000000000000000000fbbb
ver0 station 0
987000ms - Sunday 0:16:27
position: 0.0m N +-0.0m, 0.0m E +-0.0m, 0.0m D +-0.0m
gnssOk? False diffSoln? False relPosValid? False
carrSoln: No soln
isMoving? False extrapRefPos? False extrapRebObs? False57seconds
UBX: 0xb56201075c0060130f00df070a1200101cf0ffffffff000000000000240000000000000000000000000098bdffffffffffff004185df0000000000000000000000000000000000000000204e000080a812010f2700001219263b0000000000000000838d
UBX-NAV-RELPOSNED b562013c28000000000060130f000000000000000000000000000000000000000000000000000000000000000000e7e7
ver0 station 0
988000ms - Sunday 0:16:28
position: 0.0m N +-0.0m, 0.0m E +-0.0m, 0.0m D +-0.0m
gnssOk? False diffSoln? False relPosValid? False
carrSoln: No soln
isMoving? False extrapRefPos? False extrapRebObs? False58seconds
UBX: 0xb56201075c0048170f00df070a1200101df0ffffffff000000000000240000000000000000000000000098bdffffffffffff004285df0000000000000000000000000000000000000000204e000080a812010f2700001219263b000000000000000071da
UBX-NAV-RELPOSNED b562013c28000000000048170f000000000000000000000000000000000000000000000000000000000000000000d313
ver0 station 0
989000ms - Sunday 0:16:29
position: 0.0m N +-0.0m, 0.0m E +-0.0m, 0.0m D +-0.0m
gnssOk? False diffSoln? False relPosValid? False
carrSoln: No soln
isMoving? False extrapRefPos? False extrapRebObs? False59seconds
UBX: 0xb56201075c00301b0f00df070a1200101ef0ffffffff000000000000240000000000000000000000000098bdffffffffffff004285df0000000000000000000000000000000000000000204e000080a812010f2700001219263b00000000000000005ef8
UBX-NAV-RELPOSNED b562013c280000000000301b0f000000000000000000000000000000000000000000000000000000000000000000bf3f
ver0 station 0
990000ms - Sunday 0:16:30
position: 0.0m N +-0.0m, 0.0m E +-0.0m, 0.0m D +-0.0m
gnssOk? False diffSoln? False relPosValid? False
carrSoln: No soln
isMoving? False extrapRefPos? False extrapRebObs? False60seconds
UBX: 0xb56201075c00181f0f00df070a1200101ff0ffffffff000000000000240000000000000000000000000098bdffffffffffff004385df0000000000000000000000000000000000000000204e000080a812010f2700001219263b00000000000000004c45
UBX-NAV-RELPOSNED b562013c280000000000181f0f000000000000000000000000000000000000000000000000000000000000000000ab6b
ver0 station 0
991000ms - Sunday 0:16:31
position: 0.0m N +-0.0m, 0.0m E +-0.0m, 0.0m D +-0.0m
gnssOk? False diffSoln? False relPosValid? False
carrSoln: No soln
isMoving? False extrapRefPos? False extrapRebObs? False61seconds
UBX: 0xb56201075c0000230f00df070a12001020f0ffffffff000000000000240000000000000000000000000098bdffffffffffff004385df0000000000000000000000000000000000000000204e000080a812010f2700001219263b00000000000000003963
UBX-NAV-RELPOSNED b562013c28000000000000230f0000000000000000000000000000000000000000000000000000000000000000009797
ver0 station 0
992000ms - Sunday 0:16:32
position: 0.0m N +-0.0m, 0.0m E +-0.0m, 0.0m D +-0.0m
gnssOk? False diffSoln? False relPosValid? False
carrSoln: No soln
isMoving? False extrapRefPos? False extrapRebObs? False62seconds
UBX: 0xb56201075c00e8260f00df070a12001021f0ffffffff000000000000240000000000000000000000000098bdffffffffffff004385df0000000000000000000000000000000000000000204e000080a812010f2700001219263b00000000000000002526
UBX-NAV-RELPOSNED b562013c280000000000e8260f00000000000000000000000000000000000000000000000000000000000000000082a0
ver0 station 0
993000ms - Sunday 0:16:33
position: 0.0m N +-0.0m, 0.0m E +-0.0m, 0.0m D +-0.0m
gnssOk? False diffSoln? False relPosValid? False
carrSoln: No soln
isMoving? False extrapRefPos? False extrapRebObs? False63seconds
UBX: 0xb56201075c00d02a0f00df070a12001022f0ffffffff000000000000240000000000000000000000000098bdffffffffffff004485df0000000000000000000000000000000000000000204e000080a812010f2700001219263b00000000000000001373
UBX-NAV-RELPOSNED b562013c280000000000d02a0f0000000000000000000000000000000000000000000000000000000000000000006ecc
ver0 station 0
994000ms - Sunday 0:16:34
position: 0.0m N +-0.0m, 0.0m E +-0.0m, 0.0m D +-0.0m
gnssOk? False diffSoln? False relPosValid? False
carrSoln: No soln
isMoving? False extrapRefPos? False extrapRebObs? False64seconds
UBX: 0xb56201075c00b82e0f00df070a12001023f0ffffffff000000000000240000000000000000000000000098bdffffffffffff004485df0000000000000000000000000000000000000000204e000080a812010f2700001219263b00000000000000000091
UBX-NAV-RELPOSNED b562013c280000000000b82e0f0000000000000000000000000000000000000000000000000000000000000000005af8
ver0 station 0
995000ms - Sunday 0:16:35
position: 0.0m N +-0.0m, 0.0m E +-0.0m, 0.0m D +-0.0m
gnssOk? False diffSoln? False relPosValid? False
carrSoln: No soln
isMoving? False extrapRefPos? False extrapRebObs? False65seconds
UBX: 0xb56201075c00a0320f00df070a12001024f0ffffffff000000000000240000000000000000000000000098bdffffffffffff004485df0000000000000000000000000000000000000000204e000080a812010f2700001219263b0000000000000000edaf
UBX-NAV-RELPOSNED b562013c280000000000a0320f0000000000000000000000000000000000000000000000000000000000000000004624
ver0 station 0
996000ms - Sunday 0:16:36
position: 0.0m N +-0.0m, 0.0m E +-0.0m, 0.0m D +-0.0m
gnssOk? False diffSoln? False relPosValid? False
carrSoln: No soln
isMoving? False extrapRefPos? False extrapRebObs? False66seconds
UBX: 0xb56201075c0088360f00df070a12001025f0ffffffff000000000000240000000000000000000000000098bdffffffffffff004585df0000000000000000000000000000000000000000204e000080a812010f2700001219263b0000000000000000dbfc
UBX-NAV-RELPOSNED b562013c28000000000088360f0000000000000000000000000000000000000000000000000000000000000000003250
ver0 station 0
997000ms - Sunday 0:16:37
position: 0.0m N +-0.0m, 0.0m E +-0.0m, 0.0m D +-0.0m
gnssOk? False diffSoln? False relPosValid? False
carrSoln: No soln
isMoving? False extrapRefPos? False extrapRebObs? False67seconds
UBX: 0xb56201075c00703a0f00df070a12001026f0ffffffff000000000000240000000000000000000000000098bdffffffffffff004585df0000000000000000000000000000000000000000204e000080a812010f2700001219263b0000000000000000c81a
UBX-NAV-RELPOSNED b562013c280000000000703a0f0000000000000000000000000000000000000000000000000000000000000000001e7c
ver0 station 0
998000ms - Sunday 0:16:38
position: 0.0m N +-0.0m, 0.0m E +-0.0m, 0.0m D +-0.0m
gnssOk? False diffSoln? False relPosValid? False
carrSoln: No soln
isMoving? False extrapRefPos? False extrapRebObs? False68seconds
UBX: 0xb56201075c00583e0f00df070a12001027f0ffffffff000000000000240000000000000000000000000098bdffffffffffff004685df0000000000000000000000000000000000000000204e000080a812010f2700001219263b0000000000000000b667
UBX-NAV-RELPOSNED b562013c280000000000583e0f0000000000000000000000000000000000000000000000000000000000000000000aa8
ver0 station 0
999000ms - Sunday 0:16:39
position: 0.0m N +-0.0m, 0.0m E +-0.0m, 0.0m D +-0.0m
gnssOk? False diffSoln? False relPosValid? False
carrSoln: No soln
isMoving? False extrapRefPos? False extrapRebObs? False69seconds
UBX: 0xb56201075c0040420f00df070a12001028f0ffffffff000000000000240000000000000000000000000098bdffffffffffff004685df0000000000000000000000000000000000000000204e000080a812010f2700001219263b0000000000000000a385
UBX-NAV-RELPOSNED b562013c28000000000040420f000000000000000000000000000000000000000000000000000000000000000000f6d4
ver0 station 0
1000000ms - Sunday 0:16:40
position: 0.0m N +-0.0m, 0.0m E +-0.0m, 0.0m D +-0.0m
gnssOk? False diffSoln? False relPosValid? False
carrSoln: No soln
isMoving? False extrapRefPos? False extrapRebObs? False70seconds
UBX: 0xb56201075c0028460f00df070a12001029f0ffffffff000000000000240000000000000000000000000098bdffffffffffff004685df0000000000000000000000000000000000000000204e000080a812010f2700001219263b000000000000000090a3
UBX-NAV-RELPOSNED b562013c28000000000028460f000000000000000000000000000000000000000000000000000000000000000000e200
ver0 station 0
1001000ms - Sunday 0:16:41
position: 0.0m N +-0.0m, 0.0m E +-0.0m, 0.0m D +-0.0m
gnssOk? False diffSoln? False relPosValid? False
carrSoln: No soln
isMoving? False extrapRefPos? False extrapRebObs? False71seconds
UBX: 0xb56201075c00104a0f00df070a1200102af0ffffffff000000000000240000000000000000000000000098bdffffffffffff004685df0000000000000000000000000000000000000000204e000080a812010f2700001219263b00000000000000007dc1
UBX-NAV-RELPOSNED b562013c280000000000104a0f000000000000000000000000000000000000000000000000000000000000000000ce2c
ver0 station 0
1002000ms - Sunday 0:16:42
position: 0.0m N +-0.0m, 0.0m E +-0.0m, 0.0m D +-0.0m
gnssOk? False diffSoln? False relPosValid? False
carrSoln: No soln
isMoving? False extrapRefPos? False extrapRebObs? False72seconds
UBX: 0xb56201075c00f84d0f00df070a1200102bf0ffffffff000000000000240000000000000000000000000098bdffffffffffff004785df0000000000000000000000000000000000000000204e000080a812010f2700001219263b00000000000000006ab3
UBX-NAV-RELPOSNED b562013c280000000000f84d0f000000000000000000000000000000000000000000000000000000000000000000b935
ver0 station 0
1003000ms - Sunday 0:16:43
position: 0.0m N +-0.0m, 0.0m E +-0.0m, 0.0m D +-0.0m
gnssOk? False diffSoln? False relPosValid? False
carrSoln: No soln
isMoving? False extrapRefPos? False extrapRebObs? False73seconds
UBX: 0xb56201075c00e0510f00df070a1200102cf0ffffffff000000000000240000000000000000000000000098bdffffffffffff004785df0000000000000000000000000000000000000000204e000080a812010f2700001219263b000000000000000057d1
UBX-NAV-RELPOSNED b562013c280000000000e0510f000000000000000000000000000000000000000000000000000000000000000000a561
ver0 station 0
1004000ms - Sunday 0:16:44
position: 0.0m N +-0.0m, 0.0m E +-0.0m, 0.0m D +-0.0m
gnssOk? False diffSoln? False relPosValid? False
carrSoln: No soln
isMoving? False extrapRefPos? False extrapRebObs? False74seconds
UBX: 0xb56201075c00c8550f00df070a1200102df0ffffffff000000000000240000000000000000000000000098bdffffffffffff004785df0000000000000000000000000000000000000000204e000080a812010f2700001219263b000000000000000044ef
UBX-NAV-RELPOSNED b562013c280000000000c8550f000000000000000000000000000000000000000000000000000000000000000000918d
ver0 station 0
1005000ms - Sunday 0:16:45
position: 0.0m N +-0.0m, 0.0m E +-0.0m, 0.0m D +-0.0m
gnssOk? False diffSoln? False relPosValid? False
carrSoln: No soln
isMoving? False extrapRefPos? False extrapRebObs? False75seconds
UBX: 0xb56201075c00b0590f00df070a1200102ef0ffffffff000000000000240000000000000000000000000098bdffffffffffff004885df0000000000000000000000000000000000000000204e000080a812010f2700001219263b0000000000000000323c
UBX-NAV-RELPOSNED b562013c280000000000b0590f0000000000000000000000000000000000000000000000000000000000000000007db9
ver0 station 0
1006000ms - Sunday 0:16:46
position: 0.0m N +-0.0m, 0.0m E +-0.0m, 0.0m D +-0.0m
gnssOk? False diffSoln? False relPosValid? False
carrSoln: No soln
isMoving? False extrapRefPos? False extrapRebObs? False76seconds
UBX: 0xb56201075c00985d0f00df070a1200102ff0ffffffff000000000000240000000000000000000000000098bdffffffffffff004885df0000000000000000000000000000000000000000204e000080a812010f2700001219263b00000000000000001f5a
UBX-NAV-RELPOSNED b562013c280000000000985d0f00000000000000000000000000000000000000000000000000000000000000000069e5
ver0 station 0
1007000ms - Sunday 0:16:47
position: 0.0m N +-0.0m, 0.0m E +-0.0m, 0.0m D +-0.0m
gnssOk? False diffSoln? False relPosValid? False
carrSoln: No soln
isMoving? False extrapRefPos? False extrapRebObs? False77seconds
UBX: 0xb56201075c0080610f00df070a12001030f0ffffffff000000000000240000000000000000000000000098bdffffffffffff004985df0000000000000000000000000000000000000000204e000080a812010f2700001219263b00000000000000000da7
UBX-NAV-RELPOSNED b562013c28000000000080610f0000000000000000000000000000000000000000000000000000000000000000005511
ver0 station 0
1008000ms - Sunday 0:16:48
position: 0.0m N +-0.0m, 0.0m E +-0.0m, 0.0m D +-0.0m
gnssOk? False diffSoln? False relPosValid? False
carrSoln: No soln
isMoving? False extrapRefPos? False extrapRebObs? False78seconds
UBX: 0xb56201075c0068650f00df070a12001031f0ffffffff000000000000240000000000000000000000000098bdffffffffffff004985df0000000000000000000000000000000000000000204e000080a812010f2700001219263b0000000000000000fac5
UBX-NAV-RELPOSNED b562013c28000000000068650f000000000000000000000000000000000000000000000000000000000000000000413d
ver0 station 0
1009000ms - Sunday 0:16:49
position: 0.0m N +-0.0m, 0.0m E +-0.0m, 0.0m D +-0.0m
gnssOk? False diffSoln? False relPosValid? False
carrSoln: No soln
isMoving? False extrapRefPos? False extrapRebObs? False79seconds
UBX: 0xb56201075c0050690f00df070a12001032f0ffffffff000000000000240000000000000000000000000098bdffffffffffff004a85df0000000000000000000000000000000000000000204e000080a812010f2700001219263b0000000000000000e812
UBX-NAV-RELPOSNED b562013c28000000000050690f0000000000000000000000000000000000000000000000000000000000000000002d69
ver0 station 0
1010000ms - Sunday 0:16:50
position: 0.0m N +-0.0m, 0.0m E +-0.0m, 0.0m D +-0.0m
gnssOk? False diffSoln? False relPosValid? False
carrSoln: No soln
isMoving? False extrapRefPos? False extrapRebObs? False80seconds
UBX: 0xb56201075c00386d0f00df070a12001033f0ffffffff000000000000240000000000000000000000000098bdffffffffffff004a85df0000000000000000000000000000000000000000204e000080a812010f2700001219263b0000000000000000d530
UBX-NAV-RELPOSNED b562013c280000000000386d0f0000000000000000000000000000000000000000000000000000000000000000001995
ver0 station 0
1011000ms - Sunday 0:16:51
position: 0.0m N +-0.0m, 0.0m E +-0.0m, 0.0m D +-0.0m
gnssOk? False diffSoln? False relPosValid? False
carrSoln: No soln
isMoving? False extrapRefPos? False extrapRebObs? False81seconds
UBX: 0xb56201075c0020710f00df070a12001034f0ffffffff000000000000240000000000000000000000000098bdffffffffffff004b85df0000000000000000000000000000000000000000204e000080a812010f2700001219263b0000000000000000c37d
UBX-NAV-RELPOSNED b562013c28000000000020710f00000000000000000000000000000000000000000000000000000000000000000005c1
ver0 station 0
1012000ms - Sunday 0:16:52
position: 0.0m N +-0.0m, 0.0m E +-0.0m, 0.0m D +-0.0m
gnssOk? False diffSoln? False relPosValid? False
carrSoln: No soln
isMoving? False extrapRefPos? False extrapRebObs? False82seconds
UBX: 0xb56201075c0008750f00df070a12001035f0ffffffff000000000000240000000000000000000000000098bdffffffffffff004b85df0000000000000000000000000000000000000000204e000080a812010f2700001219263b0000000000000000b09b
UBX-NAV-RELPOSNED b562013c28000000000008750f000000000000000000000000000000000000000000000000000000000000000000f1ed
ver0 station 0
1013000ms - Sunday 0:16:53
position: 0.0m N +-0.0m, 0.0m E +-0.0m, 0.0m D +-0.0m
gnssOk? False diffSoln? False relPosValid? False
carrSoln: No soln
isMoving? False extrapRefPos? False extrapRebObs? False83seconds
UBX: 0xb56201075c00f0780f00df070a12001036f0ffffffff000000000000240000000000000000000000000098bdffffffffffff004b85df0000000000000000000000000000000000000000204e000080a812010f2700001219263b00000000000000009c5e
UBX-NAV-RELPOSNED b562013c280000000000f0780f000000000000000000000000000000000000000000000000000000000000000000dcf6
ver0 station 0
1014000ms - Sunday 0:16:54
position: 0.0m N +-0.0m, 0.0m E +-0.0m, 0.0m D +-0.0m
gnssOk? False diffSoln? False relPosValid? False
carrSoln: No soln
isMoving? False extrapRefPos? False extrapRebObs? False84seconds
UBX: 0xb56201075c00d87c0f00df070a12001037f0ffffffff000000000000240000000000000000000000000098bdffffffffffff004c85df0000000000000000000000000000000000000000204e000080a812010f2700001219263b00000000000000008aab
UBX-NAV-RELPOSNED b562013c280000000000d87c0f000000000000000000000000000000000000000000000000000000000000000000c822
ver0 station 0
1015000ms - Sunday 0:16:55
position: 0.0m N +-0.0m, 0.0m E +-0.0m, 0.0m D +-0.0m
gnssOk? False diffSoln? False relPosValid? False
carrSoln: No soln
isMoving? False extrapRefPos? False extrapRebObs? False85seconds
86seconds
UBX: 0xb56201075c0090880f00df070a1200103af0ffffffff000000000000240000000000000000000000000098bdffffffffffff004d85df0000000000000000000000000000000000000000204e000080a812010f2700001219263b00000000000000005234
UBX-NAV-RELPOSNED b562013c28000000000090880f0000000000000000000000000000000000000000000000000000000000000000008ca6
ver0 station 0
1018000ms - Sunday 0:16:58
position: 0.0m N +-0.0m, 0.0m E +-0.0m, 0.0m D +-0.0m
gnssOk? False diffSoln? False relPosValid? False
carrSoln: No soln
isMoving? False extrapRefPos? False extrapRebObs? False87seconds
UBX: 0xb56201075c00788c0f00df070a1200103bf0ffffffff000000000000240000000000000000000000000098bdffffffffffff004d85df0000000000000000000000000000000000000000204e000080a812010f2700001219263b00000000000000003f52
UBX-NAV-RELPOSNED b562013c280000000000788c0f00000000000000000000000000000000000000000000000000000000000000000078d2
ver0 station 0
1019000ms - Sunday 0:16:59
position: 0.0m N +-0.0m, 0.0m E +-0.0m, 0.0m D +-0.0m
gnssOk? False diffSoln? False relPosValid? False
carrSoln: No soln
isMoving? False extrapRefPos? False extrapRebObs? False88seconds
UBX: 0xb56201075c0060900f00df070a12001100f0ffffffff000000000000240000000000000000000000000098bdffffffffffff004e85df0000000000000000000000000000000000000000204e000080a812010f2700001219263b0000000000000000f2ba
UBX-NAV-RELPOSNED b562013c28000000000060900f00000000000000000000000000000000000000000000000000000000000000000064fe
ver0 station 0
1020000ms - Sunday 0:17:0
position: 0.0m N +-0.0m, 0.0m E +-0.0m, 0.0m D +-0.0m
gnssOk? False diffSoln? False relPosValid? False
carrSoln: No soln
isMoving? False extrapRefPos? False extrapRebObs? False89seconds
UBX: 0xb56201075c0048940f00df070a12001101f0ffffffff000000000000240000000000000000000000000098bdffffffffffff004f85df0000000000000000000000000000000000000000204e000080a812010f2700001219263b0000000000000000e007
UBX-NAV-RELPOSNED b562013c28000000000048940f000000000000000000000000000000000000000000000000000000000000000000502a
ver0 station 0
1021000ms - Sunday 0:17:1
position: 0.0m N +-0.0m, 0.0m E +-0.0m, 0.0m D +-0.0m
gnssOk? False diffSoln? False relPosValid? False
carrSoln: No soln
isMoving? False extrapRefPos? False extrapRebObs? False90seconds
UBX: 0xb56201075c0030980f00df070a12001102f0ffffffff000000000000240000000000000000000000000098bdffffffffffff004f85df0000000000000000000000000000000000000000204e000080a812010f2700001219263b0000000000000000cd25
UBX-NAV-RELPOSNED b562013c28000000000030980f0000000000000000000000000000000000000000000000000000000000000000003c56
ver0 station 0
1022000ms - Sunday 0:17:2
position: 0.0m N +-0.0m, 0.0m E +-0.0m, 0.0m D +-0.0m
gnssOk? False diffSoln? False relPosValid? False
carrSoln: No soln
isMoving? False extrapRefPos? False extrapRebObs? False91seconds
UBX: 0xb56201075c00189c0f00df070a12001103f0ffffffff000000000000240000000000000000000000000098bdffffffffffff004f85df0000000000000000000000000000000000000000204e000080a812010f2700001219263b0000000000000000ba43
UBX-NAV-RELPOSNED b562013c280000000000189c0f0000000000000000000000000000000000000000000000000000000000000000002882
ver0 station 0
1023000ms - Sunday 0:17:3
position: 0.0m N +-0.0m, 0.0m E +-0.0m, 0.0m D +-0.0m
gnssOk? False diffSoln? False relPosValid? False
carrSoln: No soln
isMoving? False extrapRefPos? False extrapRebObs? False92seconds
UBX: 0xb56201075c0000a00f00df070a12001104f0ffffffff000000000000240000000000000000000000000098bdffffffffffff005085df0000000000000000000000000000000000000000204e000080a812010f2700001219263b0000000000000000a890
UBX-NAV-RELPOSNED b562013c28000000000000a00f00000000000000000000000000000000000000000000000000000000000000000014ae
ver0 station 0
1024000ms - Sunday 0:17:4
position: 0.0m N +-0.0m, 0.0m E +-0.0m, 0.0m D +-0.0m
gnssOk? False diffSoln? False relPosValid? False
carrSoln: No soln
isMoving? False extrapRefPos? False extrapRebObs? False93seconds
UBX: 0xb56201075c00e8a30f00df070a12001105f0ffffffff000000000000240000000000000000000000000098bdffffffffffff005085df0000000000000000000000000000000000000000204e000080a812010f2700001219263b00000000000000009453
UBX-NAV-RELPOSNED b562013c280000000000e8a30f000000000000000000000000000000000000000000000000000000000000000000ffb7
ver0 station 0
1025000ms - Sunday 0:17:5
position: 0.0m N +-0.0m, 0.0m E +-0.0m, 0.0m D +-0.0m
gnssOk? False diffSoln? False relPosValid? False
carrSoln: No soln
isMoving? False extrapRefPos? False extrapRebObs? False94seconds
UBX: 0xb56201075c00d0a70f00df070a12001106f0ffffffff000000000000240000000000000000000000000098bdffffffffffff005185df0000000000000000000000000000000000000000204e000080a812010f2700001219263b000000000000000082a0
UBX-NAV-RELPOSNED b562013c280000000000d0a70f000000000000000000000000000000000000000000000000000000000000000000ebe3
ver0 station 0
1026000ms - Sunday 0:17:6
position: 0.0m N +-0.0m, 0.0m E +-0.0m, 0.0m D +-0.0m
gnssOk? False diffSoln? False relPosValid? False
carrSoln: No soln
isMoving? False extrapRefPos? False extrapRebObs? False95seconds
UBX: 0xb56201075c00b8ab0f00df070a12001107f0ffffffff000000000000240000000000000000000000000098bdffffffffffff005185df0000000000000000000000000000000000000000204e000080a812010f2700001219263b00000000000000006fbe
UBX-NAV-RELPOSNED b562013c280000000000b8ab0f000000000000000000000000000000000000000000000000000000000000000000d70f
ver0 station 0
1027000ms - Sunday 0:17:7
position: 0.0m N +-0.0m, 0.0m E +-0.0m, 0.0m D +-0.0m
gnssOk? False diffSoln? False relPosValid? False
carrSoln: No soln
isMoving? False extrapRefPos? False extrapRebObs? False96seconds
UBX: 0xb56201075c00a0af0f00df070a12001108f0ffffffff000000000000240000000000000000000000000098bdffffffffffff005185df0000000000000000000000000000000000000000204e000080a812010f2700001219263b00000000000000005cdc
UBX-NAV-RELPOSNED b562013c280000000000a0af0f000000000000000000000000000000000000000000000000000000000000000000c33b
ver0 station 0
1028000ms - Sunday 0:17:8
position: 0.0m N +-0.0m, 0.0m E +-0.0m, 0.0m D +-0.0m
gnssOk? False diffSoln? False relPosValid? False
carrSoln: No soln
isMoving? False extrapRefPos? False extrapRebObs? False97seconds
UBX: 0xb56201075c0088b30f00df070a12001109f0ffffffff000000000000240000000000000000000000000098bdffffffffffff005285df0000000000000000000000000000000000000000204e000080a812010f2700001219263b00000000000000004a29
UBX-NAV-RELPOSNED b562013c28000000000088b30f000000000000000000000000000000000000000000000000000000000000000000af67
ver0 station 0
1029000ms - Sunday 0:17:9
position: 0.0m N +-0.0m, 0.0m E +-0.0m, 0.0m D +-0.0m
gnssOk? False diffSoln? False relPosValid? False
carrSoln: No soln
isMoving? False extrapRefPos? False extrapRebObs? False98seconds
UBX: 0xb56201075c0070b70f00df070a1200110af0ffffffff000000000000240000000000000000000000000098bdffffffffffff005285df0000000000000000000000000000000000000000204e000080a812010f2700001219263b00000000000000003747
UBX-NAV-RELPOSNED b562013c28000000000070b70f0000000000000000000000000000000000000000000000000000000000000000009b93
ver0 station 0
1030000ms - Sunday 0:17:10
position: 0.0m N +-0.0m, 0.0m E +-0.0m, 0.0m D +-0.0m
gnssOk? False diffSoln? False relPosValid? False
carrSoln: No soln
isMoving? False extrapRefPos? False extrapRebObs? False99seconds
UBX: 0xb56201075c0058bb0f00df070a1200110bf0ffffffff000000000000240000000000000000000000000098bdffffffffffff005285df0000000000000000000000000000000000000000204e000080a812010f2700001219263b00000000000000002465
UBX-NAV-RELPOSNED b562013c28000000000058bb0f00000000000000000000000000000000000000000000000000000000000000000087bf
ver0 station 0
1031000ms - Sunday 0:17:11
position: 0.0m N +-0.0m, 0.0m E +-0.0m, 0.0m D +-0.0m
gnssOk? False diffSoln? False relPosValid? False
carrSoln: No soln
isMoving? False extrapRefPos? False extrapRebObs? False100seconds
UBX: 0xb56201075c0040bf0f00df070a1200110cf0ffffffff000000000000240000000000000000000000000098bdffffffffffff005385df0000000000000000000000000000000000000000204e000080a812010f2700001219263b000000000000000012b2
UBX-NAV-RELPOSNED b562013c28000000000040bf0f00000000000000000000000000000000000000000000000000000000000000000073eb
ver0 station 0
1032000ms - Sunday 0:17:12
position: 0.0m N +-0.0m, 0.0m E +-0.0m, 0.0m D +-0.0m
gnssOk? False diffSoln? False relPosValid? False
carrSoln: No soln
isMoving? False extrapRefPos? False extrapRebObs? False101seconds
UBX: 0xb56201075c0028c30f00df070a1200110df0ffffffff000000000000240000000000000000000000000098bdffffffffffff005485df0000000000000000000000000000000000000000204e000080a812010f2700001219263b000000000000000000ff
UBX-NAV-RELPOSNED b562013c28000000000028c30f0000000000000000000000000000000000000000000000000000000000000000005f17
ver0 station 0
1033000ms - Sunday 0:17:13
position: 0.0m N +-0.0m, 0.0m E +-0.0m, 0.0m D +-0.0m
gnssOk? False diffSoln? False relPosValid? False
carrSoln: No soln
isMoving? False extrapRefPos? False extrapRebObs? False102seconds
UBX: 0xb56201075c0010c70f00df070a1200110ef0ffffffff000000000000240000000000000000000000000098bdffffffffffff005485df0000000000000000000000000000000000000000204e000080a812010f2700001219263b0000000000000000ed1d
UBX-NAV-RELPOSNED b562013c28000000000010c70f0000000000000000000000000000000000000000000000000000000000000000004b43
ver0 station 0
1034000ms - Sunday 0:17:14
position: 0.0m N +-0.0m, 0.0m E +-0.0m, 0.0m D +-0.0m
gnssOk? False diffSoln? False relPosValid? False
carrSoln: No soln
isMoving? False extrapRefPos? False extrapRebObs? False103seconds
UBX: 0xb56201075c00f8ca0f00df070a1200110ff0ffffffff000000000000240000000000000000000000000098bdffffffffffff005585df0000000000000000000000000000000000000000204e000080a812010f2700001219263b0000000000000000da0f
UBX-NAV-RELPOSNED b562013c280000000000f8ca0f000000000000000000000000000000000000000000000000000000000000000000364c
ver0 station 0
1035000ms - Sunday 0:17:15
position: 0.0m N +-0.0m, 0.0m E +-0.0m, 0.0m D +-0.0m
gnssOk? False diffSoln? False relPosValid? False
carrSoln: No soln
isMoving? False extrapRefPos? False extrapRebObs? False104seconds
UBX: 0xb56201075c00e0ce0f00df070a12001110f0ffffffff000000000000240000000000000000000000000098bdffffffffffff005585df0000000000000000000000000000000000000000204e000080a812010f2700001219263b0000000000000000c72d
UBX-NAV-RELPOSNED b562013c280000000000e0ce0f0000000000000000000000000000000000000000000000000000000000000000002278
ver0 station 0
1036000ms - Sunday 0:17:16
position: 0.0m N +-0.0m, 0.0m E +-0.0m, 0.0m D +-0.0m
gnssOk? False diffSoln? False relPosValid? False
carrSoln: No soln
isMoving? False extrapRefPos? False extrapRebObs? False105seconds
UBX: 0xb56201075c00c8d20f00df070a12001111f0ffffffff000000000000240000000000000000000000000098bdffffffffffff005585df0000000000000000000000000000000000000000204e000080a812010f2700001219263b0000000000000000b44b
UBX-NAV-RELPOSNED b562013c280000000000c8d20f0000000000000000000000000000000000000000000000000000000000000000000ea4
ver0 station 0
1037000ms - Sunday 0:17:17
position: 0.0m N +-0.0m, 0.0m E +-0.0m, 0.0m D +-0.0m
gnssOk? False diffSoln? False relPosValid? False
carrSoln: No soln
isMoving? False extrapRefPos? False extrapRebObs? False106seconds
UBX: 0xb56201075c00b0d60f00df070a12001112f0ffffffff000000000000240000000000000000000000000098bdffffffffffff005685df0000000000000000000000000000000000000000204e000080a812010f2700001219263b0000000000000000a298
UBX-NAV-RELPOSNED b562013c280000000000b0d60f000000000000000000000000000000000000000000000000000000000000000000fad0
ver0 station 0
1038000ms - Sunday 0:17:18
position: 0.0m N +-0.0m, 0.0m E +-0.0m, 0.0m D +-0.0m
gnssOk? False diffSoln? False relPosValid? False
carrSoln: No soln
isMoving? False extrapRefPos? False extrapRebObs? False107seconds
UBX: 0xb56201075c0098da0f00df070a12001113f0ffffffff000000000000240000000000000000000000000098bdffffffffffff005685df0000000000000000000000000000000000000000204e000080a812010f2700001219263b00000000000000008fb6
UBX-NAV-RELPOSNED b562013c28000000000098da0f000000000000000000000000000000000000000000000000000000000000000000e6fc
ver0 station 0
1039000ms - Sunday 0:17:19
position: 0.0m N +-0.0m, 0.0m E +-0.0m, 0.0m D +-0.0m
gnssOk? False diffSoln? False relPosValid? False
carrSoln: No soln
isMoving? False extrapRefPos? False extrapRebObs? False108seconds
UBX: 0xb56201075c0080de0f00df070a12001114f0ffffffff000000000000240000000000000000000000000098bdffffffffffff005785df0000000000000000000000000000000000000000204e000080a812010f2700001219263b00000000000000007d03
UBX-NAV-RELPOSNED b562013c28000000000080de0f000000000000000000000000000000000000000000000000000000000000000000d228
ver0 station 0
1040000ms - Sunday 0:17:20
position: 0.0m N +-0.0m, 0.0m E +-0.0m, 0.0m D +-0.0m
gnssOk? False diffSoln? False relPosValid? False
carrSoln: No soln
