Python 3.5.3 (/usr/bin/python3)
>>> %Run rover_rtk_test.py
$GNRMC,144542.00,A,4014.75498,N,11138.96020,W,0.019,,200318,,,A*7F
$GNVTG,,T,,M,0.019,N,0.035,K,A*33
$GNGGA,144542.00,4014.75498,N,11138.96020,W,1,12,0.80,1420.6,M,-18.8,M,,*45
$GNGSA,A,3,01,03,10,14,22,25,26,31,32,,,,1.35,0.80,1.08*1C
$GNGSA,A,3,74,73,71,72,65,88,,,,,,,1.35,0.80,1.08*1D
$GPGSV,3,1,11,01,45,266,46,03,38,311,46,04,,,44,10,14,127,42*40
$GPGSV,3,2,11,14,58,046,47,18,,,47,22,59,308,47,25,19,059,46*4E
$GPGSV,3,3,11,26,15,147,38,31,73,094,51,32,34,066,46*4B
$GLGSV,2,1,06,65,18,306,40,71,45,079,50,72,57,346,47,73,45,052,50*65
$GLGSV,2,2,06,74,54,146,49,88,19,310,38*6E
$GNGLL,4014.75498,N,11138.96020,W,144542.00,A,A*66
$GNTXT,01,01,01,More than 100 frame errors, UART RX was disabled*70
$GNTXT,01,01,02,u-blox AG - www.u-blox.com*4E
$GNTXT,01,01,02,HW UBX-M8030 00080000*60
$GNTXT,01,01,02,EXT CORE 3.01 (db0c89)*68
$GNTXT,01,01,02,ROM BASE 3.01 (107888)*25
$GNTXT,01,01,02,FWVER=HPG 1.40REF*0B
$GNTXT,01,01,02,PROTVER=20.30*19
$GNTXT,01,01,02,MOD=NEO-M8P-2*7B
$GNTXT,01,01,02,FIS=0xEF4015 (100111)*58
$GNTXT,01,01,02,GPS;GLO;BDS*06
$GNTXT,01,01,02,QZSS*58
$GNTXT,01,01,02,GNSS OTP=GPS;GLO*37
$GNTXT,01,01,02,LLC=FFFFFFFF-FFFFFFED-FFFFFFFF-FFFFF79E-FFFFFF69*2E
$GNTXT,01,01,02,ANTSUPERV=AC SD PDoS SR*3E
$GNTXT,01,01,02,ANTSTATUS=OK*25
$GNTXT,01,01,02,PF=300*4B
-----clearing default messages-----
-----writing RTK GPS enabling messages-----
-----reading results of RTK GPS messages-----
0seconds
UBX: 0xb5620501020006000e37
UBX: 0xb56201075c0028e4770de20703140e2d2bf7eb030000a0bf02000301ea0fc7a973bd170afd171e64150076ad1500a004000070060000090000000a000000b9ffffff0d000000000000009800000080a81201870000001219263b0000000000000000178e
UBX-NAV-RELPOSNED b562013c28000000000028e4770d0000000000000000000000000000000000000000000000000000000001000000f61b
ver0 station 0
225961000ms - Tuesday 14:46:1
position: 0.0m N +-0.0m, 0.0m E +-0.0m, 0.0m D +-0.0m
gnssOk? True diffSoln? False relPosValid? False
carrSoln: No soln
isMoving? False extrapRefPos? False extrapRebObs? False1seconds
UBX: 0xb56201075c0010e8770de20703140e2d2cf7eb030000edbe02000301ea0fc6a973bd130afd173c64150094ad15009504000066060000fefffffffffffffffeffffff02000000000000005a00000080a81201870000001219263b0000000000000000526d
UBX-NAV-RELPOSNED b562013c28000000000010e8770d0000000000000000000000000000000000000000000000000000000001000000e247
ver0 station 0
225962000ms - Tuesday 14:46:2
position: 0.0m N +-0.0m, 0.0m E +-0.0m, 0.0m D +-0.0m
gnssOk? True diffSoln? False relPosValid? False
carrSoln: No soln
isMoving? False extrapRefPos? False extrapRebObs? False2seconds
UBX: 0xb56201075c00f8eb770de20703140e2d2df7eb0300003abe02000301ea0fc5a973bd100afd1753641500abad15008b0400005c060000f9fffffff8ffffff1d0000000b000000000000009500000080a81201870000001219263b0000000000000000fb02
UBX-NAV-RELPOSNED b562013c280000000000f8eb770d0000000000000000000000000000000000000000000000000000000001000000cd50
ver0 station 0
225963000ms - Tuesday 14:46:3
position: 0.0m N +-0.0m, 0.0m E +-0.0m, 0.0m D +-0.0m
gnssOk? True diffSoln? False relPosValid? False
carrSoln: No soln
isMoving? False extrapRefPos? False extrapRebObs? False3seconds
UBX: 0xb56201075c00e0ef770de20703140e2d2ef7eb03000088bd02000301ea0fc5a973bd0d0afd1748641500a0ad15008104000052060000fdfffffffeffffff0800000004000000000000007d00000080a81201870000001219263b0000000000000000dee5
UBX-NAV-RELPOSNED b562013c280000000000e0ef770d0000000000000000000000000000000000000000000000000000000001000000b97c
ver0 station 0
225964000ms - Tuesday 14:46:4
position: 0.0m N +-0.0m, 0.0m E +-0.0m, 0.0m D +-0.0m
gnssOk? True diffSoln? False relPosValid? False
carrSoln: No soln
isMoving? False extrapRefPos? False extrapRebObs? False4seconds
UBX: 0xb56201075c00c8f3770de20703140e2d2ff7eb030000d5bc02000301ea0fc5a973bd0a0afd172a64150081ad1500770400004a0600000100000001000000f6ffffff01000000000000008000000080a81201870000001219263b0000000000000000bd8e
UBX-NAV-RELPOSNED b562013c280000000000c8f3770d0000000000000000000000000000000000000000000000000000000001000000a5a8
ver0 station 0
225965000ms - Tuesday 14:46:5
position: 0.0m N +-0.0m, 0.0m E +-0.0m, 0.0m D +-0.0m
gnssOk? True diffSoln? False relPosValid? False
carrSoln: No soln
isMoving? False extrapRefPos? False extrapRebObs? False5seconds
UBX: 0xb56201075c00b0f7770de20703140e2d30f7eb03000022bc02000301ea0fc5a973bd090afd171864150070ad15006f04000043060000ffffffff00000000ecffffff01000000000000008500000080a81201870000001219263b0000000000000000b97a
UBX-NAV-RELPOSNED b562013c280000000000b0f7770d000000000000000000000000000000000000000000000000000000000100000091d4
ver0 station 0
225966000ms - Tuesday 14:46:6
position: 0.0m N +-0.0m, 0.0m E +-0.0m, 0.0m D +-0.0m
gnssOk? True diffSoln? False relPosValid? False
carrSoln: No soln
isMoving? False extrapRefPos? False extrapRebObs? False6seconds
UBX: 0xb56201075c0098fb770de20703140e2d31f7eb03000070bb02000301ea0fc6a973bd070afd171164150069ad1500670400003d060000fcffffff05000000f4ffffff07000000000000007200000080a81201870000001219263b0000000000000000d3a9
UBX-NAV-RELPOSNED b562013c28000000000098fb770d00000000000000000000000000000000000000000000000000000000010000007d00
ver0 station 0
225967000ms - Tuesday 14:46:7
position: 0.0m N +-0.0m, 0.0m E +-0.0m, 0.0m D +-0.0m
gnssOk? True diffSoln? False relPosValid? False
carrSoln: No soln
isMoving? False extrapRefPos? False extrapRebObs? False7seconds
UBX: 0xb56201075c0080ff770de20703140e2d32f7eb030000beba02000301ea0fc6a973bd070afd170c64150064ad1500630400003a060000f9fffffffefffffff2ffffff08000000000000007c00000080a81201870000001219263b0000000000000000f8ba
UBX-NAV-RELPOSNED b562013c28000000000080ff770d0000000000000000000000000000000000000000000000000000000001000000692c
ver0 station 0
225968000ms - Tuesday 14:46:8
position: 0.0m N +-0.0m, 0.0m E +-0.0m, 0.0m D +-0.0m
gnssOk? True diffSoln? False relPosValid? False
carrSoln: No soln
isMoving? False extrapRefPos? False extrapRebObs? False8seconds
UBX: 0xb56201075c006803780de20703140e2d33f7ec03000004ba02000303ea0fc9a973bd040afd1761641500b9ad15005a0400002f060000f6fffffff1ffffffebffffff120000000000000025000000bd7e7300870000001219263b0000000000000000d47b
UBX-NAV-RELPOSNED b562013c2800000000006803780d10020000030200008fffffff3b09d100f62300007a180000d43d000007000000d0f1
ver0 station 0
225969000ms - Tuesday 14:46:9
position: 5.2859m N +-0.9206m, 5.1509m E +-0.6266m, -1.1091m D +-1.5828m
gnssOk? True diffSoln? True relPosValid? True
carrSoln: No soln
isMoving? False extrapRefPos? False extrapRebObs? False9seconds
UBX: 0xb56201075c005007780de20703140e2d34f7ed0300004db902000303ea0fcaa973bd060afd176a641500c1ad150054040000280600000300000001000000fdffffff0300000000000000050000001af71600870000001219263b0000000000000000906b
UBX-NAV-RELPOSNED b562013c2800000000005007780d12020000030200008effffff3e3ae000d1230000561800008b3d0000070000006eea
ver0 station 0
225970000ms - Tuesday 14:46:10
position: 5.3062m N +-0.9169m, 5.1558m E +-0.623m, -1.1176m D +-1.5755m
gnssOk? True diffSoln? True relPosValid? True
carrSoln: No soln
isMoving? False extrapRefPos? False extrapRebObs? False10seconds
UBX: 0xb56201075c00380b780de20703140e2d35f7ec03000098b802000343ea0fcba973bd070afd1762641500baad1500620200005f02000003000000ffffffff04000000030000000000000004000000b5991500870000001219263b000000000000000078ac
UBX-NAV-RELPOSNED b562013c280000000000380b780d13020000040200008fffffff522fc40002140000f10c0000b91700000f0000000ba6
ver0 station 0
225971000ms - Tuesday 14:46:11
position: 5.3182m N +-0.5122m, 5.1647m E +-0.3313m, -1.1103999999999998m D +-0.6073m
gnssOk? True diffSoln? True relPosValid? True
carrSoln: float
isMoving? False extrapRefPos? False extrapRebObs? False11seconds
UBX: 0xb56201075c00200f780de20703140e2d36f7ec030000e6b702000343ea0fcba973bd0b0afd173864150090ad150062020000130200000100000000000000ffffffff01000000000000000200000014cb0d00870000001219263b000000000000000095a9
UBX-NAV-RELPOSNED b562013c280000000000200f780d180200000402000093ffffff2650de0011140000dd0c0000bf1400000f0000000dc4
ver0 station 0
225972000ms - Tuesday 14:46:12
position: 5.3638m N +-0.5137m, 5.168m E +-0.3293m, -1.0678m D +-0.5311m
gnssOk? True diffSoln? True relPosValid? True
carrSoln: float
isMoving? False extrapRefPos? False extrapRebObs? False12seconds
UBX: 0xb56201075c000813780de20703140e2d37f7ec03000034b702000343ea0fcda973bd0d0afd17426415009aad1500570200001a020000fefffffffcfffffffaffffff040000000000000004000000f3cd1500870000001219263b0000000000000000c07d
UBX-NAV-RELPOSNED b562013c2800000000000813780d1a0200000602000092ffffff4535dd00b1130000a30c0000021500000f000000a801
ver0 station 0
225973000ms - Tuesday 14:46:13
position: 5.3869m N +-0.5041m, 5.1853m E +-0.3235m, -1.0779m D +-0.5378m
gnssOk? True diffSoln? True relPosValid? True
carrSoln: float
isMoving? False extrapRefPos? False extrapRebObs? False13seconds
UBX: 0xb56201075c00f016780de20703140e2d38f7ec03000083b602000343ea0fd0a973bd120afd177c641500d3ad15004b0200001002000002000000f5ffffff100000000b000000000000000b00000069203200870000001219263b00000000000000006cbc
UBX-NAV-RELPOSNED b562013c280000000000f016780d1f020000080200008cffffff6240f5004b130000660c00009d1400000f000000cbac
ver0 station 0
225974000ms - Tuesday 14:46:14
position: 5.4398m N +-0.4939m, 5.2064m E +-0.3174m, -1.1355m D +-0.5277m
gnssOk? True diffSoln? True relPosValid? True
carrSoln: float
isMoving? False extrapRefPos? False extrapRebObs? False14seconds
15seconds
UBX: 0xb56201075c00a822780de20703140e2d3bf7ec03000075b402000383ea0f55a973bd6b09fd17f45f15004ca915000e0000000a000000010000000200000010000000020000000dae400107000000c9ae1c00870000001219263b0000000000000000b765
UBX-NAV-RELPOSNED b562013c280000000000a822780d660100009f01000000000000204ff100640000006400000064000000170000005ecc
ver0 station 0
225977000ms - Tuesday 14:46:17
position: 3.5832m N +-0.01m, 4.157900000000001m E +-0.01m, 0.0241m D +-0.01m
gnssOk? True diffSoln? True relPosValid? True
carrSoln: fix
isMoving? False extrapRefPos? False extrapRebObs? False16seconds
UBX: 0xb56201075c009026780de20703140e2e00f7ec030000c6b302000383ea0f55a973bd6b09fd17f85f15004fa915000e0000000a0000000100000003000000fbffffff030000000dae400104000000176d1200870000001219263b0000000000000000aa2e
UBX-NAV-RELPOSNED b562013c2800000000009026780d660100009f010000000000002355cc00640000006400000064000000170000002e0c
ver0 station 0
225978000ms - Tuesday 14:46:18
position: 3.5835m N +-0.01m, 4.1585m E +-0.01m, 0.0204m D +-0.01m
gnssOk? True diffSoln? True relPosValid? True
carrSoln: fix
isMoving? False extrapRefPos? False extrapRebObs? False17seconds
UBX: 0xb56201075c00782a780de20703140e2e01f7ec03000017b302000383ea0f55a973bd6b09fd170260150059a915000e0000000a0000000300000005000000f5ffffff060000000dae400105000000fd430f00870000001219263b0000000000000000b807
UBX-NAV-RELPOSNED b562013c280000000000782a780d660100009f010000ffffffff3657cc00640000006400000064000000170000002b80
ver0 station 0
225979000ms - Tuesday 14:46:19
position: 3.5854m N +-0.01m, 4.1587000000000005m E +-0.01m, 0.010400000000000001m D +-0.01m
gnssOk? True diffSoln? True relPosValid? True
carrSoln: fix
isMoving? False extrapRefPos? False extrapRebObs? False18seconds
UBX: 0xb56201075c00602e780de20703140e2e02f7ec03000068b202000383ea0f55a973bd6b09fd17ff5f150057a915000e0000000a0000000b00000000000000faffffff0b0000000dae400105000000df981700870000001219263b00000000000000003bfa
UBX-NAV-RELPOSNED b562013c280000000000602e780d660100009f010000ffffffff414fe6006400000064000000640000001700000034c4
ver0 station 0
225980000ms - Tuesday 14:46:20
position: 3.5865m N +-0.01m, 4.157900000000001m E +-0.01m, 0.013m D +-0.01m
gnssOk? True diffSoln? True relPosValid? True
carrSoln: fix
isMoving? False extrapRefPos? False extrapRebObs? False19seconds
UBX: 0xb56201075c004832780de20703140e2e03f7ec030000bab102000383ea0f55a973bd6b09fd17ff5f150057a915000e0000000a000000fdfffffffbffffff00000000060000000dae4001040000002ff01700870000001219263b00000000000000000b53
UBX-NAV-RELPOSNED b562013c2800000000004832780d660100009f010000ffffffff1e56e7006400000064000000640000001700000005cb
ver0 station 0
225981000ms - Tuesday 14:46:21
position: 3.583m N +-0.01m, 4.158600000000001m E +-0.01m, 0.013099999999999999m D +-0.01m
gnssOk? True diffSoln? True relPosValid? True
carrSoln: fix
isMoving? False extrapRefPos? False extrapRebObs? False20seconds
UBX: 0xb56201075c003036780de20703140e2e04f7ec0300000bb102000383ea0f55a973bd6b09fd17f95f150051a915000e0000000a000000000000000100000002000000010000000dae40010200000050570f00870000001219263b0000000000000000c74a
UBX-NAV-RELPOSNED b562013c2800000000003036780d660100009f010000000000002c5dbc0064000000640000006400000017000000dfe8
ver0 station 0
225982000ms - Tuesday 14:46:22
position: 3.5844m N +-0.01m, 4.1593m E +-0.01m, 0.0188m D +-0.01m
gnssOk? True diffSoln? True relPosValid? True
carrSoln: fix
isMoving? False extrapRefPos? False extrapRebObs? False21seconds
UBX: 0xb56201075c00183a780de20703140e2e05f7ec0300005db002000383ea0f54a973bd6b09fd17f35f15004ba915000e0000000a0000000200000001000000feffffff020000000dae400104000000507d1500870000001219263b00000000000000002269
UBX-NAV-RELPOSNED b562013c280000000000183a780d660100009f01000000000000553ef900640000006400000064000000170000001245
ver0 station 0
225983000ms - Tuesday 14:46:23
position: 3.5885000000000002m N +-0.01m, 4.1562m E +-0.01m, 0.0249m D +-0.01m
gnssOk? True diffSoln? True relPosValid? True
carrSoln: fix
isMoving? False extrapRefPos? False extrapRebObs? False22seconds
UBX: 0xb56201075c00003e780de20703140e2e06f7ec030000afaf02000383ea0f54a973bd6b09fd17f05f150047a915000e0000000a000000ffffffff02000000fdffffff020000000dae400103000000cd9e1400870000001219263b0000000000000000ef0f
UBX-NAV-RELPOSNED b562013c280000000000003e780d660100009f0100000000000051341c006400000064000000640000001700000013d9
ver0 station 0
225984000ms - Tuesday 14:46:24
position: 3.5881000000000003m N +-0.01m, 4.155200000000001m E +-0.01m, 0.0028m D +-0.01m
gnssOk? True diffSoln? True relPosValid? True
carrSoln: fix
isMoving? False extrapRefPos? False extrapRebObs? False23seconds
UBX: 0xb56201075c00e841780de20703140e2e07f7ec03000001af02000383ea0f54a973bd6b09fd17f85f15004fa915000e0000000a000000fffffffffefffffffaffffff030000000dae40010300000031fc1400870000001219263b0000000000000000f636
UBX-NAV-RELPOSNED b562013c280000000000e841780d660100009f010000000000003a3ecd0064000000640000006400000017000000a246
ver0 station 0
225985000ms - Tuesday 14:46:25
position: 3.5858m N +-0.01m, 4.1562m E +-0.01m, 0.0205m D +-0.01m
gnssOk? True diffSoln? True relPosValid? True
carrSoln: fix
isMoving? False extrapRefPos? False extrapRebObs? False24seconds
UBX: 0xb56201075c00d045780de20703140e2e08f7ec03000054ae02000383ea0f54a973bd6b09fd17f85f150050a915000e0000000a000000faffffff03000000fdffffff060000000dae4001040000001d681a00870000001219263b00000000000000009e07
UBX-NAV-RELPOSNED b562013c280000000000d045780d660100009f01000000000000534ec40064000000640000006400000017000000aef4
ver0 station 0
225986000ms - Tuesday 14:46:26
position: 3.5883000000000003m N +-0.01m, 4.1578m E +-0.01m, 0.0196m D +-0.01m
gnssOk? True diffSoln? True relPosValid? True
carrSoln: fix
isMoving? False extrapRefPos? False extrapRebObs? False25seconds
UBX: 0xb56201075c00b849780de20703140e2e09f7ec030000a8ad02000383ea0f54a973bd6b09fd17f75f15004fa915000e0000000a0000000200000003000000f8ffffff030000000dae400105000000a0411500870000001219263b00000000000000003735
UBX-NAV-RELPOSNED b562013c280000000000b849780d660100009f010000000000004432d000640000006400000064000000170000007bb8
ver0 station 0
225987000ms - Tuesday 14:46:27
position: 3.5868m N +-0.01m, 4.155m E +-0.01m, 0.0208m D +-0.01m
gnssOk? True diffSoln? True relPosValid? True
carrSoln: fix
isMoving? False extrapRefPos? False extrapRebObs? False26seconds
UBX: 0xb56201075c00a04d780de20703140e2e0af7ec030000fbac02000383ea0f54a973bd6b09fd17f05f150047a915000e0000000a000000050000000300000007000000050000000dae40010300000035d60e00870000001219263b00000000000000009f93
UBX-NAV-RELPOSNED b562013c280000000000a04d780d660100009f010000000000005d491b0064000000640000006400000017000000e2d3
ver0 station 0
225988000ms - Tuesday 14:46:28
position: 3.5893m N +-0.01m, 4.1573m E +-0.01m, 0.0027m D +-0.01m
gnssOk? True diffSoln? True relPosValid? True
carrSoln: fix
isMoving? False extrapRefPos? False extrapRebObs? False27seconds
UBX: 0xb56201075c008851780de20703140e2e0bf7eb0300004eac02000383ea0f54a973bd6b09fd17f25f15004aa915000e0000000a000000f8fffffffeffffff00000000080000000dae40010400000067f71600870000001219263b00000000000000002398
UBX-NAV-RELPOSNED b562013c2800000000008851780d660100009f0100000000000045470100640000006400000064000000170000009a25
ver0 station 0
225989000ms - Tuesday 14:46:29
position: 3.5869m N +-0.01m, 4.157100000000001m E +-0.01m, 0.0001m D +-0.01m
gnssOk? True diffSoln? True relPosValid? True
carrSoln: fix
isMoving? False extrapRefPos? False extrapRebObs? False28seconds
UBX: 0xb56201075c007055780de20703140e2e0cf7ec030000a2ab02000383ea0f55a973bd6b09fd17f65f15004da915000e0000000a0000000100000005000000fbffffff050000000dae40010300000063ea0e00870000001219263b00000000000000005db2
UBX-NAV-RELPOSNED b562013c2800000000007055780d660100009f010000000000004353e1006400000064000000640000001700000070cd
ver0 station 0
225990000ms - Tuesday 14:46:30
position: 3.5867m N +-0.01m, 4.1583000000000006m E +-0.01m, 0.0225m D +-0.01m
gnssOk? True diffSoln? True relPosValid? True
carrSoln: fix
isMoving? False extrapRefPos? False extrapRebObs? False29seconds
UBX: 0xb56201075c005859780de20703140e2e0df7ec030000f7aa02000383ea0f55a973bd6b09fd17f75f15004ea915000e0000000a000000fdffffffffffffff06000000030000000dae40010600000025311a00870000001219263b0000000000000000b4e4
UBX-NAV-RELPOSNED b562013c2800000000005859780d660100009f010000000000004c4fd60064000000640000006400000017000000569b
ver0 station 0
225991000ms - Tuesday 14:46:31
position: 3.5876m N +-0.01m, 4.157900000000001m E +-0.01m, 0.0214m D +-0.01m
gnssOk? True diffSoln? True relPosValid? True
carrSoln: fix
isMoving? False extrapRefPos? False extrapRebObs? False30seconds
UBX: 0xb56201075c00405d780de20703140e2e0ef7ec0300004caa02000383ea0f55a973bd6b09fd17f75f15004fa915000e0000000a000000feffffff0100000000000000030000000dae4001030000005b501200870000001219263b00000000000000004139
UBX-NAV-RELPOSNED b562013c280000000000405d780d670100009f010000000000000b5bd300640000006400000064000000170000000b81
ver0 station 0
225992000ms - Tuesday 14:46:32
position: 3.5911m N +-0.01m, 4.1591000000000005m E +-0.01m, 0.0211m D +-0.01m
gnssOk? True diffSoln? True relPosValid? True
carrSoln: fix
isMoving? False extrapRefPos? False extrapRebObs? False31seconds
UBX: 0xb56201075c002861780de20703140e2e0ff7ec030000a1a902000383ea0f54a973bd6b09fd17f55f15004ca915000e0000000a000000010000000300000003000000040000000dae40010200000032310e00870000001219263b00000000000000003be1
UBX-NAV-RELPOSNED b562013c2800000000002861780d660100009f010000000000004643e900640000006400000064000000170000002fed
ver0 station 0
225993000ms - Tuesday 14:46:33
position: 3.587m N +-0.01m, 4.156700000000001m E +-0.01m, 0.0233m D +-0.01m
gnssOk? True diffSoln? True relPosValid? True
carrSoln: fix
isMoving? False extrapRefPos? False extrapRebObs? False32seconds
UBX: 0xb56201075c001065780de20703140e2e10f7ec030000f5a802000383ea0f54a973bd6b09fd17f45f15004ca915000e0000000a00000001000000fdfffffffaffffff030000000dae400104000000ac591400870000001219263b00000000000000000e58
UBX-NAV-RELPOSNED b562013c2800000000001065780d660100009f010000000000004b4aed00640000006400000064000000170000002b4a
ver0 station 0
225994000ms - Tuesday 14:46:34
position: 3.5875m N +-0.01m, 4.1574m E +-0.01m, 0.0237m D +-0.01m
gnssOk? True diffSoln? True relPosValid? True
carrSoln: fix
isMoving? False extrapRefPos? False extrapRebObs? False33seconds
UBX: 0xb56201075c00f868780de20703140e2e11f7ec0300004aa802000383ea0f54a973bd6b09fd17f35f15004ba915000e0000000a000000fcfffffffdffffff08000000050000000dae40010600000050f51700870000001219263b00000000000000009df1
UBX-NAV-RELPOSNED b562013c280000000000f868780d670100009f010000000000000345f60064000000640000006400000017000000d316
ver0 station 0
225995000ms - Tuesday 14:46:35
position: 3.5903m N +-0.01m, 4.1569m E +-0.01m, 0.0246m D +-0.01m
gnssOk? True diffSoln? True relPosValid? True
carrSoln: fix
isMoving? False extrapRefPos? False extrapRebObs? False34seconds
UBX: 0xb56201075c00e06c780de20703140e2e12f7ec0300009fa702000383ea0f54a973bd6b09fd17f25f15004aa915000e0000000a0000000500000003000000f3ffffff060000000dae400106000000b74e1200870000001219263b0000000000000000950b
UBX-NAV-RELPOSNED b562013c280000000000e06c780d660100009f01000000000000604d050064000000640000006400000017000000320c
ver0 station 0
225996000ms - Tuesday 14:46:36
position: 3.5896m N +-0.01m, 4.1577m E +-0.01m, 0.0005m D +-0.01m
gnssOk? True diffSoln? True relPosValid? True
carrSoln: fix
isMoving? False extrapRefPos? False extrapRebObs? False35seconds
UBX: 0xb56201075c00c870780de20703140e2e13f7ed030000f4a602000383ea0f54a973bd6b09fd17ef5f150047a915000e0000000a00000000000000ffffffff03000000010000000dae40010300000035111500870000001219263b00000000000000001465
UBX-NAV-RELPOSNED b562013c280000000000c870780d660100009f01000000000000404d200064000000640000006400000017000000199e
ver0 station 0
225997000ms - Tuesday 14:46:37
position: 3.5864000000000003m N +-0.01m, 4.1577m E +-0.01m, 0.0032m D +-0.01m
gnssOk? True diffSoln? True relPosValid? True
carrSoln: fix
isMoving? False extrapRefPos? False extrapRebObs? False36seconds
UBX: 0xb56201075c00b074780de20703140e2e14f7ed0300004ba602000383ea0f54a973bd6b09fd17ed5f150045a915000e0000000a0000000000000001000000f8ffffff010000000dae40010600000023671600870000001219263b00000000000000009393
UBX-NAV-RELPOSNED b562013c280000000000b074780d660100009f010000000000005d4b3500640000006400000064000000170000003562
ver0 station 0
225998000ms - Tuesday 14:46:38
position: 3.5893m N +-0.01m, 4.157500000000001m E +-0.01m, 0.0053m D +-0.01m
gnssOk? True diffSoln? True relPosValid? True
carrSoln: fix
isMoving? False extrapRefPos? False extrapRebObs? False37seconds
UBX: 0xb56201075c009878780de20703140e2e15f7ed030000a1a502000383ea0f54a973bd6b09fd17ec5f150044a915000e0000000a0000000300000001000000fcffffff030000000dae400104000000ed241400870000001219263b00000000000000005f49
UBX-NAV-RELPOSNED b562013c2800000000009878780d670100009f01000000000000004b420064000000640000006400000017000000d254
ver0 station 0
225999000ms - Tuesday 14:46:39
position: 3.59m N +-0.01m, 4.157500000000001m E +-0.01m, 0.0066m D +-0.01m
gnssOk? True diffSoln? True relPosValid? True
carrSoln: fix
isMoving? False extrapRefPos? False extrapRebObs? False38seconds
UBX: 0xb56201075c00807c780de20703140e2e16f7ed030000f8a402000383ea0f54a973bd6b09fd17ee5f150046a915000e0000000a00000000000000ffffffff04000000010000000dae40010200000084e70c00870000001219263b0000000000000000f75d
UBX-NAV-RELPOSNED b562013c280000000000807c780d660100009f010000000000006437290064000000640000006400000017000000f4f2
ver0 station 0
226000000ms - Tuesday 14:46:40
position: 3.59m N +-0.01m, 4.1555m E +-0.01m, 0.0041m D +-0.01m
gnssOk? True diffSoln? True relPosValid? True
carrSoln: fix
isMoving? False extrapRefPos? False extrapRebObs? False39seconds
UBX: 0xb56201075c006880780de20703140e2e17f7ed0300004fa402000383ea0f54a973bd6b09fd17ed5f150045a915000e0000000a000000ffffffff0100000009000000010000000dae400104000000eeb41000870000001219263b00000000000000007c9e
UBX-NAV-RELPOSNED b562013c2800000000006880780d660100009f010000000000004e40340064000000640000006400000017000000ded7
ver0 station 0
226001000ms - Tuesday 14:46:41
position: 3.5878m N +-0.01m, 4.1564000000000005m E +-0.01m, 0.0052m D +-0.01m
gnssOk? True diffSoln? True relPosValid? True
carrSoln: fix
isMoving? False extrapRefPos? False extrapRebObs? False40seconds
UBX: 0xb56201075c005084780de20703140e2e18f7ed030000a7a302000383ea0f54a973bd6b09fd17e95f150041a915000e0000000a00000001000000ffffffff08000000010000000dae400104000000b8511400870000001219263b00000000000000002268
UBX-NAV-RELPOSNED b562013c2800000000005084780d670100009f010000000000000e38610064000000640000006400000017000000b0b5
ver0 station 0
226002000ms - Tuesday 14:46:42
position: 3.5913999999999997m N +-0.01m, 4.155600000000001m E +-0.01m, 0.0097m D +-0.01m
gnssOk? True diffSoln? True relPosValid? True
carrSoln: fix
isMoving? False extrapRefPos? False extrapRebObs? False41seconds
UBX: 0xb56201075c003888780de20703140e2e19f7ee030000ffa202000383ea0f55a973bd6c09fd17ea5f150041a915000e0000000a000000fcfffffffbfffffffeffffff060000000dae4001050000003a0b2000870000001219263b00000000000000009f29
UBX-NAV-RELPOSNED b562013c2800000000003888780d670100009f010000000000001e53580064000000640000006400000017000000be80
ver0 station 0
226003000ms - Tuesday 14:46:43
position: 3.593m N +-0.01m, 4.1583000000000006m E +-0.01m, 0.0088m D +-0.01m
gnssOk? True diffSoln? True relPosValid? True
carrSoln: fix
isMoving? False extrapRefPos? False extrapRebObs? False42seconds
UBX: 0xb56201075c00208c780de20703140e2e1af7ed03000057a202000383ea0f55a973bd6b09fd17ef5f150047a915000e0000000a0000000000000005000000feffffff050000000dae40010300000038051700870000001219263b0000000000000000edf7
UBX-NAV-RELPOSNED b562013c280000000000208c780d670100009f010000000000000b612400640000006400000064000000170000007192
ver0 station 0
226004000ms - Tuesday 14:46:44
position: 3.5911m N +-0.01m, 4.1597m E +-0.01m, 0.0036m D +-0.01m
gnssOk? True diffSoln? True relPosValid? True
carrSoln: fix
isMoving? False extrapRefPos? False extrapRebObs? False43seconds
UBX: 0xb56201075c000890780de20703140e2e1bf7ed030000afa102000383ea0f55a973bd6c09fd17eb5f150042a915000e0000000a0000000900000003000000fdffffff0a0000000dae400105000000526b1600870000001219263b0000000000000000b592
UBX-NAV-RELPOSNED b562013c2800000000000890780d670100009f0100000000000025584e0064000000640000006400000017000000980f
ver0 station 0
226005000ms - Tuesday 14:46:45
position: 3.5936999999999997m N +-0.01m, 4.1588m E +-0.01m, 0.0078m D +-0.01m
gnssOk? True diffSoln? True relPosValid? True
carrSoln: fix
isMoving? False extrapRefPos? False extrapRebObs? False44seconds
UBX: 0xb56201075c00f093780de20703140e2e1cf7ed03000007a102000383ea0f55a973bd6b09fd17ed5f150045a915000e0000000a00000002000000fbffffff07000000050000000dae40010400000089491700870000001219263b0000000000000000085d
UBX-NAV-RELPOSNED b562013c280000000000f093780d670100009f01000000000000074f3500640000006400000064000000170000004353
ver0 station 0
226006000ms - Tuesday 14:46:46
position: 3.5907m N +-0.01m, 4.157900000000001m E +-0.01m, 0.0053m D +-0.01m
gnssOk? True diffSoln? True relPosValid? True
carrSoln: fix
isMoving? False extrapRefPos? False extrapRebObs? False45seconds
UBX: 0xb56201075c00d897780de20703140e2e1df7ed0300005fa002000383ea0f55a973bd6c09fd17f45f15004ca915000e0000000a00000004000000feffffffffffffff050000000dae40010400000051b61700870000001219263b00000000000000008abd
UBX-NAV-RELPOSNED b562013c280000000000d897780d670100009f01000000000000375cef0064000000640000006400000017000000264a
ver0 station 0
226007000ms - Tuesday 14:46:47
position: 3.5955m N +-0.01m, 4.1592m E +-0.01m, 0.0239m D +-0.01m
gnssOk? True diffSoln? True relPosValid? True
carrSoln: fix
isMoving? False extrapRefPos? False extrapRebObs? False46seconds
UBX: 0xb56201075c00c09b780de20703140e2e1ef7ee030000b79f02000383ea0f54a973bd6c09fd17f65f15004da915000e0000000a00000008000000faffffff020000000a0000000dae400104000000f93a1d00870000001219263b00000000000000000e46
UBX-NAV-RELPOSNED b562013c280000000000c09b780d670100009f010000000000002138e00064000000640000006400000017000000c904
ver0 station 0
226008000ms - Tuesday 14:46:48
position: 3.5932999999999997m N +-0.01m, 4.155600000000001m E +-0.01m, 0.0224m D +-0.01m
gnssOk? True diffSoln? True relPosValid? True
carrSoln: fix
isMoving? False extrapRefPos? False extrapRebObs? False47seconds
UBX: 0xb56201075c00a89f780de20703140e2e1ff7ed0300000f9f02000383ea0f54a973bd6b09fd17f35f15004aa915000e0000000a000000fefffffffdfffffffaffffff040000000dae40010300000039d31200870000001219263b0000000000000000fd11
UBX-NAV-RELPOSNED b562013c280000000000a89f780d670100009f010000000000001346fe0064000000640000006400000017000000d33e
ver0 station 0
226009000ms - Tuesday 14:46:49
position: 3.5919m N +-0.01m, 4.157m E +-0.01m, 0.0254m D +-0.01m
gnssOk? True diffSoln? True relPosValid? True
carrSoln: fix
isMoving? False extrapRefPos? False extrapRebObs? False48seconds
UBX: 0xb56201075c0090a3780de20703140e2e20f7ec030000679e02000383ea0f55a973bd6c09fd17f35f15004ba915000e0000000a000000ffffffff0200000003000000030000000dae4001030000009f880f00870000001219263b00000000000000006f91
UBX-NAV-RELPOSNED b562013c28000000000090a3780d670100009f010000000000002659fc0064000000640000006400000017000000e32b
ver0 station 0
226010000ms - Tuesday 14:46:50
position: 3.5938m N +-0.01m, 4.1589m E +-0.01m, 0.0252m D +-0.01m
gnssOk? True diffSoln? True relPosValid? True
carrSoln: fix
isMoving? False extrapRefPos? False extrapRebObs? False49seconds
UBX: 0xb56201075c0078a7780de20703140e2e21f7ed030000c09d02000383ea0f55a973bd6c09fd17f75f15004fa915000e0000000a000000060000000500000000000000080000000dae4001030000002f2a1000870000001219263b0000000000000000ffa6
UBX-NAV-RELPOSNED b562013c28000000000078a7780d670100009f010000000000002064cf0064000000640000006400000017000000a786
ver0 station 0
226011000ms - Tuesday 14:46:51
position: 3.5932m N +-0.01m, 4.16m E +-0.01m, 0.0207m D +-0.01m
gnssOk? True diffSoln? True relPosValid? True
carrSoln: fix
isMoving? False extrapRefPos? False extrapRebObs? False50seconds
UBX: 0xb56201075c0060ab780de20703140e2e22f7ed030000199d02000383ea0f55a973bd6c09fd17f55f15004da915000e0000000a000000fcffffff07000000f9ffffff070000000dae4001050000008f9a1900870000001219263b00000000000000000682
UBX-NAV-RELPOSNED b562013c28000000000060ab780d670100009f010000000000005962e40064000000640000006400000017000000df7a
ver0 station 0
226012000ms - Tuesday 14:46:52
position: 3.5989m N +-0.01m, 4.159800000000001m E +-0.01m, 0.0228m D +-0.01m
gnssOk? True diffSoln? True relPosValid? True
carrSoln: fix
isMoving? False extrapRefPos? False extrapRebObs? False51seconds
UBX: 0xb56201075c0048af780de20703140e2e23f7ed030000719c02000383ea0f55a973bd6c09fd17f75f15004ea915000e0000000a000000060000000300000006000000070000000dae40010400000082c91300870000001219263b000000000000000081ea
UBX-NAV-RELPOSNED b562013c28000000000048af780d670100009f01000000000000295ed60064000000640000006400000017000000899e
ver0 station 0
226013000ms - Tuesday 14:46:53
position: 3.5941m N +-0.01m, 4.159400000000001m E +-0.01m, 0.0214m D +-0.01m
gnssOk? True diffSoln? True relPosValid? True
carrSoln: fix
isMoving? False extrapRefPos? False extrapRebObs? False52seconds
UBX: 0xb56201075c0030b3780de20703140e2e24f7ec030000c99b02000383ea0f55a973bd6c09fd17f55f15004da915000e0000000a00000001000000fefffffffeffffff020000000dae4001040000009d331b00870000001219263b0000000000000000312b
UBX-NAV-RELPOSNED b562013c28000000000030b3780d67010000a0010000000000004702e500640000006400000064000000170000004778
ver0 station 0
226014000ms - Tuesday 14:46:54
position: 3.5970999999999997m N +-0.01m, 4.160200000000001m E +-0.01m, 0.0229m D +-0.01m
gnssOk? True diffSoln? True relPosValid? True
carrSoln: fix
isMoving? False extrapRefPos? False extrapRebObs? False53seconds
UBX: 0xb56201075c0018b7780de20703140e2e25f7ec030000229b02000383ea0f55a973bd6b09fd17f85f150050a915000e0000000a00000006000000f9ffffffefffffff090000000dae400108000000dbb51f00870000001219263b00000000000000003ccf
UBX-NAV-RELPOSNED b562013c28000000000018b7780d67010000a0010000000000000b0ec90064000000640000006400000017000000e7e0
ver0 station 0
226015000ms - Tuesday 14:46:55
position: 3.5911m N +-0.01m, 4.1614m E +-0.01m, 0.0201m D +-0.01m
gnssOk? True diffSoln? True relPosValid? True
carrSoln: fix
isMoving? False extrapRefPos? False extrapRebObs? False54seconds
UBX: 0xb56201075c0000bb780de20703140e2e26f7ec0300007b9a02000383ea0f55a973bd6c09fd17f95f150050a915000e0000000a00000006000000ffffffff0a000000060000000dae40010700000083d51d00870000001219263b00000000000000006990
UBX-NAV-RELPOSNED b562013c28000000000000bb780d670100009f010000000000002553c200640000006400000064000000170000002a99
ver0 station 0
226016000ms - Tuesday 14:46:56
position: 3.5936999999999997m N +-0.01m, 4.1583000000000006m E +-0.01m, 0.0194m D +-0.01m
gnssOk? True diffSoln? True relPosValid? True
carrSoln: fix
isMoving? False extrapRefPos? False extrapRebObs? False55seconds
UBX: 0xb56201075c00e8be780de20703140e2e27f7ec030000d49902000383ea0f55a973bd6c09fd17f85f150050a915000e0000000a00000002000000ffffffffefffffff020000000dae400107000000c7c81c00870000001219263b0000000000000000bc1d
UBX-NAV-RELPOSNED b562013c280000000000e8be780d670100009f010000000000003762c50064000000640000006400000017000000395d
ver0 station 0
226017000ms - Tuesday 14:46:57
position: 3.5955m N +-0.01m, 4.159800000000001m E +-0.01m, 0.0197m D +-0.01m
gnssOk? True diffSoln? True relPosValid? True
carrSoln: fix
isMoving? False extrapRefPos? False extrapRebObs? False56seconds
UBX: 0xb56201075c00d0c2780de20703140e2e28f7ec0300002d9902000383ea0f55a973bd6c09fd17fc5f150053a915000e0000000a00000001000000fffffffffeffffff020000000dae40010500000065df1d00870000001219263b0000000000000000cb1e
UBX-NAV-RELPOSNED b562013c280000000000d0c2780d670100009f010000000000002361a40064000000640000006400000017000000ef94
ver0 station 0
226018000ms - Tuesday 14:46:58
position: 3.5934999999999997m N +-0.01m, 4.1597m E +-0.01m, 0.0164m D +-0.01m
gnssOk? True diffSoln? True relPosValid? True
carrSoln: fix
isMoving? False extrapRefPos? False extrapRebObs? False57seconds
UBX: 0xb56201075c00b8c6780de20703140e2e29f7ec030000869802000383ea0f55a973bd6c09fd17fc5f150054a915000e0000000a00000001000000f9fffffffeffffff070000000dae400103000000c6021200870000001219263b0000000000000000877c
UBX-NAV-RELPOSNED b562013c280000000000b8c6780d67010000a0010000000000002908a100640000006400000064000000170000008683
ver0 station 0
226019000ms - Tuesday 14:46:59
position: 3.5941m N +-0.01m, 4.1608m E +-0.01m, 0.0161m D +-0.01m
gnssOk? True diffSoln? True relPosValid? True
carrSoln: fix
isMoving? False extrapRefPos? False extrapRebObs? False58seconds
UBX: 0xb56201075c00a0ca780de20703140e2e2af7ec030000df9702000383ea0f55a973bd6c09fd17fb5f150052a915000e0000000a00000003000000fcffffff00000000050000000dae40010200000061cf1100870000001219263b00000000000000003776
UBX-NAV-RELPOSNED b562013c280000000000a0ca780d67010000a0010000000000004209ae006400000064000000640000001700000099a0
ver0 station 0
226020000ms - Tuesday 14:47:0
position: 3.5966m N +-0.01m, 4.1609m E +-0.01m, 0.0174m D +-0.01m
gnssOk? True diffSoln? True relPosValid? True
carrSoln: fix
isMoving? False extrapRefPos? False extrapRebObs? False59seconds
UBX: 0xb56201075c0088ce780de20703140e2e2bf7ec030000399702000383ea0f55a973bd6c09fd17fc5f150053a915000e0000000a00000002000000fafffffffeffffff060000000dae4001030000000f841300870000001219263b0000000000000000dff9
UBX-NAV-RELPOSNED b562013c28000000000088ce780d670100009f010000000000001e50a400640000006400000064000000170000009d71
ver0 station 0
226021000ms - Tuesday 14:47:1
position: 3.593m N +-0.01m, 4.158m E +-0.01m, 0.0164m D +-0.01m
gnssOk? True diffSoln? True relPosValid? True
carrSoln: fix
isMoving? False extrapRefPos? False extrapRebObs? False60seconds
UBX: 0xb56201075c0070d2780de20703140e2e2cf7ec030000939602000383ea0f55a973bd6c09fd17fd5f150054a915000e0000000a000000ffffffff010000000a000000010000000dae40010800000072781e00870000001219263b00000000000000009c0c
UBX-NAV-RELPOSNED b562013c28000000000070d2780d670100009f010000ffffffff2a54ff0064000000640000006400000017000000f0e5
ver0 station 0
226022000ms - Tuesday 14:47:2
position: 3.5942m N +-0.01m, 4.1584m E +-0.01m, 0.015499999999999998m D +-0.01m
gnssOk? True diffSoln? True relPosValid? True
carrSoln: fix
isMoving? False extrapRefPos? False extrapRebObs? False61seconds
UBX: 0xb56201075c0058d6780de20703140e2e2df7ed030000ed9502000383ea0f55a973bd6c09fd17fe5f150056a915000e0000000a00000004000000fffffffff5ffffff040000000dae40010400000049731100870000001219263b00000000000000009554
UBX-NAV-RELPOSNED b562013c28000000000058d6780d670100009f010000ffffffff2557ed0064000000640000006400000017000000c8a2
ver0 station 0
226023000ms - Tuesday 14:47:3
position: 3.5936999999999997m N +-0.01m, 4.1587000000000005m E +-0.01m, 0.013699999999999999m D +-0.01m
gnssOk? True diffSoln? True relPosValid? True
carrSoln: fix
isMoving? False extrapRefPos? False extrapRebObs? False62seconds
UBX: 0xb56201075c0040da780de20703140e2e2ef7ed030000489502000383ea0f55a973bd6c09fd17f65f15004ea915000e0000000a000000fcfffffffeffffff09000000040000000dae400109000000826b2600870000001219263b000000000000000023d4
UBX-NAV-RELPOSNED b562013c28000000000040da780d67010000a001000000000000300edc00640000006400000064000000170000006a83
ver0 station 0
226024000ms - Tuesday 14:47:4
position: 3.5947999999999998m N +-0.01m, 4.1614m E +-0.01m, 0.022m D +-0.01m
gnssOk? True diffSoln? True relPosValid? True
carrSoln: fix
isMoving? False extrapRefPos? False extrapRebObs? False63seconds
UBX: 0xb56201075c0028de780de20703140e2e2ff7ed030000a39402000383ea0f55a973bd6b09fd17f85f15004fa915000e0000000a000000f9fffffffeffffff0a000000070000000dae400105000000874c1400870000001219263b00000000000000003d8e
UBX-NAV-RELPOSNED b562013c28000000000028de780d67010000a0010000000000000e0dcc006400000064000000640000001700000023d4
ver0 station 0
226025000ms - Tuesday 14:47:5
position: 3.5913999999999997m N +-0.01m, 4.1613m E +-0.01m, 0.0204m D +-0.01m
gnssOk? True diffSoln? True relPosValid? True
carrSoln: fix
isMoving? False extrapRefPos? False extrapRebObs? False64seconds
65seconds
66seconds
UBX: 0xb56201075c00e0e9780de20703140e2e32f7ed030000b59202000383ea0f55a973bd6b09fd17f25f15004aa915000e0000000a000000fefffffffeffffffeaffffff030000000dae4001070000009d431700870000001219263b0000000000000000f8b8
UBX-NAV-RELPOSNED b562013c280000000000e0e9780d670100009f010000000000000a540500640000006400000064000000170000006110
ver0 station 0
226028000ms - Tuesday 14:47:8
position: 3.5909999999999997m N +-0.01m, 4.1584m E +-0.01m, 0.0005m D +-0.01m
gnssOk? True diffSoln? True relPosValid? True
carrSoln: fix
isMoving? False extrapRefPos? False extrapRebObs? FalseUBX: 0xb56201075c00c8ed780de20703140e2e33f7ec030000109202000383ea0f55a973bd6c09fd17f65f15004ea915000e0000000a000000fcffffff05000000ecffffff060000000dae4001090000008f5a2200870000001219263b00000000000000006b07
UBX-NAV-RELPOSNED b562013c280000000000c8ed780d670100009f010000000000004559dd00640000006400000064000000170000006567
ver0 station 0
226029000ms - Tuesday 14:47:9
position: 3.5968999999999998m N +-0.01m, 4.1589m E +-0.01m, 0.0221m D +-0.01m
gnssOk? True diffSoln? True relPosValid? True
carrSoln: fix
isMoving? False extrapRefPos? False extrapRebObs? False67seconds
UBX: 0xb56201075c00b0f1780de20703140e2e34f7ec0300006d9102000383ea0f55a973bd6c09fd17f75f15004fa915000e0000000a0000000000000005000000f2ffffff050000000dae4001040000009dd81200870000001219263b000000000000000039aa
UBX-NAV-RELPOSNED b562013c280000000000b0f1780d670100009f010000000000002862d300640000006400000064000000170000003346
ver0 station 0
226030000ms - Tuesday 14:47:10
position: 3.594m N +-0.01m, 4.159800000000001m E +-0.01m, 0.0211m D +-0.01m
gnssOk? True diffSoln? True relPosValid? True
carrSoln: fix
isMoving? False extrapRefPos? False extrapRebObs? False68seconds
UBX: 0xb56201075c0098f5780de20703140e2e35f7ec030000ca9002000383ea0f55a973bd6c09fd17f65f15004ea915000e0000000a0000000100000000000000fdffffff010000000dae40010500000078661c00870000001219263b0000000000000000f787
UBX-NAV-RELPOSNED b562013c28000000000098f5780d670100009f010000000000003859db00640000006400000064000000170000002e97
ver0 station 0
226031000ms - Tuesday 14:47:11
position: 3.5955999999999997m N +-0.01m, 4.1589m E +-0.01m, 0.0219m D +-0.01m
gnssOk? True diffSoln? True relPosValid? True
carrSoln: fix
isMoving? False extrapRefPos? False extrapRebObs? False69seconds
UBX: 0xb56201075c0080f9780de20703140e2e36f7ec030000279002000383ea0f55a973bd6c09fd17ef5f150047a915000e0000000a00000000000000fefffffffaffffff020000000dae400103000000fa971300870000001219263b0000000000000000d3d4
UBX-NAV-RELPOSNED b562013c28000000000080f9780d670100009f0100000000000027602400640000006400000064000000170000005916
ver0 station 0
226032000ms - Tuesday 14:47:12
position: 3.5938999999999997m N +-0.01m, 4.1596m E +-0.01m, 0.0036m D +-0.01m
gnssOk? True diffSoln? True relPosValid? True
carrSoln: fix
isMoving? False extrapRefPos? False extrapRebObs? False70seconds
UBX: 0xb56201075c0068fd780de20703140e2e37f7ec030000858f02000383ea0f55a973bd6c09fd17f15f150049a915000e0000000a000000faffffff01000000f8ffffff060000000dae40010600000094f81900870000001219263b00000000000000002402
UBX-NAV-RELPOSNED b562013c28000000000068fd780d670100009f0100000000000032500e00640000006400000064000000170000002a62
ver0 station 0
226033000ms - Tuesday 14:47:13
position: 3.5949999999999998m N +-0.01m, 4.158m E +-0.01m, 0.0014m D +-0.01m
gnssOk? True diffSoln? True relPosValid? True
carrSoln: fix
isMoving? False extrapRefPos? False extrapRebObs? False71seconds
UBX: 0xb56201075c005001790de20703140e2e38f7ec030000e18e02000383ea0f54a973bd6c09fd17f25f15004aa915000e0000000a0000000700000000000000f5ffffff070000000dae400108000000fd9a1d00870000001219263b00000000000000008ca7
UBX-NAV-RELPOSNED b562013c2800000000005001790d670100009f010000000000004e4607006400000064000000640000001700000022a4
ver0 station 0
226034000ms - Tuesday 14:47:14
position: 3.5978m N +-0.01m, 4.157m E +-0.01m, 0.0007m D +-0.01m
gnssOk? True diffSoln? True relPosValid? True
carrSoln: fix
isMoving? False extrapRefPos? False extrapRebObs? False72seconds
UBX: 0xb56201075c003805790de20703140e2e39f7ec0300003e8e02000383ea0f54a973bd6c09fd17f45f15004ca915000e0000000a000000080000000500000007000000090000000dae400104000000d36e1100870000001219263b000000000000000091a7
UBX-NAV-RELPOSNED b562013c2800000000003805790d670100009f010000000000004548ed0064000000640000006400000017000000ed6e
ver0 station 0
226035000ms - Tuesday 14:47:15
position: 3.5968999999999998m N +-0.01m, 4.1572000000000005m E +-0.01m, 0.0237m D +-0.01m
gnssOk? True diffSoln? True relPosValid? True
carrSoln: fix
isMoving? False extrapRefPos? False extrapRebObs? False73seconds
UBX: 0xb56201075c002009790de20703140e2e3af7ec0300009b8d02000383ea0f54a973bd6c09fd17f75f15004fa915000e0000000a0000000700000000000000faffffff070000000dae400104000000b7991700870000001219263b0000000000000000dd71
UBX-NAV-RELPOSNED b562013c2800000000002009790d670100009f010000000000003c46d00064000000640000006400000017000000b1b6
ver0 station 0
226036000ms - Tuesday 14:47:16
position: 3.5959999999999996m N +-0.01m, 4.157m E +-0.01m, 0.0208m D +-0.01m
gnssOk? True diffSoln? True relPosValid? True
carrSoln: fix
isMoving? False extrapRefPos? False extrapRebObs? False74seconds
UBX: 0xb56201075c00080d790de20703140e2e3bf7ec030000f88c02000383ea0f55a973bd6b09fd17eb5f150043a915000e0000000a000000fbffffff020000000d000000050000000dae400106000000b7ca1600870000001219263b000000000000000047c9
UBX-NAV-RELPOSNED b562013c280000000000080d790d66010000a00100000000000063054c0064000000640000006400000017000000ffcf
ver0 station 0
226037000ms - Tuesday 14:47:17
position: 3.5899m N +-0.01m, 4.1605m E +-0.01m, 0.0076m D +-0.01m
gnssOk? True diffSoln? True relPosValid? True
carrSoln: fix
isMoving? False extrapRefPos? False extrapRebObs? False75seconds
UBX: 0xb56201075c00f010790de20703140e2f00f7ed030000558c02000383ea0f54a973bd6c09fd17f35f15004ba915000e0000000a00000000000000fdfffffffbffffff030000000dae4001040000005ba31600870000001219263b0000000000000000cadc
UBX-NAV-RELPOSNED b562013c280000000000f010790d670100009f01000000000000214dfc0064000000640000006400000017000000a06c
ver0 station 0
226038000ms - Tuesday 14:47:18
position: 3.5932999999999997m N +-0.01m, 4.1577m E +-0.01m, 0.0252m D +-0.01m
gnssOk? True diffSoln? True relPosValid? True
carrSoln: fix
isMoving? False extrapRefPos? False extrapRebObs? False76seconds
UBX: 0xb56201075c00d814790de20703140e2f01f7ed030000b28b02000383ea0f54a973bd6c09fd17f45f15004ca915000e0000000a00000004000000ffffffff02000000040000000dae40010300000019791800870000001219263b0000000000000000bb07
UBX-NAV-RELPOSNED b562013c280000000000d814790d670100009f010000000000001d47ef006400000064000000640000001700000075ec
ver0 station 0
226039000ms - Tuesday 14:47:19
position: 3.5928999999999998m N +-0.01m, 4.157100000000001m E +-0.01m, 0.0239m D +-0.01m
gnssOk? True diffSoln? True relPosValid? True
carrSoln: fix
isMoving? False extrapRefPos? False extrapRebObs? False77seconds
UBX: 0xb56201075c00c018790de20703140e2f02f7ed0300000f8b02000383ea0f54a973bd6b09fd17f75f15004fa915000e0000000a000000ffffffff01000000fdffffff020000000dae4001050000001d741d00870000001219263b00000000000000000366
UBX-NAV-RELPOSNED b562013c280000000000c018790d670100009f010000000000001548d300640000006400000064000000170000003e93
ver0 station 0
226040000ms - Tuesday 14:47:20
position: 3.5921m N +-0.01m, 4.1572000000000005m E +-0.01m, 0.0211m D +-0.01m
gnssOk? True diffSoln? True relPosValid? True
carrSoln: fix
isMoving? False extrapRefPos? False extrapRebObs? False78seconds
UBX: 0xb56201075c00a81c790de20703140e2f03f7ed0300006d8a02000383ea0f55a973bd6c09fd17f55f15004da915000e0000000a00000002000000fffffffffbffffff020000000dae400105000000cf731800870000001219263b0000000000000000f630
UBX-NAV-RELPOSNED b562013c280000000000a81c790d670100009f010000000000001f51e300640000006400000064000000170000004d52
ver0 station 0
226041000ms - Tuesday 14:47:21
position: 3.5930999999999997m N +-0.01m, 4.1581m E +-0.01m, 0.0227m D +-0.01m
gnssOk? True diffSoln? True relPosValid? True
carrSoln: fix
isMoving? False extrapRefPos? False extrapRebObs? False79seconds
UBX: 0xb56201075c009020790de20703140e2f04f7ed030000cb8902000383ea0f54a973bd6c09fd17f15f150048a915000e0000000a00000002000000fefffffff3ffffff030000000dae4001090000004ce82400870000001219263b00000000000000003022
UBX-NAV-RELPOSNED b562013c2800000000009020790d670100009f01000000000000253d1200640000006400000064000000170000005ac8
ver0 station 0
226042000ms - Tuesday 14:47:22
position: 3.5936999999999997m N +-0.01m, 4.1561m E +-0.01m, 0.0018m D +-0.01m
gnssOk? True diffSoln? True relPosValid? True
carrSoln: fix
isMoving? False extrapRefPos? False extrapRebObs? False80seconds
UBX: 0xb56201075c007824790de20703140e2f05f7ed030000298902000383ea0f55a973bd6b09fd17fc5f150054a915000e0000000a00000001000000fefffffffcffffff020000000dae400104000000f19e1400870000001219263b0000000000000000df26
UBX-NAV-RELPOSNED b562013c2800000000007824790d660100009f010000000000006161a00064000000640000006400000017000000332c
ver0 station 0
226043000ms - Tuesday 14:47:23
position: 3.5897m N +-0.01m, 4.1597m E +-0.01m, 0.016m D +-0.01m
gnssOk? True diffSoln? True relPosValid? True
carrSoln: fix
isMoving? False extrapRefPos? False extrapRebObs? False81seconds
UBX: 0xb56201075c006028790de20703140e2f06f7ed030000878802000383ea0f54a973bd6b09fd17f05f150048a915000e0000000a0000000400000000000000f9ffffff040000000dae400105000000807e1400870000001219263b0000000000000000872b
UBX-NAV-RELPOSNED b562013c2800000000006028790d670100009f0100000000000014441500640000006400000064000000170000002b87
ver0 station 0
226044000ms - Tuesday 14:47:24
position: 3.5919999999999996m N +-0.01m, 4.1568000000000005m E +-0.01m, 0.0021m D +-0.01m
gnssOk? True diffSoln? True relPosValid? True
carrSoln: fix
isMoving? False extrapRefPos? False extrapRebObs? False82seconds
UBX: 0xb56201075c00482c790de20703140e2f07f7ed030000e58702000383ea0f55a973bd6b09fd17f85f15004fa915000e0000000a0000000100000006000000fbffffff060000000dae400104000000e6861200870000001219263b000000000000000053da
UBX-NAV-RELPOSNED b562013c280000000000482c790d660100009f010000000000006156cd00640000006400000064000000170000002ddd
ver0 station 0
226045000ms - Tuesday 14:47:25
position: 3.5897m N +-0.01m, 4.158600000000001m E +-0.01m, 0.0205m D +-0.01m
gnssOk? True diffSoln? True relPosValid? True
carrSoln: fix
isMoving? False extrapRefPos? False extrapRebObs? False83seconds
UBX: 0xb56201075c003030790de20703140e2f08f7ec030000428702000383ea0f55a973bd6c09fd17f75f15004fa915000e0000000a000000060000000100000000000000060000000dae400102000000244d0b00870000001219263b0000000000000000a065
UBX-NAV-RELPOSNED b562013c2800000000003030790d670100009f010000000000001f54cf0064000000640000006400000017000000d8ff
ver0 station 0
226046000ms - Tuesday 14:47:26
position: 3.5930999999999997m N +-0.01m, 4.1584m E +-0.01m, 0.0207m D +-0.01m
gnssOk? True diffSoln? True relPosValid? True
carrSoln: fix
isMoving? False extrapRefPos? False extrapRebObs? False84seconds
UBX: 0xb56201075c001834790de20703140e2f09f7ed030000a08602000383ea1055a973bd6b09fd17f35f15004ba915000e0000000a000000fbfffffffcffffff06000000070000000dae40010500000018b717007f0000001219263b0000000000000000398f
UBX-NAV-RELPOSNED b562013c2800000000001834790d660100009f010000000000006259fa006400000064000000640000001700000036ac
ver0 station 0
226047000ms - Tuesday 14:47:27
position: 3.5898m N +-0.01m, 4.1589m E +-0.01m, 0.025m D +-0.01m
gnssOk? True diffSoln? True relPosValid? True
carrSoln: fix
isMoving? False extrapRefPos? False extrapRebObs? False85seconds
UBX: 0xb56201075c000038790de20703140e2f0af7ed030000fd8502000383ea1054a973bd6b09fd17f25f150049a915000e0000000a00000002000000fffffffffbffffff020000000dae400104000000e92115007f0000001219263b0000000000000000b09c
UBX-NAV-RELPOSNED b562013c2800000000000038790d660100009f01000000000000634808006400000064000000640000001700000020a5
ver0 station 0
226048000ms - Tuesday 14:47:28
position: 3.5899m N +-0.01m, 4.1572000000000005m E +-0.01m, 0.0008m D +-0.01m
gnssOk? True diffSoln? True relPosValid? True
carrSoln: fix
isMoving? False extrapRefPos? False extrapRebObs? False86seconds
UBX: 0xb56201075c00e83b790de20703140e2f0bf7ed0300005a8502000383ea1055a973bd6b09fd17f35f15004aa915000e0000000a00000003000000feffffff00000000040000000dae400103000000b12f16007f0000001219263b0000000000000000dcb5
UBX-NAV-RELPOSNED b562013c280000000000e83b790d670100009f010000000000000a4efe0064000000640000006400000017000000af98
ver0 station 0
226049000ms - Tuesday 14:47:29
position: 3.5909999999999997m N +-0.01m, 4.1578m E +-0.01m, 0.0254m D +-0.01m
gnssOk? True diffSoln? True relPosValid? True
carrSoln: fix
isMoving? False extrapRefPos? False extrapRebObs? False87seconds
UBX: 0xb56201075c00d03f790de20703140e2f0cf7ed030000b88402000383ea1055a973bd6b09fd17f45f15004ba915000e0000000a0000000000000006000000f3ffffff060000000dae4001060000005f781a007f0000001219263b000000000000000020ab
UBX-NAV-RELPOSNED b562013c280000000000d03f790d670100009f01000000000000055bf300640000006400000064000000170000009891
ver0 station 0
226050000ms - Tuesday 14:47:30
position: 3.5905m N +-0.01m, 4.1591000000000005m E +-0.01m, 0.0243m D +-0.01m
gnssOk? True diffSoln? True relPosValid? True
carrSoln: fix
isMoving? False extrapRefPos? False extrapRebObs? False88seconds
UBX: 0xb56201075c00b843790de20703140e2f0df7ed030000168402000383ea1055a973bd6b09fd17f95f150051a915000e0000000a0000000600000001000000f6ffffff060000000dae40010700000097281b007f0000001219263b00000000000000006473
UBX-NAV-RELPOSNED b562013c280000000000b843790d670100009f010000000000001161c000640000006400000064000000170000006389
ver0 station 0
226051000ms - Tuesday 14:47:31
position: 3.5917m N +-0.01m, 4.1597m E +-0.01m, 0.0192m D +-0.01m
gnssOk? True diffSoln? True relPosValid? True
carrSoln: fix
isMoving? False extrapRefPos? False extrapRebObs? False89seconds
UBX: 0xb56201075c00a047790de20703140e2f0ef7ed030000738302000383ea1055a973bd6b09fd17f85f15004fa915000e0000000a000000fdffffff0000000003000000040000000dae400104000000fd4017007f0000001219263b0000000000000000222e
UBX-NAV-RELPOSNED b562013c280000000000a047790d670100009f010000000000000156cd0064000000640000006400000017000000418e
ver0 station 0
226052000ms - Tuesday 14:47:32
position: 3.5901m N +-0.01m, 4.158600000000001m E +-0.01m, 0.0205m D +-0.01m
gnssOk? True diffSoln? True relPosValid? True
carrSoln: fix
isMoving? False extrapRefPos? False extrapRebObs? False90seconds
UBX: 0xb56201075c00884b790de20703140e2f0ff7ee030000d18202000383ea1054a973bd6b09fd17fa5f150051a915000e0000000a000000fffffffffcfffffffaffffff040000000dae40010300000005f610007f0000001219263b00000000000000001505
UBX-NAV-RELPOSNED b562013c280000000000884b790d670100009f010000000000000b4ab900640000006400000064000000170000001736
ver0 station 0
226053000ms - Tuesday 14:47:33
position: 3.5911m N +-0.01m, 4.1574m E +-0.01m, 0.0185m D +-0.01m
gnssOk? True diffSoln? True relPosValid? True
carrSoln: fix
isMoving? False extrapRefPos? False extrapRebObs? False91seconds
UBX: 0xb56201075c00704f790de20703140e2f10f7ee0300002e8202000383ea1054a973bd6b09fd17f35f15004aa915000e0000000a000000fbfffffffbffffff05000000070000000dae400105000000a64618007f0000001219263b00000000000000005851
UBX-NAV-RELPOSNED b562013c280000000000704f790d670100009f010000000000000e3dff00640000006400000064000000170000003f93
ver0 station 0
226054000ms - Tuesday 14:47:34
position: 3.5913999999999997m N +-0.01m, 4.1561m E +-0.01m, 0.0255m D +-0.01m
gnssOk? True diffSoln? True relPosValid? True
carrSoln: fix
isMoving? False extrapRefPos? False extrapRebObs? False92seconds
UBX: 0xb56201075c005853790de20703140e2f11f7ed0300008c8102000383ea1054a973bd6b09fd17f85f15004fa915000e0000000a0000000000000001000000f1ffffff010000000dae400107000000e44a19007f0000001219263b0000000000000000e42c
UBX-NAV-RELPOSNED b562013c2800000000005853790d660100009f01000000000000553fcc006400000064000000640000001700000040bb
ver0 station 0
226055000ms - Tuesday 14:47:35
position: 3.5885000000000002m N +-0.01m, 4.156300000000001m E +-0.01m, 0.0204m D +-0.01m
gnssOk? True diffSoln? True relPosValid? True
carrSoln: fix
isMoving? False extrapRefPos? False extrapRebObs? False93seconds
UBX: 0xb56201075c004057790de20703140e2f12f7ed030000e98002000383ea1055a973bd6b09fd17f65f15004ea915000e0000000a000000fdffffff03000000fcffffff040000000dae400103000000689e16007f0000001219263b0000000000000000065f
UBX-NAV-RELPOSNED b562013c2800000000004057790d660100009f01000000000000574fda00640000006400000064000000170000004c3b
ver0 station 0
226056000ms - Tuesday 14:47:36
position: 3.5887000000000002m N +-0.01m, 4.157900000000001m E +-0.01m, 0.0218m D +-0.01m
gnssOk? True diffSoln? True relPosValid? True
carrSoln: fix
isMoving? False extrapRefPos? False extrapRebObs? False94seconds
UBX: 0xb56201075c00285b790de20703140e2f13f7ec030000478002000383ea1054a973bd6b09fd17f15f150049a915000e0000000a0000000900000000000000eeffffff090000000dae400107000000a9cb1b007f0000001219263b0000000000000000bf70
UBX-NAV-RELPOSNED b562013c280000000000285b790d670100009f01000000000000154e0b006400000064000000640000001700000027be
ver0 station 0
226057000ms - Tuesday 14:47:37
position: 3.5921m N +-0.01m, 4.1578m E +-0.01m, 0.0011m D +-0.01m
gnssOk? True diffSoln? True relPosValid? True
carrSoln: fix
isMoving? False extrapRefPos? False extrapRebObs? False95seconds
UBX: 0xb56201075c00105f790de20703140e2f14f7ec030000a47f02000383ea1054a973bd6c09fd17f25f15004aa915000e0000000a000000feffffff0000000008000000020000000dae40010600000090b01a007f0000001219263b0000000000000000dd40
UBX-NAV-RELPOSNED b562013c280000000000105f790d670100009f01000000000000293e0100640000006400000064000000170000000d96
ver0 station 0
226058000ms - Tuesday 14:47:38
position: 3.5941m N +-0.01m, 4.1562m E +-0.01m, 0.0001m D +-0.01m
gnssOk? True diffSoln? True relPosValid? True
carrSoln: fix
isMoving? False extrapRefPos? False extrapRebObs? False96seconds
UBX: 0xb56201075c00f862790de20703140e2f15f7ed030000017f02000383ea1054a973bd6b09fd17f75f15004fa915000e0000000a00000002000000ffffffffffffffff020000000dae400103000000375b17007f0000001219263b0000000000000000731c
UBX-NAV-RELPOSNED b562013c280000000000f862790d670100009f01000000000000143ed30064000000640000006400000017000000b5bf
ver0 station 0
226059000ms - Tuesday 14:47:39
position: 3.5919999999999996m N +-0.01m, 4.1562m E +-0.01m, 0.0211m D +-0.01m
gnssOk? True diffSoln? True relPosValid? True
carrSoln: fix
isMoving? False extrapRefPos? False extrapRebObs? False97seconds
UBX: 0xb56201075c00e066790de20703140e2f16f7ed0300005e7e02000383ea1054a973bd6c09fd17f45f15004ba915000e0000000a000000ffffffff0000000007000000010000000dae400105000000f46b19007f0000001219263b00000000000000008f7d
UBX-NAV-RELPOSNED b562013c280000000000e066790d670100009f010000000000003544f40064000000640000006400000017000000e943
ver0 station 0
226060000ms - Tuesday 14:47:40
position: 3.5953m N +-0.01m, 4.1568000000000005m E +-0.01m, 0.0244m D +-0.01m
gnssOk? True diffSoln? True relPosValid? True
carrSoln: fix
isMoving? False extrapRefPos? False extrapRebObs? False98seconds
UBX: 0xb56201075c00c86a790de20703140e2f17f7ec030000bc7d02000383ea1054a973bd6c09fd17f75f15004fa915000e0000000a000000fdfffffffbfffffff5ffffff060000000dae400106000000db7b1c007f0000001219263b0000000000000000c026
UBX-NAV-RELPOSNED b562013c280000000000c86a790d670100009f01000000000000353fd50064000000640000006400000017000000b1e2
ver0 station 0
226061000ms - Tuesday 14:47:41
position: 3.5953m N +-0.01m, 4.156300000000001m E +-0.01m, 0.0213m D +-0.01m
gnssOk? True diffSoln? True relPosValid? True
carrSoln: fix
isMoving? False extrapRefPos? False extrapRebObs? False99seconds
UBX: 0xb56201075c00b06e790de20703140e2f18f7ed030000197d02000383ea1054a973bd6c09fd17f85f150050a915000e0000000a0000000900000003000000f8ffffff0a0000000dae40010600000003e718007f0000001219263b0000000000000000beac
UBX-NAV-RELPOSNED b562013c280000000000b06e790d670100009f010000000000003747c7006400000064000000640000001700000099d2
ver0 station 0
226062000ms - Tuesday 14:47:42
position: 3.5955m N +-0.01m, 4.157100000000001m E +-0.01m, 0.0199m D +-0.01m
gnssOk? True diffSoln? True relPosValid? True
carrSoln: fix
isMoving? False extrapRefPos? False extrapRebObs? False100seconds
UBX: 0xb56201075c009872790de20703140e2f19f7ed030000767c02000383ea1054a973bd6c09fd17fb5f150053a915000e0000000a000000060000000600000005000000090000000dae400105000000a4371c007f0000001219263b00000000000000001039
UBX-NAV-RELPOSNED b562013c2800000000009872790d670100009f01000000000000454bab00640000006400000064000000170000007b6a
ver0 station 0
226063000ms - Tuesday 14:47:43
position: 3.5968999999999998m N +-0.01m, 4.157500000000001m E +-0.01m, 0.0171m D +-0.01m
gnssOk? True diffSoln? True relPosValid? True
carrSoln: fix
isMoving? False extrapRefPos? False extrapRebObs? False101seconds
UBX: 0xb56201075c008076790de20703140e2f1af7ed030000d27b02000383ea1055a973bd6c09fd17f55f15004da915000e0000000a0000000a000000080000000b0000000d0000000dae400106000000898114007f0000001219263b0000000000000000852a
UBX-NAV-RELPOSNED b562013c2800000000008076790d670100009f010000000000002f56e900640000006400000064000000170000009a0b
ver0 station 0
226064000ms - Tuesday 14:47:44
position: 3.5947m N +-0.01m, 4.158600000000001m E +-0.01m, 0.0233m D +-0.01m
gnssOk? True diffSoln? True relPosValid? True
carrSoln: fix
isMoving? False extrapRefPos? False extrapRebObs? False102seconds
UBX: 0xb56201075c00687a790de20703140e2f1bf7ed0300002e7b02000383ea1054a973bd6c09fd17ef5f150047a915000e0000000a000000ffffffff0000000006000000010000000dae400106000000cb321c007f0000001219263b000000000000000095a1
UBX-NAV-RELPOSNED b562013c280000000000687a790d670100009f01000000000000343e210064000000640000006400000017000000abc3
ver0 station 0
226065000ms - Tuesday 14:47:45
position: 3.5951999999999997m N +-0.01m, 4.1562m E +-0.01m, 0.0033m D +-0.01m
gnssOk? True diffSoln? True relPosValid? True
carrSoln: fix
isMoving? False extrapRefPos? False extrapRebObs? False103seconds
UBX: 0xb56201075c00507e790de20703140e2f1cf7ed030000897a02000383ea1055a973bd6c09fd17f15f150049a915000e0000000a0000000500000000000000faffffff050000000dae400104000000752812007f0000001219263b0000000000000000733a
UBX-NAV-RELPOSNED b562013c280000000000507e790d670100009f0100000000000050580e0064000000640000006400000017000000bab7
ver0 station 0
226066000ms - Tuesday 14:47:46
position: 3.598m N +-0.01m, 4.1588m E +-0.01m, 0.0014m D +-0.01m
gnssOk? True diffSoln? True relPosValid? True
carrSoln: fix
isMoving? False extrapRefPos? False extrapRebObs? False104seconds
UBX: 0xb56201075c003882790de20703140e2f1df7ed030000e57902000383ea1054a973bd6c09fd17ee5f150046a915000e0000000a000000010000000100000002000000010000000dae40010300000094e814007f0000001219263b000000000000000098f3
UBX-NAV-RELPOSNED b562013c2800000000003882790d670100009f01000000000000574b2e0064000000640000006400000017000000c0b8
ver0 station 0
