$GNTXT,01,01,01,More than 100 frame errors, UART RX was disabled*70

$GNTXT,01,01,02,u-blox AG - www.u-blox.com*4E

$GNTXT,01,01,02,HW UBX-M8030 00080000*60

$GNTXT,01,01,02,EXT CORE 3.01 (db0c89)*68

$GNTXT,01,01,02,ROM BASE 3.01 (107888)*25

$GNTXT,01,01,02,FWVER=HPG 1.40REF*0B

$GNTXT,01,01,02,PROTVER=20.30*19

$GNTXT,01,01,02,MOD=NEO-M8P-2*7B

$GNTXT,01,01,02,FIS=0xEF4015 (100111)*58

$GNTXT,01,01,02,GPS;GLO;BDS*06

$GNTXT,01,01,02,QZSS*58

$GNTXT,01,01,02,GNSS OTP=GPS;GLO*37

$GNTXT,01,01,02,LLC=FFFFFFFF-FFFFFFED-FFFFFFFF-FFFFF79E-FFFFFF69*2E

$GNTXT,01,01,02,ANTSUPERV=AC SD PDoS SR*3E

$GNTXT,01,01,02,ANTSTATUS=OK*25

$GNTXT,01,01,02,PF=300*4B

$GNRMC,164158.00,A,4014.78249,N,11138.95087,W,0.004,,010318,,,A*74

$GNVTG,,T,,M,0.004,N,0.007,K,A*3E

$GNGGA,164158.00,4014.78249,N,11138.95087,W,1,12,0.75,1419.5,M,-18.8,M,,*42

$GNGSA,A,3,01,03,14,22,23,26,32,31,25,,,,1.32,0.75,1.09*10

$GNGSA,A,3,78,80,79,69,85,68,,,,,,,1.32,0.75,1.09*13

$GPGSV,3,1,12,01,37,244,45,03,54,310,47,04,,,46,11,,,40*7F

$GPGSV,3,2,12,14,44,064,47,16,09,161,36,22,74,289,48,23,25,280,41*77

$GPGSV,3,3,12,25,14,043,39,26,29,137,46,31,62,056,52,32,21,078,44*72

$GLGSV,2,1,07,68,33,102,46,69,67,028,47,78,29,034,47,79,68,076,50*6D

$GLGSV,2,2,07,80,33,188,45,85,14,288,45,,,,39*6B

$GNGLL,4014.78249,N,11138.95087,W,164158.00,A,A*62

$GNRMC,164159.00,A,4014.78246,N,11138.95086,W,0.009,,010318,,,A*76

$GNVTG,,T,,M,0.009,N,0.016,K,A*33

$GNGGA,164159.00,4014.78246,N,11138.95086,W,1,12,0.75,1419.6,M,-18.8,M,,*4E

$GNGSA,A,3,01,03,14,22,23,26,32,31,25,,,,1.32,0.75,1.09*10

$GNGSA,A,3,78,80,79,69,85,68,,,,,,,1.32,0.75,1.09*13

$GPGSV,3,1,12,01,37,244,45,03,54,310,47,04,,,46,11,,,40*7F

$GPGSV,3,2,12,14,44,064,47,16,09,161,38,22,74,289,48,23,25,280,41*79

$GPGSV,3,3,12,25,14,043,39,26,29,137,46,31,62,056,52,32,21,078,44*72

$GLGSV,2,1,07,68,33,102,46,69,67,028,46,78,29,034,47,79,68,076,50*6C

$GLGSV,2,2,07,80,33,188,45,85,14,288,44,,,,39*6A

$GNGLL,4014.78246,N,11138.95086,W,164159.00,A,A*6D

$GNTXT,01,01,01,More than 100 frame errors, UART RX was disabled*70

$GNRMC,164200.00,A,4014.78244,N,11138.95086,W,0.005,,010318,,,A*77

$GNVTG,,T,,M,0.005,N,0.009,K,A*31

$GNGGA,164200.00,4014.78244,N,11138.95086,W,1,12,0.75,1419.6,M,-18.8,M,,*43

$GNGSA,A,3,01,03,14,22,23,26,32,31,25,,,,1.32,0.75,1.09*10

$GNGSA,A,3,78,80,79,69,85,68,,,,,,,1.32,0.75,1.09*13

$GPGSV,3,1,12,01,37,244,45,03,54,310,47,04,,,46,11,,,40*7F

$GPGSV,3,2,12,14,44,064,47,16,09,161,39,22,74,289,48,23,25,280,41*78

$GPGSV,3,3,12,25,14,043,39,26,29,137,45,31,62,056,52,32,21,078,44*71

$GLGSV,2,1,07,68,33,102,46,69,67,028,46,78,29,034,47,79,68,076,50*6C

$GLGSV,2,2,07,80,33,188,45,85,14,288,44,,,,39*6A

$GNGLL,4014.78244,N,11138.95086,W,164200.00,A,A*60

SENT CFGTMODE3: B5 62 06 71 28 00 00 00 01 00 00 00 00 00 00 00                        00 00 00 00 00 00 00 00 00 00 00 00 00 00 2C 01                        00 00 D8 59 00 00 00 00 00 00 00 00 00 00 FE 7B
UBX: 0xb5620501020006717fa8

$GNRMC,164201.00,A,4014.78243,N,11138.95085,W,0.019,,010318,,,A*7F

$GNVTG,,T,,M,0.019,N,0.036,K,A*30

$GNGGA,164201.00,4014.78243,N,11138.95085,W,1,12,0.75,1419.6,M,-18.8,M,,*46

$GNGSA,A,3,01,03,14,22,23,26,32,31,25,,,,1.32,0.75,1.09*10

$GNGSA,A,3,78,80,79,69,85,68,,,,,,,1.32,0.75,1.09*13

$GPGSV,3,1,12,01,37,244,42,03,54,310,47,04,,,46,11,,,36*79

$GPGSV,3,2,12,14,44,064,47,16,09,161,39,22,74,289,48,23,25,280,41*78

$GPGSV,3,3,12,25,14,043,39,26,29,137,45,31,62,056,52,32,21,078,44*71

$GLGSV,2,1,07,68,33,102,46,69,67,028,46,78,29,034,47,79,68,076,50*6C

$GLGSV,2,2,07,80,33,188,45,85,14,288,44,,,,39*6A

$GNGLL,4014.78243,N,11138.95085,W,164201.00,A,A*65

SENT CFG_CHECK: B5 62 06 71 00 00 77 6B
UBX: 0xb562067128000000010000000000000000000000000000000000000000002c010000d85900000000000000000000fe7b

UBX: 0xb5620501020006717fa8

$GNTXT,01,01,01,More than 100 frame errors, UART RX was disabled*70

$GNRMC,164202.00,A,4014.78241,N,11138.95085,W,0.014,,010318,,,A*73

$GNVTG,,T,,M,0.014,N,0.025,K,A*3F

$GNGGA,164202.00,4014.78241,N,11138.95085,W,1,12,0.75,1419.6,M,-18.8,M,,*47

$GNGSA,A,3,01,03,14,22,23,26,32,31,25,,,,1.32,0.75,1.09*10

$GNGSA,A,3,78,80,79,69,85,68,,,,,,,1.32,0.75,1.09*13

$GPGSV,3,1,12,01,37,244,45,03,54,310,46,04,,,46,11,,,40*7E

$GPGSV,3,2,12,14,44,064,47,16,09,161,39,22,74,289,48,23,25,280,42*7B

$GPGSV,3,3,12,25,14,043,39,26,29,137,46,31,62,055,52,32,21,078,44*71

$GLGSV,2,1,07,68,33,102,46,69,67,028,46,78,29,034,47,79,68,076,50*6C

$GLGSV,2,2,07,80,33,188,45,85,14,288,44,,,,30*63

$GNGLL,4014.78241,N,11138.95085,W,164202.00,A,A*64

second #1
SENT CFG_CHECK: B5 62 01 3B 00 00 3C B5
c81d2f18
405741
02000000
af1047f5
5f6ffce4
ebcf6f18
e7
cf
d6
407d0000
03000000
00
01
UBX-NAV-SVIN: b562013b280000000000c81d2f1802000000af1047f55f6ffce4ebcf6f18e7cfd600407d00000300000000010000c964

Time of Week: 405741000ms - Thursday 16:42:21

Suverying for: 2

ECEF position in m: (-1798920.4668999999,-4532184.6293,4099809.0914)

Accuracy in m: 3.2064

Sample count: 3

SVIN valid?: False

SVIN active?: True



$GNRMC,164203.00,A,4014.78239,N,11138.95085,W,0.010,,010318,,,A*79

$GNVTG,,T,,M,0.010,N,0.019,K,A*34

$GNGGA,164203.00,4014.78239,N,11138.95085,W,1,12,0.75,1419.6,M,-18.8,M,,*49

$GNGSA,A,3,01,03,14,22,23,26,32,31,25,,,,1.32,0.75,1.09*10

$GNGSA,A,3,78,80,79,69,85,68,,,,,,,1.32,0.75,1.09*13

$GPGSV,3,1,12,01,37,244,45,03,54,310,47,04,,,46,11,,,40*7F

$GPGSV,3,2,12,14,44,064,47,16,09,161,39,22,74,289,48,23,25,280,41*78

$GPGSV,3,3,12,25,14,043,39,26,29,137,46,31,62,055,52,32,21,079,44*70

$GLGSV,2,1,07,68,33,102,46,69,67,028,46,78,29,034,47,79,68,076,50*6C

$GLGSV,2,2,07,80,33,188,45,85,14,288,45,,,,40*65

$GNGLL,4014.78239,N,11138.95085,W,164203.00,A,A*6A

second #2
SENT CFG_CHECK: B5 62 01 3B 00 00 3C B5
$GNTXT,01,01,01,More than 100 frame errors, UART RX was disabled*70

b0212f18
405742
03000000
ae1047f5
5e6ffce4
e9cf6f18
ea
ee
0d
077b0000
04000000
00
01
UBX-NAV-SVIN: b562013b280000000000b0212f1803000000ae1047f55e6ffce4e9cf6f18eaee0d00077b00000400000000010000d19d

Time of Week: 405742000ms - Thursday 16:42:22

Suverying for: 3

ECEF position in m: (-1798920.4766,-4532184.6362000005,4099809.0513)

Accuracy in m: 3.1495

Sample count: 4

SVIN valid?: False

SVIN active?: True



$GNRMC,164204.00,A,4014.78237,N,11138.95087,W,0.007,,010318,,,A*74

$GNVTG,,T,,M,0.007,N,0.012,K,A*39

$GNGGA,164204.00,4014.78237,N,11138.95087,W,1,12,0.75,1419.6,M,-18.8,M,,*42

$GNGSA,A,3,01,03,14,22,23,26,32,31,25,,,,1.32,0.75,1.09*10

$GNGSA,A,3,78,80,79,69,85,68,,,,,,,1.32,0.75,1.09*13

$GPGSV,3,1,12,01,37,244,45,03,54,310,47,04,,,46,11,,,37*7F

$GPGSV,3,2,12,14,44,064,47,16,09,161,39,22,74,289,48,23,25,280,41*78

$GPGSV,3,3,12,25,14,043,38,26,29,137,46,31,62,055,52,32,21,079,44*71

$GLGSV,2,1,07,68,33,102,46,69,67,028,46,78,29,034,47,79,68,076,50*6C

$GLGSV,2,2,07,80,33,188,45,85,14,288,45,,,,39*6B

$GNGLL,4014.78237,N,11138.95087,W,164204.00,A,A*61

second #3
SENT CFG_CHECK: B5 62 01 3B 00 00 3C B5
98252f18
405743
04000000
ad1047f5
5e6ffce4
e8cf6f18
fe
d1
0a
f9780000
05000000
00
01
UBX-NAV-SVIN: b562013b28000000000098252f1804000000ad1047f55e6ffce4e8cf6f18fed10a00f97800000500000000010000a05b

Time of Week: 405743000ms - Thursday 16:42:23

Suverying for: 4

ECEF position in m: (-1798920.4846,-4532184.6391,4099809.041)

Accuracy in m: 3.0969

Sample count: 5

SVIN valid?: False

SVIN active?: True



$GNRMC,164205.00,A,4014.78237,N,11138.95087,W,0.005,,010318,,,A*77

$GNVTG,,T,,M,0.005,N,0.010,K,A*39

$GNGGA,164205.00,4014.78237,N,11138.95087,W,1,12,0.75,1419.6,M,-18.8,M,,*43

$GNGSA,A,3,01,03,14,22,23,26,32,31,25,,,,1.32,0.75,1.09*10

$GNGSA,A,3,78,80,79,69,85,68,,,,,,,1.32,0.75,1.09*13

$GPGSV,3,1,12,01,37,244,44,03,54,310,47,04,,,46,11,,,40*7E

$GPGSV,3,2,12,14,44,064,47,16,09,161,38,22,74,289,48,23,25,280,41*79

$GPGSV,3,3,12,25,14,043,38,26,29,137,46,31,62,055,52,32,21,079,44*71

$GLGSV,2,1,07,68,33,102,47,69,67,028,46,78,29,034,47,79,68,076,50*6D

$GLGSV,2,2,07,80,33,188,45,85,14,288,45,,,,38*6A

$GNGLL,4014.78237,N,11138.95087,W,164205.00,A,A*60

second #4
SENT CFG_CHECK: B5 62 01 3B 00 00 3C B5
$GNTXT,01,01,01,More than 100 frame errors, UART RX was disabled*70

80292f18
405744
05000000
ac1047f5
5e6ffce4
e7cf6f18
2b
f0
1f
12770000
06000000
00
01
UBX-NAV-SVIN: b562013b28000000000080292f1805000000ac1047f55e6ffce4e7cf6f182bf01f001277000006000000000100000567

Time of Week: 405744000ms - Thursday 16:42:24

Suverying for: 5

ECEF position in m: (-1798920.5157,-4532184.636,4099809.0330999997)

Accuracy in m: 3.0482

Sample count: 6

SVIN valid?: False

SVIN active?: True



$GNRMC,164206.00,A,4014.78238,N,11138.95088,W,0.005,,010318,,,A*74

$GNVTG,,T,,M,0.005,N,0.009,K,A*31

$GNGGA,164206.00,4014.78238,N,11138.95088,W,1,12,0.75,1419.5,M,-18.8,M,,*43

$GNGSA,A,3,01,03,14,22,23,26,32,31,25,,,,1.32,0.75,1.09*10

$GNGSA,A,3,78,80,79,69,85,68,,,,,,,1.32,0.75,1.09*13

$GPGSV,3,1,12,01,37,244,45,03,54,310,47,04,,,46,11,,,40*7F

$GPGSV,3,2,12,14,44,064,47,16,09,161,39,22,74,289,48,23,25,280,41*78

$GPGSV,3,3,12,25,14,043,38,26,29,137,46,31,62,055,52,32,21,079,44*71

$GLGSV,2,1,07,68,33,103,47,69,67,028,46,78,29,034,47,79,68,076,50*6C

$GLGSV,2,2,07,80,33,188,45,85,14,288,43,,,,38*6C

$GNGLL,4014.78238,N,11138.95088,W,164206.00,A,A*63

second #5
SENT CFG_CHECK: B5 62 01 3B 00 00 3C B5
682d2f18
405745
06000000
ac1047f5
5f6ffce4
e7cf6f18
1a
ce
d6
4f750000
07000000
00
01
UBX-NAV-SVIN: b562013b280000000000682d2f1806000000ac1047f55f6ffce4e7cf6f181aced6004f7500000700000000010000b38d

Time of Week: 405745000ms - Thursday 16:42:25

Suverying for: 6

ECEF position in m: (-1798920.5174,-4532184.6294,4099809.0513999998)

Accuracy in m: 3.0031

Sample count: 7

SVIN valid?: False

SVIN active?: True



$GNRMC,164207.00,A,4014.78238,N,11138.95088,W,0.004,,010318,,,A*74

$GNVTG,,T,,M,0.004,N,0.007,K,A*3E

$GNGGA,164207.00,4014.78238,N,11138.95088,W,1,12,0.75,1419.5,M,-18.8,M,,*42

$GNGSA,A,3,01,03,14,22,23,26,32,31,25,,,,1.32,0.75,1.09*10

$GNGSA,A,3,78,80,79,69,85,68,,,,,,,1.32,0.75,1.09*13

$GPGSV,3,1,12,01,37,244,45,03,54,310,47,04,,,46,11,,,40*7F

$GPGSV,3,2,12,14,44,064,47,16,09,161,39,22,74,289,48,23,25,280,41*78

$GPGSV,3,3,12,25,14,043,38,26,29,137,46,31,62,055,52,32,21,079,44*71

$GLGSV,2,1,07,68,33,103,47,69,68,028,46,78,29,034,47,79,68,076,50*63

$GLGSV,2,2,07,80,33,188,45,85,14,288,44,,,,37*64

$GNGLL,4014.78238,N,11138.95088,W,164207.00,A,A*62

$GNTXT,01,01,01,More than 100 frame errors, UART RX was disabled*70

second #6
SENT CFG_CHECK: B5 62 01 3B 00 00 3C B5
50312f18
405746
07000000
ac1047f5
5f6ffce4
e6cf6f18
1b
21
f5
a8730000
08000000
00
01
UBX-NAV-SVIN: b562013b28000000000050312f1807000000ac1047f55f6ffce4e6cf6f181b21f500a873000008000000000100006a82

Time of Week: 405746000ms - Thursday 16:42:26

Suverying for: 7

ECEF position in m: (-1798920.5173,-4532184.6467,4099809.0445)

Accuracy in m: 2.9608

Sample count: 8

SVIN valid?: False

SVIN active?: True



$GNRMC,164208.00,A,4014.78239,N,11138.95088,W,0.003,,010318,,,A*7D

$GNVTG,,T,,M,0.003,N,0.006,K,A*38

$GNGGA,164208.00,4014.78239,N,11138.95088,W,1,12,0.75,1419.5,M,-18.8,M,,*4C

$GNGSA,A,3,01,03,14,22,23,26,32,31,25,,,,1.32,0.75,1.09*10

$GNGSA,A,3,78,80,79,69,85,68,,,,,,,1.32,0.75,1.09*13

$GPGSV,3,1,12,01,37,244,45,03,54,310,47,04,,,46,11,,,40*7F

$GPGSV,3,2,12,14,44,064,47,16,09,161,39,22,74,289,48,23,25,280,41*78

$GPGSV,3,3,12,25,14,043,38,26,29,137,46,31,62,055,52,32,21,079,44*71

$GLGSV,2,1,07,68,33,103,47,69,68,028,46,78,29,034,47,79,68,076,50*63

$GLGSV,2,2,07,80,33,188,45,85,14,288,44,,,,38*6B

$GNGLL,4014.78239,N,11138.95088,W,164208.00,A,A*6C

second #7
SENT CFG_CHECK: B5 62 01 3B 00 00 3C B5
38352f18
405747
08000000
ac1047f5
616ffce4
e5cf6f18
25
d5
10
18720000
09000000
00
01
UBX-NAV-SVIN: b562013b28000000000038352f1808000000ac1047f5616ffce4e5cf6f1825d51000187200000900000000010000a1cd

Time of Week: 405747000ms - Thursday 16:42:27

Suverying for: 8

ECEF position in m: (-1798920.5163,-4532184.6087,4099809.0116)

Accuracy in m: 2.9208

Sample count: 9

SVIN valid?: False

SVIN active?: True



$GNRMC,164209.00,A,4014.78240,N,11138.95089,W,0.002,,010318,,,A*72

$GNVTG,,T,,M,0.002,N,0.004,K,A*3B

$GNGGA,164209.00,4014.78240,N,11138.95089,W,1,12,0.75,1419.4,M,-18.8,M,,*43

$GNGSA,A,3,01,03,14,22,23,26,32,31,25,,,,1.32,0.75,1.09*10

$GNGSA,A,3,78,80,79,69,85,68,70,,,,,,1.32,0.75,1.09*14

$GPGSV,3,1,12,01,37,244,45,03,54,310,47,04,,,46,11,,,40*7F

$GPGSV,3,2,12,14,44,064,47,16,09,161,39,22,74,289,48,23,25,280,41*78

$GPGSV,3,3,12,25,14,043,38,26,29,137,46,31,62,055,52,32,21,079,44*71

$GLGSV,2,1,07,68,33,103,47,69,68,028,46,70,26,315,38,78,29,034,47*68

$GLGSV,2,2,07,79,68,076,50,80,33,188,45,85,14,288,44*54

$GNGLL,4014.78240,N,11138.95089,W,164209.00,A,A*62

$GNTXT,01,01,01,More than 100 frame errors, UART RX was disabled*70

second #8
SENT CFG_CHECK: B5 62 01 3B 00 00 3C B5
20392f18
405748
09000000
ad1047f5
636ffce4
e4cf6f18
dd
f9
21
9a700000
0a000000
00
01
UBX-NAV-SVIN: b562013b28000000000020392f1809000000ad1047f5636ffce4e4cf6f18ddf921009a7000000a00000000010000fee5

Time of Week: 405748000ms - Thursday 16:42:28

Suverying for: 9

ECEF position in m: (-1798920.4879,-4532184.585100001,4099809.0033)

Accuracy in m: 2.8826

Sample count: 10

SVIN valid?: False

SVIN active?: True



$GNRMC,164210.00,A,4014.78243,N,11138.95091,W,0.002,,010318,,,A*70

$GNVTG,,T,,M,0.002,N,0.004,K,A*3B

$GNGGA,164210.00,4014.78243,N,11138.95091,W,1,12,0.71,1419.3,M,-18.8,M,,*42

$GNGSA,A,3,01,03,14,22,23,26,32,31,25,,,,1.29,0.71,1.07*10

$GNGSA,A,3,78,80,79,69,85,68,70,,,,,,1.29,0.71,1.07*14

$GPGSV,3,1,12,01,37,244,45,03,54,310,47,04,,,46,11,,,40*7F

$GPGSV,3,2,12,14,44,064,47,16,09,161,39,22,74,289,48,23,25,280,40*79

$GPGSV,3,3,12,25,14,043,38,26,29,137,46,31,62,055,52,32,21,079,44*71

$GLGSV,2,1,07,68,33,103,47,69,68,028,47,70,26,315,38,78,29,034,47*69

$GLGSV,2,2,07,79,68,076,50,80,33,188,45,85,14,288,44*54

$GNGLL,4014.78243,N,11138.95091,W,164210.00,A,A*60

second #9
SENT CFG_CHECK: B5 62 01 3B 00 00 3C B5
083d2f18
405749
0a000000
ad1047f5
666ffce4
e3cf6f18
0a
fd
22
306f0000
0b000000
00
01
UBX-NAV-SVIN: b562013b280000000000083d2f180a000000ad1047f5666ffce4e3cf6f180afd2200306f00000b00000000010000b584

Time of Week: 405749000ms - Thursday 16:42:29

Suverying for: 10

ECEF position in m: (-1798920.509,-4532184.5547,4099808.9934)

Accuracy in m: 2.8464

Sample count: 11

SVIN valid?: False

SVIN active?: True



$GNRMC,164211.00,A,4014.78245,N,11138.95092,W,0.003,,010318,,,A*75

$GNVTG,,T,,M,0.003,N,0.005,K,A*3B

$GNGGA,164211.00,4014.78245,N,11138.95092,W,1,12,0.71,1419.2,M,-18.8,M,,*47

$GNGSA,A,3,01,03,14,22,23,26,32,31,25,,,,1.29,0.71,1.07*10

$GNGSA,A,3,78,80,79,69,85,68,70,,,,,,1.29,0.71,1.07*14

$GPGSV,3,1,12,01,37,244,45,03,54,310,47,04,,,46,11,,,38*70

$GPGSV,3,2,12,14,44,064,47,16,09,161,39,22,74,289,48,23,25,280,40*79

$GPGSV,3,3,12,25,14,043,38,26,29,137,46,31,62,055,52,32,21,079,44*71

$GLGSV,2,1,07,68,33,103,47,69,68,028,47,70,26,315,38,78,29,034,47*69

$GLGSV,2,2,07,79,68,076,50,80,33,188,45,85,13,288,44*53

$GNGLL,4014.78245,N,11138.95092,W,164211.00,A,A*64

$GNTXT,01,01,01,More than 100 frame errors, UART RX was disabled*70

second #10
SENT CFG_CHECK: B5 62 01 3B 00 00 3C B5
f0402f18
405750
0b000000
ae1047f5
6a6ffce4
e2cf6f18
df
fb
12
d56d0000
0c000000
00
01
UBX-NAV-SVIN: b562013b280000000000f0402f180b000000ae1047f56a6ffce4e2cf6f18dffb1200d56d00000c000000000100000c15

Time of Week: 405750000ms - Thursday 16:42:30

Suverying for: 11

ECEF position in m: (-1798920.4777,-4532184.5149,4099808.9818)

Accuracy in m: 2.8117

Sample count: 12

SVIN valid?: False

SVIN active?: True



$GNRMC,164212.00,A,4014.78248,N,11138.95094,W,0.003,,010318,,,A*7D

$GNVTG,,T,,M,0.003,N,0.006,K,A*38

$GNGGA,164212.00,4014.78248,N,11138.95094,W,1,12,0.71,1419.1,M,-18.8,M,,*4C

$GNGSA,A,3,01,03,14,22,23,26,32,31,25,,,,1.29,0.71,1.07*10

$GNGSA,A,3,78,80,79,69,85,68,70,,,,,,1.29,0.71,1.07*14

$GPGSV,3,1,12,01,37,243,45,03,54,310,47,04,,,46,11,,,38*77

$GPGSV,3,2,12,14,44,064,47,16,09,161,39,22,74,289,48,23,25,280,40*79

$GPGSV,3,3,12,25,14,043,38,26,29,137,46,31,62,055,52,32,21,079,44*71

$GLGSV,2,1,07,68,33,103,46,69,68,028,47,70,26,315,39,78,29,034,47*69

$GLGSV,2,2,07,79,68,076,50,80,33,188,45,85,13,288,44*53

$GNGLL,4014.78248,N,11138.95094,W,164212.00,A,A*6C

second #11
SENT CFG_CHECK: B5 62 01 3B 00 00 3C B5
$GNRMC,164213.00,A,4014.78252,N,11138.95097,W,0.003,,010318,,,A*74

$GNVTG,,T,,M,0.003,N,0.006,K,A*38

$GNGGA,164213.00,4014.78252,N,11138.95097,W,1,12,0.71,1419.0,M,-18.8,M,,*44

$GNGSA,A,3,01,03,14,22,23,26,32,31,25,,,,1.29,0.71,1.07*10

$GNGSA,A,3,78,80,79,69,85,68,70,,,,,,1.29,0.71,1.07*14

$GPGSV,3,1,12,01,37,243,46,03,54,310,47,04,,,46,11,,,40*7B

$GPGSV,3,2,12,14,44,064,47,16,09,161,39,22,74,289,48,23,25,280,40*79

$GPGSV,3,3,12,25,14,043,38,26,29,137,46,31,62,055,52,32,21,079,44*71

$GLGSV,2,1,07,68,33,103,46,69,68,028,47,70,26,315,39,78,29,034,47*69

$GLGSV,2,2,07,79,68,076,50,80,33,188,45,85,13,288,43*54

$GNGLL,4014.78252,N,11138.95097,W,164213.00,A,A*65

$GNTXT,01,01,01,More than 100 frame errors, UART RX was disabled*70

c0482f18
405752
0d000000
af1047f5
746ffce4
e0cf6f18
1d
fd
e7
4d6b0000
0e000000
00
01
UBX-NAV-SVIN: b562013b280000000000c0482f180d000000af1047f5746ffce4e0cf6f181dfde7004d6b00000e000000000100007ccf

Time of Week: 405752000ms - Thursday 16:42:32

Suverying for: 13

ECEF position in m: (-1798920.4871,-4532184.414700001,4099808.9831)

Accuracy in m: 2.7469

Sample count: 14

SVIN valid?: False

SVIN active?: True



$GNRMC,164214.00,A,4014.78256,N,11138.95098,W,0.004,,010318,,,A*7F

$GNVTG,,T,,M,0.004,N,0.007,K,A*3E

$GNGGA,164214.00,4014.78256,N,11138.95098,W,1,12,0.71,1418.9,M,-18.8,M,,*40

$GNGSA,A,3,01,03,14,22,23,26,32,31,25,,,,1.29,0.71,1.07*10

$GNGSA,A,3,78,80,79,69,85,68,70,,,,,,1.29,0.71,1.07*14

$GPGSV,3,1,12,01,37,243,46,03,54,310,47,04,,,46,11,,,40*7B

$GPGSV,3,2,12,14,44,064,47,16,09,161,39,22,74,289,48,23,25,280,36*78

$GPGSV,3,3,12,25,14,043,38,26,29,137,46,31,62,055,52,32,21,079,44*71

$GLGSV,2,1,07,68,33,103,47,69,68,028,47,70,26,315,39,78,29,034,47*68

$GLGSV,2,2,07,79,68,076,50,80,33,188,45,85,13,288,41*56

$GNGLL,4014.78256,N,11138.95098,W,164214.00,A,A*69

second #12
SENT CFG_CHECK: B5 62 01 3B 00 00 3C B5
a84c2f18
405753
0e000000
b01047f5
7a6ffce4
decf6f18
19
e6
2a
1e6a0000
0f000000
00
01
UBX-NAV-SVIN: b562013b280000000000a84c2f180e000000b01047f57a6ffce4decf6f1819e62a001e6a00000f000000000100006779

Time of Week: 405753000ms - Thursday 16:42:33

Suverying for: 14

ECEF position in m: (-1798920.4775,-4532184.357,4099808.9442)

Accuracy in m: 2.7166

Sample count: 15

SVIN valid?: False

SVIN active?: True



$GNRMC,164215.00,A,4014.78260,N,11138.95100,W,0.005,,010318,,,A*7A

$GNVTG,,T,,M,0.005,N,0.009,K,A*31

$GNGGA,164215.00,4014.78260,N,11138.95100,W,1,12,0.71,1418.7,M,-18.8,M,,*4A

$GNGSA,A,3,01,03,14,22,23,26,32,31,25,,,,1.29,0.71,1.07*10

$GNGSA,A,3,78,80,79,69,85,68,70,,,,,,1.29,0.71,1.07*14

$GPGSV,3,1,12,01,37,243,45,03,54,310,47,04,,,46,11,,,40*78

$GPGSV,3,2,12,14,44,064,47,16,09,161,39,22,74,289,48,23,25,280,40*79

$GPGSV,3,3,12,25,14,043,38,26,29,137,46,31,62,055,52,32,21,079,44*71

$GLGSV,2,1,07,68,33,103,47,69,68,028,47,70,26,315,39,78,29,034,47*68

$GLGSV,2,2,07,79,68,076,50,80,33,188,45,85,13,288,40*57

$GNGLL,4014.78260,N,11138.95100,W,164215.00,A,A*6D

second #13
SENT CFG_CHECK: B5 62 01 3B 00 00 3C B5
$GNTXT,01,01,01,More than 100 frame errors, UART RX was disabled*70

90502f18
405754
0f000000
b11047f5
806ffce4
ddcf6f18
19
ea
fd
fa680000
10000000
00
01
UBX-NAV-SVIN: b562013b28000000000090502f180f000000b11047f5806ffce4ddcf6f1819eafd00fa68000010000000000100000c65

Time of Week: 405754000ms - Thursday 16:42:34

Suverying for: 15

ECEF position in m: (-1798920.4675,-4532184.2966,4099808.9553)

Accuracy in m: 2.6874

Sample count: 16

SVIN valid?: False

SVIN active?: True



$GNRMC,164216.00,A,4014.78263,N,11138.95102,W,0.006,,010318,,,A*7B

$GNVTG,,T,,M,0.006,N,0.010,K,A*3A

$GNGGA,164216.00,4014.78263,N,11138.95102,W,1,12,0.71,1418.6,M,-18.8,M,,*49

$GNGSA,A,3,01,03,14,22,23,26,32,31,25,,,,1.29,0.71,1.07*10

$GNGSA,A,3,78,80,79,69,85,68,70,,,,,,1.29,0.71,1.07*14

$GPGSV,3,1,12,01,37,243,45,03,54,310,47,04,,,46,11,,,41*79

$GPGSV,3,2,12,14,44,064,47,16,09,161,39,22,74,289,48,23,25,280,40*79

$GPGSV,3,3,12,25,14,043,38,26,29,137,46,31,62,055,52,32,21,079,44*71

$GLGSV,2,1,07,68,33,103,46,69,68,028,47,70,26,315,38,78,29,034,47*68

$GLGSV,2,2,07,79,68,076,50,80,33,188,45,85,13,288,43*54

$GNGLL,4014.78263,N,11138.95102,W,164216.00,A,A*6F

second #14
SENT CFG_CHECK: B5 62 01 3B 00 00 3C B5
78542f18
405755
10000000
b21047f5
866ffce4
dbcf6f18
1c
07
2f
e2670000
11000000
00
01
UBX-NAV-SVIN: b562013b28000000000078542f1810000000b21047f5866ffce4dbcf6f181c072f00e2670000110000000001000038b1

Time of Week: 405755000ms - Thursday 16:42:35

Suverying for: 16

ECEF position in m: (-1798920.4572,-4532184.2593,4099808.9147)

Accuracy in m: 2.6594

Sample count: 17

SVIN valid?: False

SVIN active?: True



$GNRMC,164217.00,A,4014.78266,N,11138.95104,W,0.006,,010318,,,A*79

$GNVTG,,T,,M,0.006,N,0.011,K,A*3B

$GNGGA,164217.00,4014.78266,N,11138.95104,W,1,12,0.71,1418.5,M,-18.8,M,,*48

$GNGSA,A,3,01,03,14,22,23,26,32,31,25,,,,1.29,0.71,1.07*10

$GNGSA,A,3,78,80,79,69,85,68,70,,,,,,1.29,0.71,1.07*14

$GPGSV,3,1,12,01,37,243,46,03,54,310,47,04,,,46,11,,,41*7A

$GPGSV,3,2,12,14,44,064,47,16,09,161,39,22,74,289,48,23,25,280,40*79

$GPGSV,3,3,12,25,14,043,38,26,29,137,46,31,62,055,52,32,21,079,44*71

$GLGSV,2,1,07,68,33,103,47,69,68,028,47,70,26,315,39,78,29,034,47*68

$GLGSV,2,2,07,79,68,076,50,80,33,188,45,85,13,288,42*55

$GNGLL,4014.78266,N,11138.95104,W,164217.00,A,A*6D

second #15
SENT CFG_CHECK: B5 62 01 3B 00 00 3C B5
$GNTXT,01,01,01,More than 100 frame errors, UART RX was disabled*70

60582f18
405756
11000000
b31047f5
8d6ffce4
dacf6f18
23
d7
f4
d5660000
12000000
00
01
UBX-NAV-SVIN: b562013b28000000000060582f1811000000b31047f58d6ffce4dacf6f1823d7f400d56600001200000000010000bb74

Time of Week: 405756000ms - Thursday 16:42:36

Suverying for: 17

ECEF position in m: (-1798920.4464999998,-4532184.168500001,4099808.9244)

Accuracy in m: 2.6325

Sample count: 18

SVIN valid?: False

SVIN active?: True



$GNRMC,164218.00,A,4014.78269,N,11138.95106,W,0.006,,010318,,,A*7B

$GNVTG,,T,,M,0.006,N,0.012,K,A*38

$GNGGA,164218.00,4014.78269,N,11138.95106,W,1,12,0.71,1418.4,M,-18.8,M,,*4B

$GNGSA,A,3,01,03,14,22,23,26,32,31,25,,,,1.29,0.71,1.07*10

$GNGSA,A,3,78,80,79,69,85,68,70,,,,,,1.29,0.71,1.07*14

$GPGSV,3,1,12,01,37,243,46,03,54,310,47,04,,,46,11,,,41*7A

$GPGSV,3,2,12,14,44,064,47,16,09,161,39,22,74,289,48,23,25,280,40*79

$GPGSV,3,3,12,25,14,043,38,26,29,137,46,31,62,055,52,32,21,079,44*71

$GLGSV,2,1,07,68,33,103,47,69,68,028,47,70,26,315,39,78,29,034,47*68

$GLGSV,2,2,07,79,68,076,50,80,33,188,45,85,13,288,44*53

$GNGLL,4014.78269,N,11138.95106,W,164218.00,A,A*6F

second #16
SENT CFG_CHECK: B5 62 01 3B 00 00 3C B5
485c2f18
405757
12000000
b41047f5
936ffce4
d8cf6f18
29
15
19
d0650000
13000000
00
01
UBX-NAV-SVIN: b562013b280000000000485c2f1812000000b41047f5936ffce4d8cf6f1829151900d06500001300000000010000110d

Time of Week: 405757000ms - Thursday 16:42:37

Suverying for: 18

ECEF position in m: (-1798920.4359,-4532184.1279,4099808.8825)

Accuracy in m: 2.6064

Sample count: 19

SVIN valid?: False

SVIN active?: True



$GNRMC,164219.00,A,4014.78272,N,11138.95108,W,0.007,,010318,,,A*7F

$GNVTG,,T,,M,0.007,N,0.013,K,A*38

$GNGGA,164219.00,4014.78272,N,11138.95108,W,1,12,0.71,1418.3,M,-18.8,M,,*49

$GNGSA,A,3,01,03,14,22,23,26,32,31,25,,,,1.29,0.71,1.07*10

$GNGSA,A,3,78,80,79,69,85,68,70,,,,,,1.29,0.71,1.07*14

$GPGSV,3,1,12,01,37,243,46,03,54,310,47,04,,,46,11,,,41*7A

$GPGSV,3,2,12,14,44,064,47,16,09,161,39,22,74,289,48,23,25,280,40*79

$GPGSV,3,3,12,25,14,043,38,26,29,137,46,31,62,055,52,32,21,079,44*71

$GLGSV,2,1,08,68,33,103,47,69,68,028,47,70,26,315,39,78,29,034,47*67

$GLGSV,2,2,08,79,68,076,50,80,33,188,45,85,13,288,44,86,07,339,*6C

$GNGLL,4014.78272,N,11138.95108,W,164219.00,A,A*6A

second #17
SENT CFG_CHECK: B5 62 01 3B 00 00 3C B5
$GNTXT,01,01,01,More than 100 frame errors, UART RX was disabled*70

30602f18
405758
13000000
b51047f5
9a6ffce4
d7cf6f18
2d
ea
dc
d4640000
14000000
00
01
UBX-NAV-SVIN: b562013b28000000000030602f1813000000b51047f59a6ffce4d7cf6f182deadc00d46400001400000000010000a59b

Time of Week: 405758000ms - Thursday 16:42:38

Suverying for: 19

ECEF position in m: (-1798920.4255,-4532184.036599999,4099808.892)

Accuracy in m: 2.5812

Sample count: 20

SVIN valid?: False

SVIN active?: True



$GNRMC,164220.00,A,4014.78274,N,11138.95110,W,0.007,,010318,,,A*7A

$GNVTG,,T,,M,0.007,N,0.013,K,A*38

$GNGGA,164220.00,4014.78274,N,11138.95110,W,1,12,0.71,1418.2,M,-18.8,M,,*4D

$GNGSA,A,3,01,03,14,22,23,26,32,31,25,,,,1.29,0.71,1.07*10

$GNGSA,A,3,78,80,79,69,85,68,70,,,,,,1.29,0.71,1.07*14

$GPGSV,3,1,12,01,37,243,46,03,54,310,47,04,,,46,11,,,41*7A

$GPGSV,3,2,12,14,44,064,47,16,09,161,39,22,74,289,48,23,25,280,40*79

$GPGSV,3,3,12,25,14,043,38,26,29,136,46,31,62,055,52,32,21,079,44*70

$GLGSV,2,1,08,68,33,103,46,69,68,028,47,70,26,315,39,78,29,034,47*66

$GLGSV,2,2,08,79,68,076,50,80,33,188,45,85,13,288,43,86,07,339,*6B

$GNGLL,4014.78274,N,11138.95110,W,164220.00,A,A*6F

second #18
SENT CFG_CHECK: B5 62 01 3B 00 00 3C B5
18642f18
405759
14000000
b61047f5
a06ffce4
d5cf6f18
30
14
0d
e0630000
15000000
00
01
UBX-NAV-SVIN: b562013b28000000000018642f1814000000b61047f5a06ffce4d5cf6f1830140d00e06300001500000000010000014c

Time of Week: 405759000ms - Thursday 16:42:39

Suverying for: 20

ECEF position in m: (-1798920.4152,-4532183.998,4099808.8513)

Accuracy in m: 2.5568

Sample count: 21

SVIN valid?: False

SVIN active?: True



$GNRMC,164221.00,A,4014.78277,N,11138.95111,W,0.007,,010318,,,A*79

$GNVTG,,T,,M,0.007,N,0.014,K,A*3F

$GNGGA,164221.00,4014.78277,N,11138.95111,W,1,12,0.71,1418.1,M,-18.8,M,,*4D

$GNGSA,A,3,01,03,14,22,23,26,32,31,25,,,,1.29,0.71,1.07*10

$GNGSA,A,3,78,80,79,69,85,68,70,,,,,,1.29,0.71,1.07*14

$GPGSV,3,1,12,01,37,243,46,03,54,310,47,04,,,46,11,,,41*7A

$GPGSV,3,2,12,14,44,064,47,16,09,161,39,22,74,289,48,23,25,280,40*79

$GPGSV,3,3,12,25,14,043,38,26,29,136,46,31,62,055,52,32,21,079,44*70

$GLGSV,2,1,08,68,33,103,46,69,68,028,47,70,26,315,39,78,29,034,47*66

$GLGSV,2,2,08,79,68,076,50,80,33,188,45,85,13,288,44,86,07,339,*6C

$GNGLL,4014.78277,N,11138.95111,W,164221.00,A,A*6C

second #19
SENT CFG_CHECK: B5 62 01 3B 00 00 3C B5
$GNTXT,01,01,01,More than 100 frame errors, UART RX was disabled*70

00682f18
405760
15000000
b71047f5
a66ffce4
d4cf6f18
2e
27
e7
f4620000
16000000
00
01
UBX-NAV-SVIN: b562013b28000000000000682f1815000000b71047f5a66ffce4d4cf6f182e27e700f46200001600000000010000f306

Time of Week: 405760000ms - Thursday 16:42:40

Suverying for: 21

ECEF position in m: (-1798920.4053999998,-4532183.9361000005,4099808.8630999997)

Accuracy in m: 2.5332

Sample count: 22

SVIN valid?: False

SVIN active?: True



$GNRMC,164222.00,A,4014.78279,N,11138.95112,W,0.008,,010318,,,A*78

$GNVTG,,T,,M,0.008,N,0.014,K,A*30

$GNGGA,164222.00,4014.78279,N,11138.95112,W,1,12,0.71,1418.1,M,-18.8,M,,*43

$GNGSA,A,3,01,03,14,22,23,26,32,31,25,,,,1.29,0.71,1.07*10

$GNGSA,A,3,78,80,79,69,85,68,70,,,,,,1.29,0.71,1.07*14

$GPGSV,3,1,12,01,37,243,45,03,54,310,47,04,,,46,11,,,41*79

$GPGSV,3,2,12,14,44,064,47,16,09,161,39,22,74,289,48,23,25,280,40*79

$GPGSV,3,3,12,25,14,043,38,26,29,136,46,31,62,055,52,32,21,079,44*70

$GLGSV,2,1,08,68,33,103,46,69,68,028,47,70,26,315,39,78,29,034,47*66

$GLGSV,2,2,08,79,68,076,50,80,33,188,45,85,13,288,44,86,07,339,*6C

$GNGLL,4014.78279,N,11138.95112,W,164222.00,A,A*62

second #20
SENT CFG_CHECK: B5 62 01 3B 00 00 3C B5
e86b2f18
405761
16000000
b81047f5
ac6ffce4
d2cf6f18
2f
2a
2d
0e620000
17000000
00
01
UBX-NAV-SVIN: b562013b280000000000e86b2f1816000000b81047f5ac6ffce4d2cf6f182f2a2d000e62000017000000000100004904

Time of Week: 405761000ms - Thursday 16:42:41

Suverying for: 22

ECEF position in m: (-1798920.3953,-4532183.8758,4099808.8244999996)

Accuracy in m: 2.5102

Sample count: 23

SVIN valid?: False

SVIN active?: True



$GNRMC,164223.00,A,4014.78281,N,11138.95113,W,0.008,,010318,,,A*7F

$GNVTG,,T,,M,0.008,N,0.015,K,A*31

$GNGGA,164223.00,4014.78281,N,11138.95113,W,1,12,0.71,1418.0,M,-18.8,M,,*45

$GNGSA,A,3,01,03,14,22,23,26,32,31,25,,,,1.29,0.71,1.07*10

$GNGSA,A,3,78,80,79,69,85,68,70,,,,,,1.29,0.71,1.07*14

$GPGSV,3,1,12,01,37,243,45,03,54,310,47,04,,,46,11,,,41*79

$GPGSV,3,2,12,14,44,064,47,16,09,161,39,22,74,289,48,23,25,280,40*79

$GPGSV,3,3,12,25,14,043,39,26,29,136,46,31,62,055,52,32,21,079,44*71

$GLGSV,2,1,08,68,33,103,47,69,68,028,47,70,26,315,39,78,29,034,47*67

$GLGSV,2,2,08,79,68,076,50,80,33,188,45,85,13,288,44,86,07,339,*6C

$GNGLL,4014.78281,N,11138.95113,W,164223.00,A,A*65

$GNTXT,01,01,01,More than 100 frame errors, UART RX was disabled*70

second #21
SENT CFG_CHECK: B5 62 01 3B 00 00 3C B5
d06f2f18
405762
17000000
ba1047f5
b26ffce4
d1cf6f18
cf
19
19
2f610000
18000000
00
01
UBX-NAV-SVIN: b562013b280000000000d06f2f1817000000ba1047f5b26ffce4d1cf6f18cf1919002f6100001800000000010000d976

Time of Week: 405762000ms - Thursday 16:42:42

Suverying for: 23

ECEF position in m: (-1798920.3593,-4532183.8175,4099808.8125)

Accuracy in m: 2.4879

Sample count: 24

SVIN valid?: False

SVIN active?: True



$GNRMC,164224.00,A,4014.78283,N,11138.95113,W,0.008,,010318,,,A*7A

$GNVTG,,T,,M,0.008,N,0.015,K,A*31

$GNGGA,164224.00,4014.78283,N,11138.95113,W,1,12,0.71,1418.0,M,-18.8,M,,*40

$GNGSA,A,3,01,03,14,22,23,26,32,31,25,,,,1.29,0.71,1.07*10

$GNGSA,A,3,78,80,79,69,85,68,70,,,,,,1.29,0.71,1.07*14

$GPGSV,3,1,12,01,37,243,45,03,54,310,47,04,,,46,11,,,41*79

$GPGSV,3,2,12,14,44,064,47,16,09,161,39,22,74,289,48,23,25,280,40*79

$GPGSV,3,3,12,25,14,043,39,26,29,136,46,31,62,055,52,32,21,079,44*71

$GLGSV,2,1,08,68,33,103,46,69,68,028,46,70,26,315,39,78,29,034,47*67

$GLGSV,2,2,08,79,68,076,50,80,33,188,45,85,13,288,44,86,07,339,*6C

$GNGLL,4014.78283,N,11138.95113,W,164224.00,A,A*60

second #22
SENT CFG_CHECK: B5 62 01 3B 00 00 3C B5
b8732f18
405763
18000000
bb1047f5
b86ffce4
d0cf6f18
d7
f5
0d
55600000
19000000
00
01
UBX-NAV-SVIN: b562013b280000000000b8732f1818000000bb1047f5b86ffce4d0cf6f18d7f50d00556000001900000000010000cadb

Time of Week: 405763000ms - Thursday 16:42:43

Suverying for: 24

ECEF position in m: (-1798920.3485,-4532183.7354999995,4099808.8013)

Accuracy in m: 2.4661

Sample count: 25

SVIN valid?: False

SVIN active?: True



$GNRMC,164225.00,A,4014.78285,N,11138.95113,W,0.009,,010318,,,A*7C

$GNVTG,,T,,M,0.009,N,0.016,K,A*33

$GNGGA,164225.00,4014.78285,N,11138.95113,W,1,12,0.71,1417.9,M,-18.8,M,,*41

$GNGSA,A,3,01,03,14,22,23,26,32,31,25,,,,1.29,0.71,1.07*10

$GNGSA,A,3,78,80,79,69,85,68,70,,,,,,1.29,0.71,1.07*14

$GPGSV,3,1,12,01,37,243,45,03,54,310,47,04,,,46,11,,,41*79

$GPGSV,3,2,12,14,44,064,47,16,09,161,38,22,74,289,48,23,25,280,40*78

$GPGSV,3,3,12,25,14,043,39,26,29,136,46,31,62,055,52,32,21,079,44*71

$GLGSV,2,1,08,68,33,103,46,69,68,028,46,70,26,315,39,78,29,034,47*67

$GLGSV,2,2,08,79,68,076,50,80,33,188,45,85,13,288,44,86,07,339,*6C

$GNGLL,4014.78285,N,11138.95113,W,164225.00,A,A*67

$GNTXT,01,01,01,More than 100 frame errors, UART RX was disabled*70

second #23
SENT CFG_CHECK: B5 62 01 3B 00 00 3C B5
a0772f18
405764
19000000
bc1047f5
bd6ffce4
cfcf6f18
e0
1c
0f
815f0000
1a000000
00
01
UBX-NAV-SVIN: b562013b280000000000a0772f1819000000bc1047f5bd6ffce4cfcf6f18e01c0f00815f00001a000000000100001aa9

Time of Week: 405764000ms - Thursday 16:42:44

Suverying for: 25

ECEF position in m: (-1798920.3376000002,-4532183.7072,4099808.7915)

Accuracy in m: 2.4449

Sample count: 26

SVIN valid?: False

SVIN active?: True



$GNRMC,164226.00,A,4014.78287,N,11138.95113,W,0.009,,010318,,,A*7D

$GNVTG,,T,,M,0.009,N,0.017,K,A*32

$GNGGA,164226.00,4014.78287,N,11138.95113,W,1,12,0.71,1417.9,M,-18.8,M,,*40

$GNGSA,A,3,01,03,14,22,23,26,32,31,25,,,,1.29,0.71,1.07*10

$GNGSA,A,3,78,80,79,69,85,68,70,,,,,,1.29,0.71,1.07*14

$GPGSV,3,1,12,01,37,243,45,03,54,310,47,04,,,46,11,,,41*79

$GPGSV,3,2,12,14,44,064,47,16,09,161,38,22,74,289,48,23,25,280,40*78

$GPGSV,3,3,12,25,14,043,39,26,29,136,46,31,62,055,52,32,21,079,44*71

$GLGSV,2,1,08,68,33,103,47,69,68,029,47,70,26,315,39,78,29,034,47*66

$GLGSV,2,2,08,79,68,076,50,80,33,188,45,85,13,288,44,86,07,339,*6C

$GNGLL,4014.78287,N,11138.95113,W,164226.00,A,A*66

second #24
SENT CFG_CHECK: B5 62 01 3B 00 00 3C B5
887b2f18
405765
1a000000
bd1047f5
c26ffce4
cecf6f18
ec
28
1d
b25e0000
1b000000
00
01
UBX-NAV-SVIN: b562013b280000000000887b2f181a000000bd1047f5c26ffce4cecf6f18ec281d00b25e00001b0000000001000063f6

Time of Week: 405765000ms - Thursday 16:42:45

Suverying for: 26

ECEF position in m: (-1798920.3264000001,-4532183.656,4099808.7829)

Accuracy in m: 2.4242

Sample count: 27

SVIN valid?: False

SVIN active?: True



$GNRMC,164227.00,A,4014.78289,N,11138.95112,W,0.009,,010318,,,A*73

$GNVTG,,T,,M,0.009,N,0.017,K,A*32

$GNGGA,164227.00,4014.78289,N,11138.95112,W,1,12,0.71,1417.8,M,-18.8,M,,*4F

$GNGSA,A,3,01,03,14,22,23,26,32,31,25,,,,1.28,0.71,1.07*11

$GNGSA,A,3,78,80,79,69,85,68,70,,,,,,1.28,0.71,1.07*15

$GPGSV,3,1,12,01,37,243,45,03,54,310,47,04,,,46,11,,,41*79

$GPGSV,3,2,12,14,44,064,47,16,09,161,38,22,74,289,48,23,25,280,40*78

$GPGSV,3,3,12,25,14,043,39,26,29,136,46,31,62,055,52,32,21,079,44*71

$GLGSV,2,1,08,68,33,103,47,69,68,029,47,70,26,316,39,78,29,034,47*65

$GLGSV,2,2,08,79,68,076,50,80,33,188,45,85,13,288,45,86,07,339,*6D

$GNGLL,4014.78289,N,11138.95112,W,164227.00,A,A*68

$GNTXT,01,01,01,More than 100 frame errors, UART RX was disabled*70

second #25
SENT CFG_CHECK: B5 62 01 3B 00 00 3C B5
707f2f18
405766
1b000000
be1047f5
c76ffce4
cecf6f18
f7
17
d0
e95d0000
1c000000
00
01
UBX-NAV-SVIN: b562013b280000000000707f2f181b000000be1047f5c76ffce4cecf6f18f717d000e95d00001c000000000100003ae2

Time of Week: 405766000ms - Thursday 16:42:46

Suverying for: 27

ECEF position in m: (-1798920.3153000001,-4532183.6077000005,4099808.8008)

Accuracy in m: 2.4041

Sample count: 28

SVIN valid?: False

SVIN active?: True



$GNRMC,164228.00,A,4014.78290,N,11138.95112,W,0.009,,010318,,,A*74

$GNVTG,,T,,M,0.009,N,0.016,K,A*33

$GNGGA,164228.00,4014.78290,N,11138.95112,W,1,12,0.71,1417.8,M,-18.8,M,,*48

$GNGSA,A,3,01,03,14,22,23,26,32,31,25,,,,1.28,0.71,1.07*11

$GNGSA,A,3,78,80,79,69,85,68,70,,,,,,1.28,0.71,1.07*15

$GPGSV,3,1,12,01,37,243,45,03,54,310,47,04,,,46,11,,,41*79

$GPGSV,3,2,12,14,44,064,47,16,09,161,38,22,74,289,48,23,25,280,40*78

$GPGSV,3,3,12,25,14,043,39,26,29,136,46,31,62,055,52,32,21,079,44*71

$GLGSV,2,1,08,68,33,103,47,69,68,029,47,70,26,316,39,78,29,034,47*65

$GLGSV,2,2,08,79,68,076,50,80,33,188,45,85,13,288,45,86,07,339,19*65

$GNGLL,4014.78290,N,11138.95112,W,164228.00,A,A*6F

$GNRMC,164229.00,A,4014.78291,N,11138.95111,W,0.009,,010318,,,A*77

$GNVTG,,T,,M,0.009,N,0.016,K,A*33

$GNGGA,164229.00,4014.78291,N,11138.95111,W,1,12,0.71,1417.8,M,-18.8,M,,*4B

$GNGSA,A,3,01,03,14,22,23,26,32,31,25,,,,1.28,0.71,1.07*11

$GNGSA,A,3,78,80,79,69,85,68,70,,,,,,1.28,0.71,1.07*15

$GPGSV,3,1,12,01,37,243,45,03,54,310,47,04,,,46,11,,,41*79

$GPGSV,3,2,12,14,44,064,47,16,09,161,38,22,74,289,48,23,25,280,40*78

$GPGSV,3,3,12,25,14,043,39,26,29,136,46,31,62,055,51,32,21,079,44*72

$GLGSV,2,1,08,68,33,103,47,69,68,029,47,70,26,316,39,78,29,034,47*65

$GLGSV,2,2,08,79,67,075,50,80,33,188,45,85,13,288,45,86,07,339,19*69

$GNGLL,4014.78291,N,11138.95111,W,164229.00,A,A*6C

second #26
SENT CFG_CHECK: B5 62 01 3B 00 00 3C B5
$GNTXT,01,01,01,More than 100 frame errors, UART RX was disabled*70

40872f18
405768
1d000000
c01047f5
d06ffce4
cccf6f18
0d
08
11
655c0000
1e000000
00
01
UBX-NAV-SVIN: b562013b28000000000040872f181d000000c01047f5d06ffce4cccf6f180d081100655c00001e00000000010000e244

Time of Week: 405768000ms - Thursday 16:42:48

Suverying for: 29

ECEF position in m: (-1798920.3187000002,-4532183.5192,4099808.7616999997)

Accuracy in m: 2.3653

Sample count: 30

SVIN valid?: False

SVIN active?: True



$GNRMC,164230.00,A,4014.78292,N,11138.95111,W,0.009,,010318,,,A*7C

$GNVTG,,T,,M,0.009,N,0.016,K,A*33

$GNGGA,164230.00,4014.78292,N,11138.95111,W,1,12,0.71,1417.8,M,-18.8,M,,*40

$GNGSA,A,3,01,03,14,22,23,26,32,31,25,,,,1.28,0.71,1.07*11

$GNGSA,A,3,78,80,79,69,85,68,70,,,,,,1.28,0.71,1.07*15

$GPGSV,3,1,12,01,37,243,45,03,54,310,47,04,,,46,11,,,41*79

$GPGSV,3,2,12,14,44,064,47,16,09,161,38,22,74,289,48,23,25,280,40*78

$GPGSV,3,3,12,25,14,043,39,26,29,136,46,31,62,055,51,32,21,079,44*72

$GLGSV,2,1,08,68,33,103,47,69,68,029,47,70,26,316,39,78,29,034,47*65

$GLGSV,2,2,08,79,67,075,50,80,33,188,45,85,13,288,45,86,07,339,19*69

$GNGLL,4014.78292,N,11138.95111,W,164230.00,A,A*67

second #27
SENT CFG_CHECK: B5 62 01 3B 00 00 3C B5
288b2f18
405769
1e000000
c11047f5
d46ffce4
cccf6f18
13
08
d6
ab5b0000
1f000000
00
01
UBX-NAV-SVIN: b562013b280000000000288b2f181e000000c11047f5d46ffce4cccf6f181308d600ab5b00001f00000000010000e577

Time of Week: 405769000ms - Thursday 16:42:49

Suverying for: 30

ECEF position in m: (-1798920.3081,-4532183.479200001,4099808.7813999997)

Accuracy in m: 2.3467

Sample count: 31

SVIN valid?: False

SVIN active?: True



$GNRMC,164231.00,A,4014.78292,N,11138.95110,W,0.009,,010318,,,A*7C

$GNVTG,,T,,M,0.009,N,0.016,K,A*33

$GNGGA,164231.00,4014.78292,N,11138.95110,W,1,12,0.71,1417.8,M,-18.8,M,,*40

$GNGSA,A,3,01,03,14,22,23,26,32,31,25,,,,1.28,0.71,1.07*11

$GNGSA,A,3,78,80,79,69,85,68,70,,,,,,1.28,0.71,1.07*15

$GPGSV,3,1,12,01,37,243,45,03,54,310,47,04,,,46,11,,,41*79

$GPGSV,3,2,12,14,44,064,47,16,09,161,38,22,74,289,48,23,25,280,40*78

$GPGSV,3,3,12,25,14,043,39,26,29,136,46,31,62,055,51,32,21,079,43*75

$GLGSV,2,1,08,68,33,103,46,69,68,029,46,70,26,316,38,78,29,034,47*64

$GLGSV,2,2,08,79,67,075,49,80,33,188,45,85,13,288,45,86,07,339,18*60

$GNGLL,4014.78292,N,11138.95110,W,164231.00,A,A*67

second #28
SENT CFG_CHECK: B5 62 01 3B 00 00 3C B5
$GNTXT,01,01,01,More than 100 frame errors, UART RX was disabled*70

108f2f18
405770
1f000000
c21047f5
d86ffce4
cbcf6f18
14
e9
06
f55a0000
20000000
00
01
UBX-NAV-SVIN: b562013b280000000000108f2f181f000000c21047f5d86ffce4cbcf6f1814e90600f55a00002000000000010000327f

Time of Week: 405770000ms - Thursday 16:42:50

Suverying for: 31

ECEF position in m: (-1798920.298,-4532183.416700001,4099808.7506)

Accuracy in m: 2.3285

Sample count: 32

SVIN valid?: False

SVIN active?: True



$GNRMC,164232.00,A,4014.78292,N,11138.95110,W,0.008,,010318,,,A*7E

$GNVTG,,T,,M,0.008,N,0.015,K,A*31

$GNGGA,164232.00,4014.78292,N,11138.95110,W,1,12,0.71,1417.8,M,-18.8,M,,*43

$GNGSA,A,3,01,03,14,22,23,26,32,31,25,,,,1.28,0.71,1.07*11

$GNGSA,A,3,78,80,79,69,85,68,70,,,,,,1.28,0.71,1.07*15

$GPGSV,3,1,12,01,37,243,45,03,54,310,47,04,,,46,11,,,41*79

$GPGSV,3,2,12,14,44,064,47,16,09,161,38,22,74,289,48,23,25,280,40*78

$GPGSV,3,3,12,25,14,043,39,26,29,136,46,31,62,055,51,32,21,079,44*72

$GLGSV,2,1,08,68,33,103,46,69,68,029,46,70,26,316,38,78,29,034,47*64

$GLGSV,2,2,08,79,67,075,49,80,33,188,44,85,13,288,44,86,07,339,20*6B

$GNGLL,4014.78292,N,11138.95110,W,164232.00,A,A*64

second #29
SENT CFG_CHECK: B5 62 01 3B 00 00 3C B5
f8922f18
405771
20000000
c31047f5
db6ffce4
cbcf6f18
12
14
d2
445a0000
21000000
00
01
UBX-NAV-SVIN: b562013b280000000000f8922f1820000000c31047f5db6ffce4cbcf6f181214d200445a000021000000000100006755

Time of Week: 405771000ms - Thursday 16:42:51

Suverying for: 32

ECEF position in m: (-1798920.2882,-4532183.408,4099808.771)

Accuracy in m: 2.3108

Sample count: 33

SVIN valid?: False

SVIN active?: True



$GNRMC,164233.00,A,4014.78292,N,11138.95109,W,0.008,,010318,,,A*77

$GNVTG,,T,,M,0.008,N,0.015,K,A*31

$GNGGA,164233.00,4014.78292,N,11138.95109,W,1,12,0.71,1417.8,M,-18.8,M,,*4A

$GNGSA,A,3,01,03,14,22,23,26,32,31,25,,,,1.28,0.71,1.07*11

$GNGSA,A,3,78,80,79,69,85,68,70,,,,,,1.28,0.71,1.07*15

$GPGSV,3,1,12,01,37,243,45,03,54,310,47,04,,,46,11,,,41*79

$GPGSV,3,2,12,14,44,064,47,16,09,161,38,22,74,289,48,23,25,280,40*78

$GPGSV,3,3,12,25,14,043,39,26,29,136,46,31,62,055,51,32,21,079,44*72

$GLGSV,2,1,08,68,33,103,46,69,68,029,46,70,26,316,38,78,29,034,47*64

$GLGSV,2,2,08,79,67,075,49,80,33,188,44,85,13,288,44,86,07,339,20*6B

$GNGLL,4014.78292,N,11138.95109,W,164233.00,A,A*6D

second #30
SENT CFG_CHECK: B5 62 01 3B 00 00 3C B5
$GNTXT,01,01,01,More than 100 frame errors, UART RX was disabled*70

e0962f18
405772
21000000
c41047f5
de6ffce4
cacf6f18
0b
28
04
98590000
22000000
00
01
UBX-NAV-SVIN: b562013b280000000000e0962f1821000000c41047f5de6ffce4cacf6f180b280400985900002200000000010000ea56

Time of Week: 405772000ms - Thursday 16:42:52

Suverying for: 33

ECEF position in m: (-1798920.2789,-4532183.376,4099808.7404)

Accuracy in m: 2.2936

Sample count: 34

SVIN valid?: False

SVIN active?: True



$GNRMC,164234.00,A,4014.78292,N,11138.95109,W,0.008,,010318,,,A*70

$GNVTG,,T,,M,0.008,N,0.014,K,A*30

$GNGGA,164234.00,4014.78292,N,11138.95109,W,1,12,0.71,1417.8,M,-18.8,M,,*4D

$GNGSA,A,3,01,03,14,22,23,26,32,31,25,,,,1.28,0.71,1.07*11

$GNGSA,A,3,78,80,79,69,85,68,70,,,,,,1.28,0.71,1.07*15

$GPGSV,3,1,12,01,37,243,45,03,54,310,47,04,,,46,11,,,41*79

$GPGSV,3,2,12,14,44,064,47,16,09,161,38,22,74,289,48,23,25,280,40*78

$GPGSV,3,3,12,25,14,043,39,26,29,136,46,31,62,055,51,32,21,079,44*72

$GLGSV,2,1,08,68,33,103,46,69,68,029,46,70,26,316,38,78,29,034,47*64

$GLGSV,2,2,08,79,67,075,49,80,33,188,44,85,13,288,44,86,07,339,22*69

$GNGLL,4014.78292,N,11138.95109,W,164234.00,A,A*6A

second #31
SENT CFG_CHECK: B5 62 01 3B 00 00 3C B5
c89a2f18
405773
22000000
c51047f5
e16ffce4
c9cf6f18
01
2c
31
f1580000
23000000
00
01
UBX-NAV-SVIN: b562013b280000000000c89a2f1822000000c51047f5e16ffce4c9cf6f18012c3100f158000023000000000100005a2d

Time of Week: 405773000ms - Thursday 16:42:53

Suverying for: 34

ECEF position in m: (-1798920.2699,-4532183.3456,4099808.7349)

Accuracy in m: 2.2769

Sample count: 35

SVIN valid?: False

SVIN active?: True



$GNRMC,164235.00,A,4014.78292,N,11138.95109,W,0.008,,010318,,,A*71

$GNVTG,,T,,M,0.008,N,0.014,K,A*30

$GNGGA,164235.00,4014.78292,N,11138.95109,W,1,12,0.71,1417.7,M,-18.8,M,,*43

$GNGSA,A,3,01,03,14,22,23,26,32,31,25,,,,1.28,0.71,1.07*11

$GNGSA,A,3,78,80,79,69,85,68,70,,,,,,1.28,0.71,1.07*15

$GPGSV,3,1,12,01,37,243,45,03,54,310,47,04,,,46,11,,,41*79

$GPGSV,3,2,12,14,44,064,47,16,09,161,38,22,74,289,48,23,25,280,40*78

$GPGSV,3,3,12,25,14,043,39,26,29,136,46,31,62,055,51,32,21,079,44*72

$GLGSV,2,1,08,68,33,103,46,69,68,029,46,70,26,316,38,78,29,034,47*64

$GLGSV,2,2,08,79,67,075,49,80,33,188,44,85,13,288,44,86,07,339,22*69

$GNGLL,4014.78292,N,11138.95109,W,164235.00,A,A*6B

second #32
SENT CFG_CHECK: B5 62 01 3B 00 00 3C B5
$GNTXT,01,01,01,More than 100 frame errors, UART RX was disabled*70

b09e2f18
405774
23000000
c61047f5
e46ffce4
c9cf6f18
f4
1d
fa
4e580000
24000000
00
01
UBX-NAV-SVIN: b562013b280000000000b09e2f1823000000c61047f5e46ffce4c9cf6f18f41dfa004e5800002400000000010000568e

Time of Week: 405774000ms - Thursday 16:42:54

Suverying for: 35

ECEF position in m: (-1798920.2356,-4532183.317100001,4099808.755)

Accuracy in m: 2.2606

Sample count: 36

SVIN valid?: False

SVIN active?: True



$GNRMC,164236.00,A,4014.78292,N,11138.95108,W,0.007,,010318,,,A*7C

$GNVTG,,T,,M,0.007,N,0.013,K,A*38

$GNGGA,164236.00,4014.78292,N,11138.95108,W,1,12,0.71,1417.7,M,-18.8,M,,*41

$GNGSA,A,3,01,03,14,22,23,26,32,31,25,,,,1.28,0.71,1.07*11

$GNGSA,A,3,78,80,79,69,85,68,70,,,,,,1.28,0.71,1.07*15

$GPGSV,3,1,12,01,37,243,45,03,54,310,47,04,,,46,11,,,41*79

$GPGSV,3,2,12,14,44,064,47,16,09,161,38,22,74,289,48,23,25,280,40*78

$GPGSV,3,3,12,25,14,043,39,26,29,136,46,31,62,055,52,32,21,079,44*71

$GLGSV,2,1,08,68,33,103,46,69,68,029,46,70,26,316,38,78,29,034,47*64

$GLGSV,2,2,08,79,67,075,49,80,33,188,44,85,13,288,44,86,07,339,23*68

$GNGLL,4014.78292,N,11138.95108,W,164236.00,A,A*69

second #33
SENT CFG_CHECK: B5 62 01 3B 00 00 3C B5
98a22f18
405775
24000000
c71047f5
e76ffce4
c8cf6f18
e3
fc
25
b0570000
25000000
00
01
UBX-NAV-SVIN: b562013b28000000000098a22f1824000000c71047f5e76ffce4c8cf6f18e3fc2500b05700002500000000010000a11a

Time of Week: 405775000ms - Thursday 16:42:55

Suverying for: 36

ECEF position in m: (-1798920.2273,-4532183.2648,4099808.7237)

Accuracy in m: 2.2448

Sample count: 37

SVIN valid?: False

SVIN active?: True



$GNRMC,164237.00,A,4014.78291,N,11138.95108,W,0.007,,010318,,,A*7E

$GNVTG,,T,,M,0.007,N,0.013,K,A*38

$GNGGA,164237.00,4014.78291,N,11138.95108,W,1,12,0.71,1417.7,M,-18.8,M,,*43

$GNGSA,A,3,01,03,14,22,23,26,32,31,25,,,,1.28,0.71,1.07*11

$GNGSA,A,3,78,80,79,69,85,68,70,,,,,,1.28,0.71,1.07*15

$GPGSV,3,1,12,01,37,243,45,03,54,310,47,04,,,46,11,,,41*79

$GPGSV,3,2,12,14,44,064,47,16,09,161,38,22,74,289,48,23,25,280,40*78

$GPGSV,3,3,12,25,14,043,39,26,29,136,45,31,62,055,52,32,21,079,44*72

$GLGSV,2,1,08,68,33,103,46,69,68,029,46,70,26,316,38,78,29,034,47*64

$GLGSV,2,2,08,79,67,075,49,80,33,188,44,85,13,288,44,86,07,339,22*69

$GNGLL,4014.78291,N,11138.95108,W,164237.00,A,A*6B

$GNTXT,01,01,01,More than 100 frame errors, UART RX was disabled*70

second #34
SENT CFG_CHECK: B5 62 01 3B 00 00 3C B5
80a62f18
405776
25000000
c71047f5
e96ffce4
c8cf6f18
31
30
ec
17570000
26000000
00
01
UBX-NAV-SVIN: b562013b28000000000080a62f1825000000c71047f5e96ffce4c8cf6f183130ec001757000026000000000100004140

Time of Week: 405776000ms - Thursday 16:42:56

Suverying for: 37

ECEF position in m: (-1798920.2451,-4532183.265199999,4099808.7436)

Accuracy in m: 2.2295

Sample count: 38

SVIN valid?: False

SVIN active?: True



$GNRMC,164238.00,A,4014.78291,N,11138.95108,W,0.007,,010318,,,A*71

$GNVTG,,T,,M,0.007,N,0.012,K,A*39

$GNGGA,164238.00,4014.78291,N,11138.95108,W,1,12,0.71,1417.7,M,-18.8,M,,*4C

$GNGSA,A,3,01,03,14,22,23,26,32,31,25,,,,1.28,0.71,1.07*11

$GNGSA,A,3,78,80,79,69,85,68,70,,,,,,1.28,0.71,1.07*15

$GPGSV,3,1,12,01,37,243,45,03,54,310,47,04,,,46,11,,,41*79

$GPGSV,3,2,12,14,44,064,47,16,09,161,37,22,74,289,48,23,25,280,40*77

$GPGSV,3,3,12,25,14,043,39,26,29,136,46,31,62,055,52,32,21,079,44*71

$GLGSV,2,1,08,68,33,103,46,69,68,029,46,70,26,316,38,78,29,034,48*6B

$GLGSV,2,2,08,79,67,075,49,80,33,188,44,85,13,288,44,86,07,339,22*69

$GNGLL,4014.78291,N,11138.95108,W,164238.00,A,A*64

second #35
SENT CFG_CHECK: B5 62 01 3B 00 00 3C B5
68aa2f18
405777
26000000
c81047f5
ec6ffce4
c7cf6f18
17
f4
12
81560000
27000000
00
01
UBX-NAV-SVIN: b562013b28000000000068aa2f1826000000c81047f5ec6ffce4c7cf6f1817f412008156000027000000000100006bc1

Time of Week: 405777000ms - Thursday 16:42:57

Suverying for: 38

ECEF position in m: (-1798920.2377,-4532183.2156,4099808.7118)

Accuracy in m: 2.2145

Sample count: 39

SVIN valid?: False

SVIN active?: True



$GNRMC,164239.00,A,4014.78291,N,11138.95108,W,0.006,,010318,,,A*71

$GNVTG,,T,,M,0.006,N,0.012,K,A*38

$GNGGA,164239.00,4014.78291,N,11138.95108,W,1,12,0.71,1417.7,M,-18.8,M,,*4D

$GNGSA,A,3,01,03,14,22,23,26,32,31,25,,,,1.28,0.71,1.07*11

$GNGSA,A,3,78,80,79,69,85,68,70,,,,,,1.28,0.71,1.07*15

$GPGSV,3,1,12,01,37,243,45,03,54,310,47,04,,,46,11,,,41*79

$GPGSV,3,2,12,14,44,064,47,16,09,161,37,22,74,288,48,23,25,280,40*76

$GPGSV,3,3,12,25,14,043,39,26,29,136,46,31,62,055,52,32,21,079,44*71

$GLGSV,2,1,08,68,33,103,46,69,68,029,46,70,26,316,38,78,29,034,48*6B

$GLGSV,2,2,08,79,67,075,49,80,33,188,45,85,13,288,45,86,07,339,21*6A

$GNGLL,4014.78291,N,11138.95108,W,164239.00,A,A*65

$GNTXT,01,01,01,More than 100 frame errors, UART RX was disabled*70

second #36
SENT CFG_CHECK: B5 62 01 3B 00 00 3C B5
50ae2f18
405778
27000000
c91047f5
ee6ffce4
c7cf6f18
fd
14
cf
ef550000
28000000
00
01
UBX-NAV-SVIN: b562013b28000000000050ae2f1827000000c91047f5ee6ffce4c7cf6f18fd14cf00ef55000028000000000100008c14

Time of Week: 405778000ms - Thursday 16:42:58

Suverying for: 39

ECEF position in m: (-1798920.2047,-4532183.217999999,4099808.7307)

Accuracy in m: 2.1999

Sample count: 40

SVIN valid?: False

SVIN active?: True



$GNRMC,164240.00,A,4014.78290,N,11138.95108,W,0.006,,010318,,,A*7E

$GNVTG,,T,,M,0.006,N,0.011,K,A*3B

$GNGGA,164240.00,4014.78290,N,11138.95108,W,1,12,0.71,1417.7,M,-18.8,M,,*42

$GNGSA,A,3,01,03,14,22,23,26,32,31,25,,,,1.28,0.71,1.07*11

$GNGSA,A,3,78,80,79,69,85,68,70,,,,,,1.28,0.71,1.07*15

$GPGSV,3,1,12,01,37,243,45,03,54,310,47,04,,,46,11,,,41*79

$GPGSV,3,2,12,14,44,064,47,16,09,161,37,22,74,288,48,23,25,280,40*76

$GPGSV,3,3,12,25,14,043,39,26,29,136,46,31,62,055,52,32,21,079,44*71

$GLGSV,2,1,08,68,33,103,46,69,68,029,46,70,26,316,38,78,29,034,48*6B

$GLGSV,2,2,08,79,67,075,49,80,33,188,45,85,13,288,44,86,07,339,20*6A

$GNGLL,4014.78290,N,11138.95108,W,164240.00,A,A*6A

second #37
SENT CFG_CHECK: B5 62 01 3B 00 00 3C B5
38b22f18
405779
28000000
ca1047f5
f06ffce4
c6cf6f18
df
2a
e9
62550000
29000000
00
01
UBX-NAV-SVIN: b562013b28000000000038b22f1828000000ca1047f5f06ffce4c6cf6f18df2ae90062550000290000000001000001da

Time of Week: 405779000ms - Thursday 16:42:59

Suverying for: 40

ECEF position in m: (-1798920.1977,-4532183.1958,4099808.7233)

Accuracy in m: 2.1858

Sample count: 41

SVIN valid?: False

SVIN active?: True



$GNRMC,164241.00,A,4014.78290,N,11138.95108,W,0.005,,010318,,,A*7C

$GNVTG,,T,,M,0.005,N,0.010,K,A*39

$GNGGA,164241.00,4014.78290,N,11138.95108,W,1,12,0.71,1417.6,M,-18.8,M,,*42

$GNGSA,A,3,01,03,14,22,23,26,32,31,25,,,,1.28,0.71,1.07*11

$GNGSA,A,3,78,80,79,69,85,68,70,,,,,,1.28,0.71,1.07*15

$GPGSV,3,1,12,01,37,243,45,03,54,310,47,04,,,46,11,,,41*79

$GPGSV,3,2,12,14,44,064,47,16,09,161,37,22,74,288,48,23,25,280,40*76

$GPGSV,3,3,12,25,14,043,39,26,29,136,46,31,62,055,52,32,21,079,44*71

$GLGSV,2,1,08,68,33,103,46,69,68,029,46,70,26,316,38,78,29,034,48*6B

$GLGSV,2,2,08,79,67,075,49,80,33,188,45,85,13,288,44,86,07,339,19*60

$GNGLL,4014.78290,N,11138.95108,W,164241.00,A,A*6B

$GNTXT,01,01,01,More than 100 frame errors, UART RX was disabled*70

second #38
SENT CFG_CHECK: B5 62 01 3B 00 00 3C B5
20b62f18
405780
29000000
ca1047f5
f36ffce4
c5cf6f18
1f
d1
fe
d7540000
2a000000
00
01
UBX-NAV-SVIN: b562013b28000000000020b62f1829000000ca1047f5f36ffce4c5cf6f181fd1fe00d75400002a0000000001000061c2

Time of Week: 405780000ms - Thursday 16:43:0

Suverying for: 41

ECEF position in m: (-1798920.2168999999,-4532183.1491,4099808.7154)

Accuracy in m: 2.1719

Sample count: 42

SVIN valid?: False

SVIN active?: True



$GNRMC,164242.00,A,4014.78289,N,11138.95109,W,0.005,,010318,,,A*76

$GNVTG,,T,,M,0.005,N,0.009,K,A*31

$GNGGA,164242.00,4014.78289,N,11138.95109,W,1,12,0.71,1417.6,M,-18.8,M,,*48

$GNGSA,A,3,01,03,14,22,23,26,32,31,25,,,,1.28,0.71,1.07*11

$GNGSA,A,3,78,80,79,69,85,68,70,,,,,,1.28,0.71,1.07*15

$GPGSV,3,1,12,01,37,243,45,03,54,310,47,04,,,46,11,,,41*79

$GPGSV,3,2,12,14,44,064,47,16,09,161,37,22,74,288,48,23,25,280,40*76

$GPGSV,3,3,12,25,14,042,39,26,29,136,45,31,62,055,52,32,21,079,44*73

$GLGSV,2,1,08,68,33,103,46,69,68,029,46,70,26,316,38,78,29,034,48*6B

$GLGSV,2,2,08,79,67,075,49,80,33,188,45,85,13,288,44,86,07,339,20*6A

$GNGLL,4014.78289,N,11138.95109,W,164242.00,A,A*61

second #39
SENT CFG_CHECK: B5 62 01 3B 00 00 3C B5
08ba2f18
405781
2a000000
cb1047f5
f56ffce4
c4cf6f18
f7
cf
0e
51540000
2b000000
00
01
UBX-NAV-SVIN: b562013b28000000000008ba2f182a000000cb1047f5f56ffce4c4cf6f18f7cf0e00515400002b00000000010000b148

Time of Week: 405781000ms - Thursday 16:43:1

Suverying for: 42

ECEF position in m: (-1798920.1853,-4532183.1293,4099808.6814)

Accuracy in m: 2.1585

Sample count: 43

SVIN valid?: False

SVIN active?: True



$GNRMC,164243.00,A,4014.78287,N,11138.95109,W,0.004,,010318,,,A*78

$GNVTG,,T,,M,0.004,N,0.008,K,A*31

$GNGGA,164243.00,4014.78287,N,11138.95109,W,1,12,0.71,1417.6,M,-18.8,M,,*47

$GNGSA,A,3,01,03,14,22,23,26,32,31,25,,,,1.28,0.71,1.07*11

$GNGSA,A,3,78,80,79,69,85,68,70,,,,,,1.28,0.71,1.07*15

$GPGSV,3,1,12,01,37,243,45,03,54,310,47,04,,,46,11,,,40*78

$GPGSV,3,2,12,14,44,064,47,16,09,161,37,22,74,288,48,23,25,280,39*78

$GPGSV,3,3,12,25,14,042,39,26,29,136,45,31,62,055,52,32,21,079,44*73

$GLGSV,2,1,08,68,33,103,46,69,68,029,46,70,26,316,38,78,29,034,48*6B

$GLGSV,2,2,08,79,67,075,49,80,33,188,45,85,13,288,44,86,07,339,19*60

$GNGLL,4014.78287,N,11138.95109,W,164243.00,A,A*6E

$GNTXT,01,01,01,More than 100 frame errors, UART RX was disabled*70

second #40
SENT CFG_CHECK: B5 62 01 3B 00 00 3C B5
f0bd2f18
405782
2b000000
cb1047f5
f66ffce4
c3cf6f18
2b
26
15
cd530000
2c000000
00
01
UBX-NAV-SVIN: b562013b280000000000f0bd2f182b000000cb1047f5f66ffce4c3cf6f182b261500cd5300002c00000000010000abfd

Time of Week: 405782000ms - Thursday 16:43:2

Suverying for: 43

ECEF position in m: (-1798920.2057,-4532183.1362,4099808.6721)

Accuracy in m: 2.1453

Sample count: 44

SVIN valid?: False

SVIN active?: True



$GNRMC,164244.00,A,4014.78286,N,11138.95110,W,0.004,,010318,,,A*76

$GNVTG,,T,,M,0.004,N,0.007,K,A*3E

$GNGGA,164244.00,4014.78286,N,11138.95110,W,1,12,0.71,1417.6,M,-18.8,M,,*49

$GNGSA,A,3,01,03,14,22,23,26,32,31,25,,,,1.28,0.71,1.07*11

$GNGSA,A,3,78,80,79,69,85,68,70,,,,,,1.28,0.71,1.07*15

$GPGSV,3,1,12,01,37,243,45,03,54,310,47,04,,,46,11,,,41*79

$GPGSV,3,2,12,14,44,064,47,16,09,161,37,22,74,288,48,23,25,280,39*78

$GPGSV,3,3,12,25,14,042,40,26,29,136,45,31,61,055,52,32,21,079,44*7E

$GLGSV,2,1,08,68,33,103,46,69,68,029,46,70,26,316,38,78,29,034,48*6B

$GLGSV,2,2,08,79,67,075,50,80,33,188,45,85,13,288,44,86,07,339,20*62

$GNGLL,4014.78286,N,11138.95110,W,164244.00,A,A*60

$GNRMC,164245.00,A,4014.78284,N,11138.95111,W,0.003,,010318,,,A*73

$GNVTG,,T,,M,0.003,N,0.006,K,A*38

$GNGGA,164245.00,4014.78284,N,11138.95111,W,1,12,0.71,1417.5,M,-18.8,M,,*48

$GNGSA,A,3,01,03,14,22,23,26,32,31,25,,,,1.28,0.71,1.07*11

$GNGSA,A,3,78,80,79,69,85,68,70,,,,,,1.28,0.71,1.07*15

$GPGSV,3,1,12,01,37,243,45,03,54,310,47,04,,,46,11,,,41*79

$GPGSV,3,2,12,14,44,064,47,16,09,161,37,22,74,288,48,23,25,280,39*78

$GPGSV,3,3,12,25,14,042,40,26,29,136,45,31,61,055,52,32,21,079,44*7E

$GLGSV,2,1,08,68,33,103,46,69,68,029,46,70,26,316,39,78,29,034,48*6A

$GLGSV,2,2,08,79,67,075,50,80,33,188,45,85,13,288,44,86,07,339,19*68

$GNGLL,4014.78284,N,11138.95111,W,164245.00,A,A*62

second #41
SENT CFG_CHECK: B5 62 01 3B 00 00 3C B5
$GNTXT,01,01,01,More than 100 frame errors, UART RX was disabled*70

c0c52f18
405784
2d000000
cc1047f5
fa6ffce4
c1cf6f18
1c
ef
0e
cd520000
2e000000
00
01
UBX-NAV-SVIN: b562013b280000000000c0c52f182d000000cc1047f5fa6ffce4c1cf6f181cef0e00cd5200002e000000000100003c63

Time of Week: 405784000ms - Thursday 16:43:4

Suverying for: 45

ECEF position in m: (-1798920.1972,-4532183.076099999,4099808.6514)

Accuracy in m: 2.1197

Sample count: 46

SVIN valid?: False

SVIN active?: True



$GNRMC,164246.00,A,4014.78282,N,11138.95111,W,0.002,,010318,,,A*77

$GNVTG,,T,,M,0.002,N,0.004,K,A*3B

$GNGGA,164246.00,4014.78282,N,11138.95111,W,1,12,0.71,1417.5,M,-18.8,M,,*4D

$GNGSA,A,3,01,03,14,22,23,26,32,31,25,,,,1.28,0.71,1.07*11

$GNGSA,A,3,78,80,79,69,85,68,70,,,,,,1.28,0.71,1.07*15

$GPGSV,3,1,12,01,37,243,45,03,54,310,47,04,,,46,11,,,41*79

$GPGSV,3,2,12,14,44,064,47,16,09,161,38,22,74,288,48,23,25,280,39*77

$GPGSV,3,3,12,25,14,042,40,26,29,136,45,31,61,055,52,32,21,079,44*7E

$GLGSV,2,1,08,68,33,103,46,69,68,029,46,70,26,316,39,78,29,034,48*6A

$GLGSV,2,2,08,79,67,075,50,80,33,188,45,85,13,288,44,86,07,339,20*62

$GNGLL,4014.78282,N,11138.95111,W,164246.00,A,A*67

second #42
SENT CFG_CHECK: B5 62 01 3B 00 00 3C B5
a8c92f18
405785
2e000000
cd1047f5
fb6ffce4
c0cf6f18
d8
27
02
51520000
2f000000
00
01
UBX-NAV-SVIN: b562013b280000000000a8c92f182e000000cd1047f5fb6ffce4c0cf6f18d8270200515200002f000000000100009767

Time of Week: 405785000ms - Thursday 16:43:5

Suverying for: 46

ECEF position in m: (-1798920.1683999998,-4532183.0861,4099808.6402000003)

Accuracy in m: 2.1073

Sample count: 47

SVIN valid?: False

SVIN active?: True



$GNRMC,164247.00,A,4014.78280,N,11138.95112,W,0.002,,010318,,,A*77

$GNVTG,,T,,M,0.002,N,0.004,K,A*3B

$GNGGA,164247.00,4014.78280,N,11138.95112,W,1,12,0.71,1417.5,M,-18.8,M,,*4D

$GNGSA,A,3,01,03,14,22,23,26,32,31,25,,,,1.28,0.71,1.07*11

$GNGSA,A,3,78,80,79,69,85,68,70,,,,,,1.28,0.71,1.07*15

$GPGSV,3,1,12,01,37,243,45,03,54,310,47,04,,,46,11,,,41*79

$GPGSV,3,2,12,14,44,064,47,16,09,161,38,22,74,288,48,23,25,280,39*77

$GPGSV,3,3,12,25,14,042,40,26,29,136,45,31,61,055,52,32,21,079,44*7E

$GLGSV,2,1,08,68,33,103,46,69,68,029,46,70,26,316,39,78,29,034,48*6A

$GLGSV,2,2,08,79,67,075,50,80,33,188,45,85,13,288,43,86,07,339,20*65

$GNGLL,4014.78280,N,11138.95112,W,164247.00,A,A*67

second #43
SENT CFG_CHECK: B5 62 01 3B 00 00 3C B5
$GNTXT,01,01,01,More than 100 frame errors, UART RX was disabled*70

90cd2f18
405786
2f000000
cd1047f5
fd6ffce4
bfcf6f18
f1
f1
f0
d8510000
30000000
00
01
UBX-NAV-SVIN: b562013b28000000000090cd2f182f000000cd1047f5fd6ffce4bfcf6f18f1f1f000d85100003000000000010000dd8a

Time of Week: 405786000ms - Thursday 16:43:6

Suverying for: 47

ECEF position in m: (-1798920.1659,-4532183.0459,4099808.654)

Accuracy in m: 2.0952

Sample count: 48

SVIN valid?: False

SVIN active?: True



$GNRMC,164248.00,A,4014.78279,N,11138.95113,W,0.002,,010318,,,A*7F

$GNVTG,,T,,M,0.002,N,0.003,K,A*3C

$GNGGA,164248.00,4014.78279,N,11138.95113,W,1,12,0.71,1417.5,M,-18.8,M,,*45

$GNGSA,A,3,01,03,14,22,23,26,32,31,25,,,,1.28,0.71,1.07*11

$GNGSA,A,3,78,80,79,69,85,68,70,,,,,,1.28,0.71,1.07*15

$GPGSV,3,1,12,01,37,243,45,03,54,310,47,04,,,46,11,,,40*78

$GPGSV,3,2,12,14,44,064,47,16,09,161,38,22,74,288,48,23,25,280,39*77

$GPGSV,3,3,12,25,14,042,40,26,29,136,45,31,61,055,52,32,21,079,44*7E

$GLGSV,2,1,08,68,33,103,46,69,68,029,46,70,26,316,39,78,29,034,48*6A

$GLGSV,2,2,08,79,67,075,50,80,33,188,45,85,13,288,44,86,07,339,18*69

$GNGLL,4014.78279,N,11138.95113,W,164248.00,A,A*6F

second #44
SENT CFG_CHECK: B5 62 01 3B 00 00 3C B5
78d12f18
405787
30000000
cd1047f5
fe6ffce4
becf6f18
03
16
db
61510000
31000000
00
01
UBX-NAV-SVIN: b562013b28000000000078d12f1830000000cd1047f5fe6ffce4becf6f180316db006151000031000000000100007673

Time of Week: 405787000ms - Thursday 16:43:7

Suverying for: 48

ECEF position in m: (-1798920.1897,-4532183.0578,4099808.6419)

Accuracy in m: 2.0833

Sample count: 49

SVIN valid?: False

SVIN active?: True



$GNRMC,164249.00,A,4014.78277,N,11138.95114,W,0.002,,010318,,,A*77

$GNVTG,,T,,M,0.002,N,0.004,K,A*3B

$GNGGA,164249.00,4014.78277,N,11138.95114,W,1,12,0.71,1417.5,M,-18.8,M,,*4D

$GNGSA,A,3,01,03,14,22,23,26,32,31,25,,,,1.28,0.71,1.07*11

$GNGSA,A,3,78,80,79,69,85,68,70,,,,,,1.28,0.71,1.07*15

$GPGSV,3,1,12,01,37,243,45,03,54,310,47,04,,,46,11,,,40*78

$GPGSV,3,2,12,14,44,064,47,16,09,161,38,22,74,288,48,23,25,280,39*77

$GPGSV,3,3,12,25,14,042,40,26,29,136,45,31,61,055,52,32,21,079,44*7E

$GLGSV,2,1,08,68,33,103,46,69,68,029,46,70,26,316,39,78,29,034,48*6A

$GLGSV,2,2,08,79,67,075,50,80,33,188,45,85,13,288,44,86,07,339,17*66

$GNGLL,4014.78277,N,11138.95114,W,164249.00,A,A*67

second #45
SENT CFG_CHECK: B5 62 01 3B 00 00 3C B5
$GNTXT,01,01,01,More than 100 frame errors, UART RX was disabled*70

60d52f18
405788
31000000
cd1047f5
ff6ffce4
bccf6f18
10
30
28
ed500000
32000000
00
01
UBX-NAV-SVIN: b562013b28000000000060d52f1831000000cd1047f5ff6ffce4bccf6f1810302800ed500000320000000001000062c8

Time of Week: 405788000ms - Thursday 16:43:8

Suverying for: 49

ECEF position in m: (-1798920.1883999999,-4532183.0452,4099808.6040000003)

Accuracy in m: 2.0717

Sample count: 50

SVIN valid?: False

SVIN active?: True



$GNRMC,164250.00,A,4014.78275,N,11138.95115,W,0.002,,010318,,,A*7C

$GNVTG,,T,,M,0.002,N,0.004,K,A*3B

$GNGGA,164250.00,4014.78275,N,11138.95115,W,1,12,0.71,1417.5,M,-18.8,M,,*46

$GNGSA,A,3,01,03,14,22,23,26,32,31,25,,,,1.28,0.71,1.07*11

$GNGSA,A,3,78,80,79,69,85,68,70,,,,,,1.28,0.71,1.07*15

$GPGSV,3,1,12,01,37,243,45,03,54,310,47,04,,,46,11,,,40*78

$GPGSV,3,2,12,14,44,064,47,16,09,161,38,22,74,288,48,23,25,280,39*77

$GPGSV,3,3,12,25,14,042,40,26,29,136,45,31,61,055,52,32,21,079,44*7E

$GLGSV,2,1,08,68,32,103,46,69,68,029,46,70,26,316,39,78,29,034,48*6B

$GLGSV,2,2,08,79,67,075,50,80,33,188,45,85,13,288,44,86,07,339,15*64

$GNGLL,4014.78275,N,11138.95115,W,164250.00,A,A*6C

second #46
SENT CFG_CHECK: B5 62 01 3B 00 00 3C B5
48d92f18
405789
32000000
cd1047f5
0170fce4
bbcf6f18
17
dc
12
7a500000
33000000
00
01
