          0020  30 33 2C 32 35 2C 33 31 2C 2C 2C 31 2E 32 34 2C  03,25,31,,,1.24,
          0030  30 2E 36 36 2C 31 2E 30 35 2A 31 34 0D 0A        0.66,1.05*14...
          
13:20:36  0000  24 47 4E 47 53 41 2C 41 2C 33 2C 37 39 2C 38 36  $GNGSA,A,3,79,86
          0010  2C 36 39 2C 37 31 2C 38 30 2C 38 35 2C 37 30 2C  ,69,71,80,85,70,
          0020  37 33 2C 2C 2C 2C 2C 31 2E 32 34 2C 30 2E 36 36  73,,,,,1.24,0.66
          0030  2C 31 2E 30 35 2A 31 30 0D 0A                    ,1.05*10...
          
13:20:36  0000  24 47 50 47 53 56 2C 33 2C 31 2C 31 31 2C 30 31  $GPGSV,3,1,11,01
          0010  2C 34 30 2C 33 30 32 2C 34 36 2C 30 33 2C 31 35  ,40,302,46,03,15
          0020  2C 33 30 32 2C 33 39 2C 30 38 2C 30 33 2C 32 34  ,302,39,08,03,24
          0030  31 2C 32 36 2C 31 30 2C 33 35 2C 31 30 39 2C 34  1,26,10,35,109,4
          0040  37 2A 37 35 0D 0A                                7*75...
          
13:20:36  0000  24 47 50 47 53 56 2C 33 2C 32 2C 31 31 2C 31 31  $GPGSV,3,2,11,11
          0010  2C 33 32 2C 32 37 37 2C 34 35 2C 31 34 2C 37 36  ,32,277,45,14,76
          0020  2C 33 35 36 2C 34 36 2C 31 38 2C 35 34 2C 32 36  ,356,46,18,54,26
          0030  37 2C 34 37 2C 32 32 2C 33 36 2C 33 30 35 2C 34  7,47,22,36,305,4
          0040  35 2A 37 36 0D 0A                                5*76...
          
13:20:36  0000  24 47 50 47 53 56 2C 33 2C 33 2C 31 31 2C 32 35  $GPGSV,3,3,11,25
          0010  2C 31 34 2C 30 38 34 2C 34 38 2C 33 31 2C 35 37  ,14,084,48,31,57
          0020  2C 31 35 38 2C 34 39 2C 33 32 2C 35 35 2C 30 34  ,158,49,32,55,04
          0030  37 2C 34 39 2A 34 35 0D 0A                       7,49*45...
          
13:20:36  0000  24 47 4C 47 53 56 2C 33 2C 31 2C 30 39 2C 36 39  $GLGSV,3,1,09,69
          0010  2C 31 37 2C 30 38 34 2C 34 32 2C 37 30 2C 35 38  ,17,084,42,70,58
          0020  2C 30 32 38 2C 34 32 2C 37 31 2C 33 37 2C 33 30  ,028,42,71,37,30
          0030  38 2C 34 39 2C 37 33 2C 32 33 2C 31 36 30 2C 34  8,49,73,23,160,4
          0040  37 2A 36 45 0D 0A                                7*6E...
          
13:20:36  0000  24 47 4C 47 53 56 2C 33 2C 32 2C 30 39 2C 37 39  $GLGSV,3,2,09,79
          0010  2C 31 37 2C 30 32 38 2C 34 35 2C 38 30 2C 34 39  ,17,028,45,80,49
          0020  2C 30 39 36 2C 34 37 2C 38 35 2C 32 31 2C 32 32  ,096,47,85,21,22
          0030  35 2C 34 35 2C 38 36 2C 33 33 2C 32 38 36 2C 35  5,45,86,33,286,5
          0040  30 2A 36 41 0D 0A                                0*6A...
          
13:20:36  0000  24 47 4C 47 53 56 2C 33 2C 33 2C 30 39 2C 38 37  $GLGSV,3,3,09,87
          0010  2C 30 38 2C 33 34 30 2C 34 33 2A 35 42 0D 0A     ,08,340,43*5B...
          
13:20:36  0000  24 47 4E 47 4C 4C 2C 34 30 31 34 2E 31 37 36 39  $GNGLL,4014.1769
          0010  34 2C 4E 2C 31 31 31 34 31 2E 36 35 31 34 31 2C  4,N,11141.65141,
          0020  57 2C 31 33 32 30 33 36 2E 30 30 2C 41 2C 41 2A  W,132036.00,A,A*
          0030  36 46 0D 0A                                      6F...
          
13:20:36  0000  B5 62 01 3B 00 00 3C B5                          µb.;..<µ.
          
13:20:36  0000  B5 62 01 3B 28 00 00 00 00 00 D8 FA 29 0D 0E 00  µb.;(.....Øú)...
          0010  00 00 F2 3D 41 F5 1D 9C FD E4 BC 77 6E 18 04 D6  ..ò=Aõ..ýä¼wn..Ö
          0020  F1 00 AA 3B 00 00 0F 00 00 00 00 01 00 00 F2 7B  ñ.ª;..........ò{.
          
13:20:37  0000  24 47 4E 52 4D 43 2C 31 33 32 30 33 37 2E 30 30  $GNRMC,132037.00
          0010  2C 41 2C 34 30 31 34 2E 31 37 36 39 34 2C 4E 2C  ,A,4014.17694,N,
          0020  31 31 31 34 31 2E 36 35 31 34 31 2C 57 2C 30 2E  11141.65141,W,0.
          0030  30 30 34 2C 2C 32 37 30 33 31 38 2C 2C 2C 41 2A  004,,270318,,,A*
          0040  37 43 0D 0A                                      7C...
          
13:20:37  0000  24 47 4E 56 54 47 2C 2C 54 2C 2C 4D 2C 30 2E 30  $GNVTG,,T,,M,0.0
          0010  30 34 2C 4E 2C 30 2E 30 30 38 2C 4B 2C 41 2A 33  04,N,0.008,K,A*3
          0020  31 0D 0A                                         1...
          
13:20:37  0000  24 47 4E 47 47 41 2C 31 33 32 30 33 37 2E 30 30  $GNGGA,132037.00
          0010  2C 34 30 31 34 2E 31 37 36 39 34 2C 4E 2C 31 31  ,4014.17694,N,11
          0020  31 34 31 2E 36 35 31 34 31 2C 57 2C 31 2C 31 32  141.65141,W,1,12
          0030  2C 30 2E 36 36 2C 31 33 38 30 2E 31 2C 4D 2C 2D  ,0.66,1380.1,M,-
          0040  31 38 2E 38 2C 4D 2C 2C 2A 34 46 0D 0A           18.8,M,,*4F...
          
13:20:37  0000  24 47 4E 47 53 41 2C 41 2C 33 2C 31 38 2C 30 31  $GNGSA,A,3,18,01
          0010  2C 31 34 2C 31 30 2C 31 31 2C 33 32 2C 32 32 2C  ,14,10,11,32,22,
          0020  30 33 2C 32 35 2C 33 31 2C 2C 2C 31 2E 32 34 2C  03,25,31,,,1.24,
          0030  30 2E 36 36 2C 31 2E 30 35 2A 31 34 0D 0A        0.66,1.05*14...
          
13:20:37  0000  24 47 4E 47 53 41 2C 41 2C 33 2C 37 39 2C 38 36  $GNGSA,A,3,79,86
          0010  2C 36 39 2C 37 31 2C 38 30 2C 38 35 2C 37 30 2C  ,69,71,80,85,70,
          0020  37 33 2C 2C 2C 2C 2C 31 2E 32 34 2C 30 2E 36 36  73,,,,,1.24,0.66
          0030  2C 31 2E 30 35 2A 31 30 0D 0A                    ,1.05*10...
          
13:20:37  0000  24 47 50 47 53 56 2C 33 2C 31 2C 31 31 2C 30 31  $GPGSV,3,1,11,01
          0010  2C 34 30 2C 33 30 32 2C 34 36 2C 30 33 2C 31 35  ,40,302,46,03,15
          0020  2C 33 30 32 2C 33 39 2C 30 38 2C 30 33 2C 32 34  ,302,39,08,03,24
          0030  31 2C 32 36 2C 31 30 2C 33 35 2C 31 30 39 2C 34  1,26,10,35,109,4
          0040  37 2A 37 35 0D 0A                                7*75...
          
13:20:37  0000  24 47 50 47 53 56 2C 33 2C 32 2C 31 31 2C 31 31  $GPGSV,3,2,11,11
          0010  2C 33 32 2C 32 37 37 2C 34 35 2C 31 34 2C 37 36  ,32,277,45,14,76
          0020  2C 33 35 36 2C 34 36 2C 31 38 2C 35 34 2C 32 36  ,356,46,18,54,26
          0030  37 2C 34 37 2C 32 32 2C 33 36 2C 33 30 35 2C 34  7,47,22,36,305,4
          0040  35 2A 37 36 0D 0A                                5*76...
          
13:20:37  0000  24 47 50 47 53 56 2C 33 2C 33 2C 31 31 2C 32 35  $GPGSV,3,3,11,25
          0010  2C 31 34 2C 30 38 34 2C 34 38 2C 33 31 2C 35 37  ,14,084,48,31,57
          0020  2C 31 35 38 2C 34 39 2C 33 32 2C 35 35 2C 30 34  ,158,49,32,55,04
          0030  37 2C 34 39 2A 34 35 0D 0A                       7,49*45...
          
13:20:37  0000  24 47 4C 47 53 56 2C 33 2C 31 2C 30 39 2C 36 39  $GLGSV,3,1,09,69
          0010  2C 31 37 2C 30 38 34 2C 34 32 2C 37 30 2C 35 38  ,17,084,42,70,58
          0020  2C 30 32 38 2C 34 32 2C 37 31 2C 33 37 2C 33 30  ,028,42,71,37,30
          0030  38 2C 34 39 2C 37 33 2C 32 33 2C 31 36 30 2C 34  8,49,73,23,160,4
          0040  37 2A 36 45 0D 0A                                7*6E...
          
13:20:37  0000  24 47 4C 47 53 56 2C 33 2C 32 2C 30 39 2C 37 39  $GLGSV,3,2,09,79
          0010  2C 31 37 2C 30 32 38 2C 34 35 2C 38 30 2C 34 39  ,17,028,45,80,49
          0020  2C 30 39 36 2C 34 37 2C 38 35 2C 32 31 2C 32 32  ,096,47,85,21,22
          0030  35 2C 34 35 2C 38 36 2C 33 33 2C 32 38 36 2C 35  5,45,86,33,286,5
          0040  30 2A 36 41 0D 0A                                0*6A...
          
13:20:37  0000  24 47 4C 47 53 56 2C 33 2C 33 2C 30 39 2C 38 37  $GLGSV,3,3,09,87
          0010  2C 30 38 2C 33 34 30 2C 34 33 2A 35 42 0D 0A     ,08,340,43*5B...
          
13:20:37  0000  24 47 4E 47 4C 4C 2C 34 30 31 34 2E 31 37 36 39  $GNGLL,4014.1769
          0010  34 2C 4E 2C 31 31 31 34 31 2E 36 35 31 34 31 2C  4,N,11141.65141,
          0020  57 2C 31 33 32 30 33 37 2E 30 30 2C 41 2C 41 2A  W,132037.00,A,A*
          0030  36 45 0D 0A                                      6E...
          
13:20:37  0000  B5 62 0A 04 00 00 0E 34                          µb.....4.
          
13:20:38  0000  24 47 4E 52 4D 43 2C 31 33 32 30 33 38 2E 30 30  $GNRMC,132038.00
          0010  2C 41 2C 34 30 31 34 2E 31 37 36 39 33 2C 4E 2C  ,A,4014.17693,N,
          0020  31 31 31 34 31 2E 36 35 31 34 30 2C 57 2C 30 2E  11141.65140,W,0.
          0030  30 30 34 2C 2C 32 37 30 33 31 38 2C 2C 2C 41 2A  004,,270318,,,A*
          0040  37 35 0D 0A                                      75...
          
13:20:38  0000  24 47 4E 56 54 47 2C 2C 54 2C 2C 4D 2C 30 2E 30  $GNVTG,,T,,M,0.0
          0010  30 34 2C 4E 2C 30 2E 30 30 37 2C 4B 2C 41 2A 33  04,N,0.007,K,A*3
          0020  45 0D 0A                                         E...
          
13:20:38  0000  24 47 4E 47 47 41 2C 31 33 32 30 33 38 2E 30 30  $GNGGA,132038.00
          0010  2C 34 30 31 34 2E 31 37 36 39 33 2C 4E 2C 31 31  ,4014.17693,N,11
          0020  31 34 31 2E 36 35 31 34 30 2C 57 2C 31 2C 31 32  141.65140,W,1,12
          0030  2C 30 2E 36 36 2C 31 33 38 30 2E 31 2C 4D 2C 2D  ,0.66,1380.1,M,-
          0040  31 38 2E 38 2C 4D 2C 2C 2A 34 36 0D 0A           18.8,M,,*46...
          
13:20:38  0000  24 47 4E 47 53 41 2C 41 2C 33 2C 31 38 2C 30 31  $GNGSA,A,3,18,01
          0010  2C 31 34 2C 31 30 2C 31 31 2C 33 32 2C 32 32 2C  ,14,10,11,32,22,
          0020  30 33 2C 32 35 2C 33 31 2C 2C 2C 31 2E 32 34 2C  03,25,31,,,1.24,
          0030  30 2E 36 36 2C 31 2E 30 35 2A 31 34 0D 0A        0.66,1.05*14...
          
13:20:38  0000  24 47 4E 47 53 41 2C 41 2C 33 2C 37 39 2C 38 36  $GNGSA,A,3,79,86
          0010  2C 36 39 2C 37 31 2C 38 30 2C 38 35 2C 37 30 2C  ,69,71,80,85,70,
          0020  37 33 2C 2C 2C 2C 2C 31 2E 32 34 2C 30 2E 36 36  73,,,,,1.24,0.66
          0030  2C 31 2E 30 35 2A 31 30 0D 0A                    ,1.05*10...
          
13:20:38  0000  24 47 50 47 53 56 2C 33 2C 31 2C 31 31 2C 30 31  $GPGSV,3,1,11,01
          0010  2C 34 30 2C 33 30 31 2C 34 36 2C 30 33 2C 31 35  ,40,301,46,03,15
          0020  2C 33 30 32 2C 33 39 2C 30 38 2C 30 33 2C 32 34  ,302,39,08,03,24
          0030  31 2C 32 36 2C 31 30 2C 33 35 2C 31 30 39 2C 34  1,26,10,35,109,4
          0040  37 2A 37 36 0D 0A                                7*76...
          
13:20:38  0000  24 47 50 47 53 56 2C 33 2C 32 2C 31 31 2C 31 31  $GPGSV,3,2,11,11
          0010  2C 33 32 2C 32 37 37 2C 34 35 2C 31 34 2C 37 36  ,32,277,45,14,76
          0020  2C 33 35 36 2C 34 36 2C 31 38 2C 35 34 2C 32 36  ,356,46,18,54,26
          0030  37 2C 34 37 2C 32 32 2C 33 36 2C 33 30 35 2C 34  7,47,22,36,305,4
          0040  35 2A 37 36 0D 0A                                5*76...
          
13:20:38  0000  24 47 50 47 53 56 2C 33 2C 33 2C 31 31 2C 32 35  $GPGSV,3,3,11,25
          0010  2C 31 34 2C 30 38 34 2C 34 38 2C 33 31 2C 35 37  ,14,084,48,31,57
          0020  2C 31 35 38 2C 35 30 2C 33 32 2C 35 35 2C 30 34  ,158,50,32,55,04
          0030  37 2C 34 39 2A 34 44 0D 0A                       7,49*4D...
          
13:20:38  0000  24 47 4C 47 53 56 2C 33 2C 31 2C 30 39 2C 36 39  $GLGSV,3,1,09,69
          0010  2C 31 37 2C 30 38 34 2C 34 32 2C 37 30 2C 35 38  ,17,084,42,70,58
          0020  2C 30 32 38 2C 34 32 2C 37 31 2C 33 37 2C 33 30  ,028,42,71,37,30
          0030  38 2C 34 39 2C 37 33 2C 32 33 2C 31 36 30 2C 34  8,49,73,23,160,4
          0040  37 2A 36 45 0D 0A                                7*6E...
          
13:20:38  0000  24 47 4C 47 53 56 2C 33 2C 32 2C 30 39 2C 37 39  $GLGSV,3,2,09,79
          0010  2C 31 37 2C 30 32 38 2C 34 35 2C 38 30 2C 34 39  ,17,028,45,80,49
          0020  2C 30 39 36 2C 34 37 2C 38 35 2C 32 31 2C 32 32  ,096,47,85,21,22
          0030  35 2C 34 36 2C 38 36 2C 33 33 2C 32 38 36 2C 35  5,46,86,33,286,5
          0040  31 2A 36 38 0D 0A                                1*68...
          
13:20:38  0000  24 47 4C 47 53 56 2C 33 2C 33 2C 30 39 2C 38 37  $GLGSV,3,3,09,87
          0010  2C 30 38 2C 33 34 30 2C 34 33 2A 35 42 0D 0A     ,08,340,43*5B...
          
13:20:38  0000  24 47 4E 47 4C 4C 2C 34 30 31 34 2E 31 37 36 39  $GNGLL,4014.1769
          0010  33 2C 4E 2C 31 31 31 34 31 2E 36 35 31 34 30 2C  3,N,11141.65140,
          0020  57 2C 31 33 32 30 33 38 2E 30 30 2C 41 2C 41 2A  W,132038.00,A,A*
          0030  36 37 0D 0A                                      67...
          
13:20:38  0000  B5 62 0A 04 FA 00 45 58 54 20 43 4F 52 45 20 33  µb..ú.EXT CORE 3
          0010  2E 30 31 20 28 64 62 30 63 38 39 29 00 00 00 00  .01 (db0c89)....
          0020  00 00 00 00 30 30 30 38 30 30 30 30 00 00 52 4F  ....00080000..RO
          0030  4D 20 42 41 53 45 20 33 2E 30 31 20 28 31 30 37  M BASE 3.01 (107
          0040  38 38 38 29 00 00 00 00 00 00 00 00 46 57 56 45  888)........FWVE
          0050  52 3D 48 50 47 20 31 2E 34 30 52 45 46 00 00 00  R=HPG 1.40REF...
          0060  00 00 00 00 00 00 00 00 00 00 50 52 4F 54 56 45  ..........PROTVE
          0070  52 3D 32 30 2E 33 30 00 00 00 00 00 00 00 00 00  R=20.30.........
          0080  00 00 00 00 00 00 00 00 4D 4F 44 3D 4E 45 4F 2D  ........MOD=NEO-
          0090  4D 38 50 2D 32 00 00 00 00 00 00 00 00 00 00 00  M8P-2...........
          00A0  00 00 00 00 00 00 46 49 53 3D 30 78 45 46 34 30  ......FIS=0xEF40
          00B0  31 35 20 28 31 30 30 31 31 31 29 00 00 00 00 00  15 (100111).....
          00C0  00 00 00 00 47 50 53 3B 47 4C 4F 3B 42 44 53 00  ....GPS;GLO;BDS.
          00D0  00 00 00 00 00 00 00 00 00 00 00 00 00 00 00 00  ................
          00E0  00 00 51 5A 53 53 00 00 00 00 00 00 00 00 00 00  ..QZSS..........
          00F0  00 00 00 00 00 00 00 00 00 00 00 00 00 00 00 00  ................
          0100  E8 1F                                            è..
          
13:20:39  0000  24 47 4E 52 4D 43 2C 31 33 32 30 33 39 2E 30 30  $GNRMC,132039.00
          0010  2C 41 2C 34 30 31 34 2E 31 37 36 39 33 2C 4E 2C  ,A,4014.17693,N,
          0020  31 31 31 34 31 2E 36 35 31 34 31 2C 57 2C 30 2E  11141.65141,W,0.
          0030  30 30 33 2C 2C 32 37 30 33 31 38 2C 2C 2C 41 2A  003,,270318,,,A*
          0040  37 32 0D 0A                                      72...
          
13:20:39  0000  24 47 4E 56 54 47 2C 2C 54 2C 2C 4D 2C 30 2E 30  $GNVTG,,T,,M,0.0
          0010  30 33 2C 4E 2C 30 2E 30 30 36 2C 4B 2C 41 2A 33  03,N,0.006,K,A*3
          0020  38 0D 0A                                         8...
          
13:20:39  0000  24 47 4E 47 47 41 2C 31 33 32 30 33 39 2E 30 30  $GNGGA,132039.00
          0010  2C 34 30 31 34 2E 31 37 36 39 33 2C 4E 2C 31 31  ,4014.17693,N,11
          0020  31 34 31 2E 36 35 31 34 31 2C 57 2C 31 2C 31 32  141.65141,W,1,12
          0030  2C 30 2E 36 36 2C 31 33 38 30 2E 32 2C 4D 2C 2D  ,0.66,1380.2,M,-
          0040  31 38 2E 38 2C 4D 2C 2C 2A 34 35 0D 0A           18.8,M,,*45...
          
13:20:39  0000  24 47 4E 47 53 41 2C 41 2C 33 2C 31 38 2C 30 31  $GNGSA,A,3,18,01
          0010  2C 31 34 2C 31 30 2C 31 31 2C 33 32 2C 32 32 2C  ,14,10,11,32,22,
          0020  30 33 2C 32 35 2C 33 31 2C 2C 2C 31 2E 32 34 2C  03,25,31,,,1.24,
          0030  30 2E 36 36 2C 31 2E 30 35 2A 31 34 0D 0A        0.66,1.05*14...
          
13:20:39  0000  24 47 4E 47 53 41 2C 41 2C 33 2C 37 39 2C 38 36  $GNGSA,A,3,79,86
          0010  2C 36 39 2C 37 31 2C 38 30 2C 38 35 2C 37 30 2C  ,69,71,80,85,70,
          0020  37 33 2C 2C 2C 2C 2C 31 2E 32 34 2C 30 2E 36 36  73,,,,,1.24,0.66
          0030  2C 31 2E 30 35 2A 31 30 0D 0A                    ,1.05*10...
          
13:20:39  0000  24 47 50 47 53 56 2C 33 2C 31 2C 31 31 2C 30 31  $GPGSV,3,1,11,01
          0010  2C 34 30 2C 33 30 31 2C 34 35 2C 30 33 2C 31 35  ,40,301,45,03,15
          0020  2C 33 30 32 2C 34 30 2C 30 38 2C 30 33 2C 32 34  ,302,40,08,03,24
          0030  31 2C 32 36 2C 31 30 2C 33 35 2C 31 30 39 2C 34  1,26,10,35,109,4
          0040  38 2A 37 34 0D 0A                                8*74...
          
13:20:39  0000  24 47 50 47 53 56 2C 33 2C 32 2C 31 31 2C 31 31  $GPGSV,3,2,11,11
          0010  2C 33 32 2C 32 37 37 2C 34 35 2C 31 34 2C 37 36  ,32,277,45,14,76
          0020  2C 33 35 36 2C 34 36 2C 31 38 2C 35 34 2C 32 36  ,356,46,18,54,26
          0030  37 2C 34 36 2C 32 32 2C 33 36 2C 33 30 35 2C 34  7,46,22,36,305,4
          0040  35 2A 37 37 0D 0A                                5*77...
          
13:20:39  0000  24 47 50 47 53 56 2C 33 2C 33 2C 31 31 2C 32 35  $GPGSV,3,3,11,25
          0010  2C 31 34 2C 30 38 34 2C 34 38 2C 33 31 2C 35 37  ,14,084,48,31,57
          0020  2C 31 35 38 2C 35 30 2C 33 32 2C 35 35 2C 30 34  ,158,50,32,55,04
          0030  37 2C 34 39 2A 34 44 0D 0A                       7,49*4D...
          
13:20:39  0000  24 47 4C 47 53 56 2C 33 2C 31 2C 30 39 2C 36 39  $GLGSV,3,1,09,69
          0010  2C 31 37 2C 30 38 34 2C 34 33 2C 37 30 2C 35 38  ,17,084,43,70,58
          0020  2C 30 32 38 2C 34 32 2C 37 31 2C 33 37 2C 33 30  ,028,42,71,37,30
          0030  38 2C 34 39 2C 37 33 2C 32 33 2C 31 36 30 2C 34  8,49,73,23,160,4
          0040  37 2A 36 46 0D 0A                                7*6F...
          
13:20:39  0000  24 47 4C 47 53 56 2C 33 2C 32 2C 30 39 2C 37 39  $GLGSV,3,2,09,79
          0010  2C 31 37 2C 30 32 38 2C 34 35 2C 38 30 2C 34 39  ,17,028,45,80,49
          0020  2C 30 39 36 2C 34 37 2C 38 35 2C 32 31 2C 32 32  ,096,47,85,21,22
          0030  35 2C 34 36 2C 38 36 2C 33 33 2C 32 38 36 2C 35  5,46,86,33,286,5
          0040  31 2A 36 38 0D 0A                                1*68...
          
13:20:39  0000  24 47 4C 47 53 56 2C 33 2C 33 2C 30 39 2C 38 37  $GLGSV,3,3,09,87
          0010  2C 30 38 2C 33 34 30 2C 34 33 2A 35 42 0D 0A     ,08,340,43*5B...
          
13:20:39  0000  24 47 4E 47 4C 4C 2C 34 30 31 34 2E 31 37 36 39  $GNGLL,4014.1769
          0010  33 2C 4E 2C 31 31 31 34 31 2E 36 35 31 34 31 2C  3,N,11141.65141,
          0020  57 2C 31 33 32 30 33 39 2E 30 30 2C 41 2C 41 2A  W,132039.00,A,A*
          0030  36 37 0D 0A                                      67...
          
13:20:39  0000  B5 62 0A 04 00 00 0E 34                          µb.....4.
          
13:20:40  0000  24 47 4E 52 4D 43 2C 31 33 32 30 34 30 2E 30 30  $GNRMC,132040.00
          0010  2C 41 2C 34 30 31 34 2E 31 37 36 39 32 2C 4E 2C  ,A,4014.17692,N,
          0020  31 31 31 34 31 2E 36 35 31 34 31 2C 57 2C 30 2E  11141.65141,W,0.
          0030  30 30 33 2C 2C 32 37 30 33 31 38 2C 2C 2C 41 2A  003,,270318,,,A*
          0040  37 44 0D 0A                                      7D...
          
13:20:40  0000  24 47 4E 56 54 47 2C 2C 54 2C 2C 4D 2C 30 2E 30  $GNVTG,,T,,M,0.0
          0010  30 33 2C 4E 2C 30 2E 30 30 36 2C 4B 2C 41 2A 33  03,N,0.006,K,A*3
          0020  38 0D 0A                                         8...
          
13:20:40  0000  24 47 4E 47 47 41 2C 31 33 32 30 34 30 2E 30 30  $GNGGA,132040.00
          0010  2C 34 30 31 34 2E 31 37 36 39 32 2C 4E 2C 31 31  ,4014.17692,N,11
          0020  31 34 31 2E 36 35 31 34 31 2C 57 2C 31 2C 31 32  141.65141,W,1,12
          0030  2C 30 2E 36 36 2C 31 33 38 30 2E 32 2C 4D 2C 2D  ,0.66,1380.2,M,-
          0040  31 38 2E 38 2C 4D 2C 2C 2A 34 41 0D 0A           18.8,M,,*4A...
          
13:20:40  0000  24 47 4E 47 53 41 2C 41 2C 33 2C 31 38 2C 30 31  $GNGSA,A,3,18,01
          0010  2C 31 34 2C 31 30 2C 31 31 2C 33 32 2C 32 32 2C  ,14,10,11,32,22,
          0020  30 33 2C 32 35 2C 33 31 2C 2C 2C 31 2E 32 34 2C  03,25,31,,,1.24,
          0030  30 2E 36 36 2C 31 2E 30 35 2A 31 34 0D 0A        0.66,1.05*14...
          
13:20:40  0000  24 47 4E 47 53 41 2C 41 2C 33 2C 37 39 2C 38 36  $GNGSA,A,3,79,86
          0010  2C 36 39 2C 37 31 2C 38 30 2C 38 35 2C 37 30 2C  ,69,71,80,85,70,
          0020  37 33 2C 2C 2C 2C 2C 31 2E 32 34 2C 30 2E 36 36  73,,,,,1.24,0.66
          0030  2C 31 2E 30 35 2A 31 30 0D 0A                    ,1.05*10...
          
13:20:40  0000  24 47 50 47 53 56 2C 33 2C 31 2C 31 31 2C 30 31  $GPGSV,3,1,11,01
          0010  2C 34 30 2C 33 30 31 2C 34 35 2C 30 33 2C 31 35  ,40,301,45,03,15
          0020  2C 33 30 33 2C 33 39 2C 30 38 2C 30 33 2C 32 34  ,303,39,08,03,24
          0030  31 2C 32 35 2C 31 30 2C 33 35 2C 31 30 39 2C 34  1,25,10,35,109,4
          0040  38 2A 37 38 0D 0A                                8*78...
          
13:20:40  0000  24 47 50 47 53 56 2C 33 2C 32 2C 31 31 2C 31 31  $GPGSV,3,2,11,11
          0010  2C 33 32 2C 32 37 37 2C 34 35 2C 31 34 2C 37 36  ,32,277,45,14,76
          0020  2C 33 35 36 2C 34 36 2C 31 38 2C 35 34 2C 32 36  ,356,46,18,54,26
          0030  37 2C 34 36 2C 32 32 2C 33 36 2C 33 30 35 2C 34  7,46,22,36,305,4
          0040  35 2A 37 37 0D 0A                                5*77...
          
13:20:40  0000  24 47 50 47 53 56 2C 33 2C 33 2C 31 31 2C 32 35  $GPGSV,3,3,11,25
          0010  2C 31 34 2C 30 38 34 2C 34 38 2C 33 31 2C 35 37  ,14,084,48,31,57
          0020  2C 31 35 38 2C 35 30 2C 33 32 2C 35 35 2C 30 34  ,158,50,32,55,04
          0030  37 2C 34 39 2A 34 44 0D 0A                       7,49*4D...
          
13:20:40  0000  24 47 4C 47 53 56 2C 33 2C 31 2C 30 39 2C 36 39  $GLGSV,3,1,09,69
          0010  2C 31 37 2C 30 38 34 2C 34 33 2C 37 30 2C 35 38  ,17,084,43,70,58
          0020  2C 30 32 38 2C 34 32 2C 37 31 2C 33 37 2C 33 30  ,028,42,71,37,30
          0030  38 2C 34 39 2C 37 33 2C 32 33 2C 31 36 30 2C 34  8,49,73,23,160,4
          0040  37 2A 36 46 0D 0A                                7*6F...
          
13:20:40  0000  24 47 4C 47 53 56 2C 33 2C 32 2C 30 39 2C 37 39  $GLGSV,3,2,09,79
          0010  2C 31 37 2C 30 32 38 2C 34 35 2C 38 30 2C 34 39  ,17,028,45,80,49
          0020  2C 30 39 36 2C 34 38 2C 38 35 2C 32 31 2C 32 32  ,096,48,85,21,22
          0030  35 2C 34 36 2C 38 36 2C 33 33 2C 32 38 36 2C 35  5,46,86,33,286,5
          0040  31 2A 36 37 0D 0A                                1*67...
          
13:20:40  0000  24 47 4C 47 53 56 2C 33 2C 33 2C 30 39 2C 38 37  $GLGSV,3,3,09,87
          0010  2C 30 38 2C 33 34 30 2C 34 33 2A 35 42 0D 0A     ,08,340,43*5B...
          
13:20:40  0000  24 47 4E 47 4C 4C 2C 34 30 31 34 2E 31 37 36 39  $GNGLL,4014.1769
          0010  32 2C 4E 2C 31 31 31 34 31 2E 36 35 31 34 31 2C  2,N,11141.65141,
          0020  57 2C 31 33 32 30 34 30 2E 30 30 2C 41 2C 41 2A  W,132040.00,A,A*
          0030  36 38 0D 0A                                      68...
          
13:20:40  0000  B5 62 0A 04 FA 00 45 58 54 20 43 4F 52 45 20 33  µb..ú.EXT CORE 3
          0010  2E 30 31 20 28 64 62 30 63 38 39 29 00 00 00 00  .01 (db0c89)....
          0020  00 00 00 00 30 30 30 38 30 30 30 30 00 00 52 4F  ....00080000..RO
          0030  4D 20 42 41 53 45 20 33 2E 30 31 20 28 31 30 37  M BASE 3.01 (107
          0040  38 38 38 29 00 00 00 00 00 00 00 00 46 57 56 45  888)........FWVE
          0050  52 3D 48 50 47 20 31 2E 34 30 52 45 46 00 00 00  R=HPG 1.40REF...
          0060  00 00 00 00 00 00 00 00 00 00 50 52 4F 54 56 45  ..........PROTVE
          0070  52 3D 32 30 2E 33 30 00 00 00 00 00 00 00 00 00  R=20.30.........
          0080  00 00 00 00 00 00 00 00 4D 4F 44 3D 4E 45 4F 2D  ........MOD=NEO-
          0090  4D 38 50 2D 32 00 00 00 00 00 00 00 00 00 00 00  M8P-2...........
          00A0  00 00 00 00 00 00 46 49 53 3D 30 78 45 46 34 30  ......FIS=0xEF40
          00B0  31 35 20 28 31 30 30 31 31 31 29 00 00 00 00 00  15 (100111).....
          00C0  00 00 00 00 47 50 53 3B 47 4C 4F 3B 42 44 53 00  ....GPS;GLO;BDS.
          00D0  00 00 00 00 00 00 00 00 00 00 00 00 00 00 00 00  ................
          00E0  00 00 51 5A 53 53 00 00 00 00 00 00 00 00 00 00  ..QZSS..........
          00F0  00 00 00 00 00 00 00 00 00 00 00 00 00 00 00 00  ................
          0100  E8 1F                                            è..
          
13:20:41  0000  24 47 4E 52 4D 43 2C 31 33 32 30 34 31 2E 30 30  $GNRMC,132041.00
          0010  2C 41 2C 34 30 31 34 2E 31 37 36 39 31 2C 4E 2C  ,A,4014.17691,N,
          0020  31 31 31 34 31 2E 36 35 31 34 32 2C 57 2C 30 2E  11141.65142,W,0.
          0030  30 30 33 2C 2C 32 37 30 33 31 38 2C 2C 2C 41 2A  003,,270318,,,A*
          0040  37 43 0D 0A                                      7C...
          
13:20:41  0000  24 47 4E 56 54 47 2C 2C 54 2C 2C 4D 2C 30 2E 30  $GNVTG,,T,,M,0.0
          0010  30 33 2C 4E 2C 30 2E 30 30 35 2C 4B 2C 41 2A 33  03,N,0.005,K,A*3
          0020  42 0D 0A                                         B...
          
13:20:41  0000  24 47 4E 47 47 41 2C 31 33 32 30 34 31 2E 30 30  $GNGGA,132041.00
          0010  2C 34 30 31 34 2E 31 37 36 39 31 2C 4E 2C 31 31  ,4014.17691,N,11
          0020  31 34 31 2E 36 35 31 34 32 2C 57 2C 31 2C 31 32  141.65142,W,1,12
          0030  2C 30 2E 36 36 2C 31 33 38 30 2E 33 2C 4D 2C 2D  ,0.66,1380.3,M,-
          0040  31 38 2E 38 2C 4D 2C 2C 2A 34 41 0D 0A           18.8,M,,*4A...
          
13:20:41  0000  24 47 4E 47 53 41 2C 41 2C 33 2C 31 38 2C 30 31  $GNGSA,A,3,18,01
          0010  2C 31 34 2C 31 30 2C 31 31 2C 33 32 2C 32 32 2C  ,14,10,11,32,22,
          0020  30 33 2C 32 35 2C 33 31 2C 2C 2C 31 2E 32 34 2C  03,25,31,,,1.24,
          0030  30 2E 36 36 2C 31 2E 30 35 2A 31 34 0D 0A        0.66,1.05*14...
          
13:20:41  0000  24 47 4E 47 53 41 2C 41 2C 33 2C 37 39 2C 38 36  $GNGSA,A,3,79,86
          0010  2C 36 39 2C 37 31 2C 38 30 2C 38 35 2C 37 30 2C  ,69,71,80,85,70,
          0020  37 33 2C 2C 2C 2C 2C 31 2E 32 34 2C 30 2E 36 36  73,,,,,1.24,0.66
          0030  2C 31 2E 30 35 2A 31 30 0D 0A                    ,1.05*10...
          
13:20:41  0000  24 47 50 47 53 56 2C 33 2C 31 2C 31 31 2C 30 31  $GPGSV,3,1,11,01
          0010  2C 34 30 2C 33 30 31 2C 34 35 2C 30 33 2C 31 35  ,40,301,45,03,15
          0020  2C 33 30 33 2C 33 39 2C 30 38 2C 30 33 2C 32 34  ,303,39,08,03,24
          0030  31 2C 32 35 2C 31 30 2C 33 35 2C 31 30 39 2C 34  1,25,10,35,109,4
          0040  38 2A 37 38 0D 0A                                8*78...
          
13:20:41  0000  24 47 50 47 53 56 2C 33 2C 32 2C 31 31 2C 31 31  $GPGSV,3,2,11,11
          0010  2C 33 32 2C 32 37 37 2C 34 35 2C 31 34 2C 37 36  ,32,277,45,14,76
          0020  2C 33 35 36 2C 34 36 2C 31 38 2C 35 34 2C 32 36  ,356,46,18,54,26
          0030  37 2C 34 36 2C 32 32 2C 33 36 2C 33 30 35 2C 34  7,46,22,36,305,4
          0040  35 2A 37 37 0D 0A                                5*77...
          
13:20:41  0000  24 47 50 47 53 56 2C 33 2C 33 2C 31 31 2C 32 35  $GPGSV,3,3,11,25
          0010  2C 31 34 2C 30 38 34 2C 34 38 2C 33 31 2C 35 37  ,14,084,48,31,57
          0020  2C 31 35 38 2C 35 30 2C 33 32 2C 35 35 2C 30 34  ,158,50,32,55,04
          0030  37 2C 34 39 2A 34 44 0D 0A                       7,49*4D...
          
13:20:41  0000  24 47 4C 47 53 56 2C 33 2C 31 2C 30 39 2C 36 39  $GLGSV,3,1,09,69
          0010  2C 31 37 2C 30 38 34 2C 34 33 2C 37 30 2C 35 38  ,17,084,43,70,58
          0020  2C 30 32 38 2C 34 32 2C 37 31 2C 33 37 2C 33 30  ,028,42,71,37,30
          0030  38 2C 34 39 2C 37 33 2C 32 33 2C 31 36 30 2C 34  8,49,73,23,160,4
          0040  37 2A 36 46 0D 0A                                7*6F...
          
13:20:41  0000  24 47 4C 47 53 56 2C 33 2C 32 2C 30 39 2C 37 39  $GLGSV,3,2,09,79
          0010  2C 31 37 2C 30 32 38 2C 34 35 2C 38 30 2C 34 39  ,17,028,45,80,49
          0020  2C 30 39 36 2C 34 38 2C 38 35 2C 32 31 2C 32 32  ,096,48,85,21,22
          0030  35 2C 34 36 2C 38 36 2C 33 33 2C 32 38 36 2C 35  5,46,86,33,286,5
          0040  31 2A 36 37 0D 0A                                1*67...
          
13:20:41  0000  24 47 4C 47 53 56 2C 33 2C 33 2C 30 39 2C 38 37  $GLGSV,3,3,09,87
          0010  2C 30 38 2C 33 34 30 2C 34 33 2A 35 42 0D 0A     ,08,340,43*5B...
          
13:20:41  0000  24 47 4E 47 4C 4C 2C 34 30 31 34 2E 31 37 36 39  $GNGLL,4014.1769
          0010  31 2C 4E 2C 31 31 31 34 31 2E 36 35 31 34 32 2C  1,N,11141.65142,
          0020  57 2C 31 33 32 30 34 31 2E 30 30 2C 41 2C 41 2A  W,132041.00,A,A*
          0030  36 39 0D 0A                                      69...
          
13:20:42  0000  24 47 4E 52 4D 43 2C 31 33 32 30 34 32 2E 30 30  $GNRMC,132042.00
          0010  2C 41 2C 34 30 31 34 2E 31 37 36 39 30 2C 4E 2C  ,A,4014.17690,N,
          0020  31 31 31 34 31 2E 36 35 31 34 33 2C 57 2C 30 2E  11141.65143,W,0.
          0030  30 30 32 2C 2C 32 37 30 33 31 38 2C 2C 2C 41 2A  002,,270318,,,A*
          0040  37 45 0D 0A                                      7E...
          
13:20:42  0000  24 47 4E 56 54 47 2C 2C 54 2C 2C 4D 2C 30 2E 30  $GNVTG,,T,,M,0.0
          0010  30 32 2C 4E 2C 30 2E 30 30 34 2C 4B 2C 41 2A 33  02,N,0.004,K,A*3
          0020  42 0D 0A                                         B...
          
13:20:42  0000  24 47 4E 47 47 41 2C 31 33 32 30 34 32 2E 30 30  $GNGGA,132042.00
          0010  2C 34 30 31 34 2E 31 37 36 39 30 2C 4E 2C 31 31  ,4014.17690,N,11
          0020  31 34 31 2E 36 35 31 34 33 2C 57 2C 31 2C 31 32  141.65143,W,1,12
          0030  2C 30 2E 36 36 2C 31 33 38 30 2E 33 2C 4D 2C 2D  ,0.66,1380.3,M,-
          0040  31 38 2E 38 2C 4D 2C 2C 2A 34 39 0D 0A           18.8,M,,*49...
          
13:20:42  0000  24 47 4E 47 53 41 2C 41 2C 33 2C 31 38 2C 30 31  $GNGSA,A,3,18,01
          0010  2C 31 34 2C 31 30 2C 31 31 2C 33 32 2C 32 32 2C  ,14,10,11,32,22,
          0020  30 33 2C 32 35 2C 33 31 2C 2C 2C 31 2E 32 34 2C  03,25,31,,,1.24,
          0030  30 2E 36 36 2C 31 2E 30 35 2A 31 34 0D 0A        0.66,1.05*14...
          
13:20:42  0000  24 47 4E 47 53 41 2C 41 2C 33 2C 37 39 2C 38 36  $GNGSA,A,3,79,86
          0010  2C 36 39 2C 37 31 2C 38 30 2C 38 35 2C 37 30 2C  ,69,71,80,85,70,
          0020  37 33 2C 2C 2C 2C 2C 31 2E 32 34 2C 30 2E 36 36  73,,,,,1.24,0.66
          0030  2C 31 2E 30 35 2A 31 30 0D 0A                    ,1.05*10...
          
13:20:42  0000  24 47 50 47 53 56 2C 33 2C 31 2C 31 31 2C 30 31  $GPGSV,3,1,11,01
          0010  2C 34 30 2C 33 30 31 2C 34 36 2C 30 33 2C 31 35  ,40,301,46,03,15
          0020  2C 33 30 33 2C 33 39 2C 30 38 2C 30 33 2C 32 34  ,303,39,08,03,24
          0030  31 2C 32 35 2C 31 30 2C 33 35 2C 31 30 39 2C 34  1,25,10,35,109,4
          0040  38 2A 37 42 0D 0A                                8*7B...
          
13:20:42  0000  24 47 50 47 53 56 2C 33 2C 32 2C 31 31 2C 31 31  $GPGSV,3,2,11,11
          0010  2C 33 32 2C 32 37 37 2C 34 34 2C 31 34 2C 37 36  ,32,277,44,14,76
          0020  2C 33 35 36 2C 34 36 2C 31 38 2C 35 34 2C 32 36  ,356,46,18,54,26
          0030  37 2C 34 36 2C 32 32 2C 33 36 2C 33 30 35 2C 34  7,46,22,36,305,4
          0040  35 2A 37 36 0D 0A                                5*76...
          
13:20:42  0000  24 47 50 47 53 56 2C 33 2C 33 2C 31 31 2C 32 35  $GPGSV,3,3,11,25
          0010  2C 31 34 2C 30 38 34 2C 34 38 2C 33 31 2C 35 37  ,14,084,48,31,57
          0020  2C 31 35 38 2C 35 30 2C 33 32 2C 35 35 2C 30 34  ,158,50,32,55,04
          0030  37 2C 34 39 2A 34 44 0D 0A                       7,49*4D...
          
13:20:42  0000  24 47 4C 47 53 56 2C 33 2C 31 2C 30 39 2C 36 39  $GLGSV,3,1,09,69
          0010  2C 31 37 2C 30 38 34 2C 34 33 2C 37 30 2C 35 38  ,17,084,43,70,58
          0020  2C 30 32 38 2C 34 32 2C 37 31 2C 33 37 2C 33 30  ,028,42,71,37,30
          0030  38 2C 34 39 2C 37 33 2C 32 33 2C 31 36 30 2C 34  8,49,73,23,160,4
          0040  37 2A 36 46 0D 0A                                7*6F...
          
13:20:42  0000  24 47 4C 47 53 56 2C 33 2C 32 2C 30 39 2C 37 39  $GLGSV,3,2,09,79
          0010  2C 31 37 2C 30 32 38 2C 34 36 2C 38 30 2C 34 39  ,17,028,46,80,49
          0020  2C 30 39 36 2C 34 38 2C 38 35 2C 32 31 2C 32 32  ,096,48,85,21,22
          0030  35 2C 34 36 2C 38 36 2C 33 33 2C 32 38 36 2C 35  5,46,86,33,286,5
          0040  31 2A 36 34 0D 0A                                1*64...
          
13:20:42  0000  24 47 4C 47 53 56 2C 33 2C 33 2C 30 39 2C 38 37  $GLGSV,3,3,09,87
          0010  2C 30 38 2C 33 34 30 2C 34 33 2A 35 42 0D 0A     ,08,340,43*5B...
          
13:20:42  0000  24 47 4E 47 4C 4C 2C 34 30 31 34 2E 31 37 36 39  $GNGLL,4014.1769
          0010  30 2C 4E 2C 31 31 31 34 31 2E 36 35 31 34 33 2C  0,N,11141.65143,
          0020  57 2C 31 33 32 30 34 32 2E 30 30 2C 41 2C 41 2A  W,132042.00,A,A*
          0030  36 41 0D 0A                                      6A...
          
13:20:43  0000  24 47 4E 52 4D 43 2C 31 33 32 30 34 33 2E 30 30  $GNRMC,132043.00
          0010  2C 41 2C 34 30 31 34 2E 31 37 36 38 39 2C 4E 2C  ,A,4014.17689,N,
          0020  31 31 31 34 31 2E 36 35 31 34 33 2C 57 2C 30 2E  11141.65143,W,0.
          0030  30 30 32 2C 2C 32 37 30 33 31 38 2C 2C 2C 41 2A  002,,270318,,,A*
          0040  37 37 0D 0A                                      77...
          
13:20:43  0000  24 47 4E 56 54 47 2C 2C 54 2C 2C 4D 2C 30 2E 30  $GNVTG,,T,,M,0.0
          0010  30 32 2C 4E 2C 30 2E 30 30 34 2C 4B 2C 41 2A 33  02,N,0.004,K,A*3
          0020  42 0D 0A                                         B...
          
13:20:43  0000  24 47 4E 47 47 41 2C 31 33 32 30 34 33 2E 30 30  $GNGGA,132043.00
          0010  2C 34 30 31 34 2E 31 37 36 38 39 2C 4E 2C 31 31  ,4014.17689,N,11
          0020  31 34 31 2E 36 35 31 34 33 2C 57 2C 31 2C 31 32  141.65143,W,1,12
          0030  2C 30 2E 36 36 2C 31 33 38 30 2E 33 2C 4D 2C 2D  ,0.66,1380.3,M,-
          0040  31 38 2E 38 2C 4D 2C 2C 2A 34 30 0D 0A           18.8,M,,*40...
          
13:20:43  0000  24 47 4E 47 53 41 2C 41 2C 33 2C 31 38 2C 30 31  $GNGSA,A,3,18,01
          0010  2C 31 34 2C 31 30 2C 31 31 2C 33 32 2C 32 32 2C  ,14,10,11,32,22,
          0020  30 33 2C 32 35 2C 33 31 2C 2C 2C 31 2E 32 34 2C  03,25,31,,,1.24,
          0030  30 2E 36 36 2C 31 2E 30 35 2A 31 34 0D 0A        0.66,1.05*14...
          
13:20:43  0000  24 47 4E 47 53 41 2C 41 2C 33 2C 37 39 2C 38 36  $GNGSA,A,3,79,86
          0010  2C 36 39 2C 37 31 2C 38 30 2C 38 35 2C 37 30 2C  ,69,71,80,85,70,
          0020  37 33 2C 2C 2C 2C 2C 31 2E 32 34 2C 30 2E 36 36  73,,,,,1.24,0.66
          0030  2C 31 2E 30 35 2A 31 30 0D 0A                    ,1.05*10...
          
13:20:43  0000  24 47 50 47 53 56 2C 34 2C 31 2C 31 33 2C 30 31  $GPGSV,4,1,13,01
          0010  2C 34 30 2C 33 30 31 2C 34 35 2C 30 33 2C 31 35  ,40,301,45,03,15
          0020  2C 33 30 33 2C 33 39 2C 30 34 2C 2C 2C 32 38 2C  ,303,39,04,,,28,
          0030  30 38 2C 30 33 2C 32 34 30 2C 32 34 2A 34 30 0D  08,03,240,24*40.
          0040  0A                                               ..
          
13:20:43  0000  24 47 50 47 53 56 2C 34 2C 32 2C 31 33 2C 31 30  $GPGSV,4,2,13,10
          0010  2C 33 35 2C 31 30 39 2C 34 38 2C 31 31 2C 33 32  ,35,109,48,11,32
          0020  2C 32 37 37 2C 34 35 2C 31 32 2C 30 37 2C 30 34  ,277,45,12,07,04
          0030  37 2C 2C 31 34 2C 37 36 2C 33 35 36 2C 34 36 2A  7,,14,76,356,46*
          0040  37 44 0D 0A                                      7D...
          
13:20:43  0000  24 47 50 47 53 56 2C 34 2C 33 2C 31 33 2C 31 38  $GPGSV,4,3,13,18
          0010  2C 35 34 2C 32 36 37 2C 34 36 2C 32 32 2C 33 36  ,54,267,46,22,36
          0020  2C 33 30 35 2C 34 35 2C 32 35 2C 31 34 2C 30 38  ,305,45,25,14,08
          0030  34 2C 34 37 2C 33 31 2C 35 37 2C 31 35 38 2C 35  4,47,31,57,158,5
          0040  30 2A 37 33 0D 0A                                0*73...
          
13:20:43  0000  24 47 50 47 53 56 2C 34 2C 34 2C 31 33 2C 33 32  $GPGSV,4,4,13,32
          0010  2C 35 35 2C 30 34 37 2C 34 39 2A 34 34 0D 0A     ,55,047,49*44...
          
13:20:43  0000  24 47 4C 47 53 56 2C 33 2C 31 2C 30 39 2C 36 39  $GLGSV,3,1,09,69
          0010  2C 31 37 2C 30 38 34 2C 34 33 2C 37 30 2C 35 38  ,17,084,43,70,58
          0020  2C 30 32 38 2C 34 32 2C 37 31 2C 33 37 2C 33 30  ,028,42,71,37,30
          0030  38 2C 34 39 2C 37 33 2C 32 33 2C 31 36 30 2C 34  8,49,73,23,160,4
          0040  37 2A 36 46 0D 0A                                7*6F...
          
13:20:43  0000  24 47 4C 47 53 56 2C 33 2C 32 2C 30 39 2C 37 39  $GLGSV,3,2,09,79
          0010  2C 31 37 2C 30 32 38 2C 34 36 2C 38 30 2C 34 39  ,17,028,46,80,49
          0020  2C 30 39 36 2C 34 38 2C 38 35 2C 32 31 2C 32 32  ,096,48,85,21,22
          0030  35 2C 34 36 2C 38 36 2C 33 33 2C 32 38 36 2C 35  5,46,86,33,286,5
          0040  31 2A 36 34 0D 0A                                1*64...
          
13:20:43  0000  24 47 4C 47 53 56 2C 33 2C 33 2C 30 39 2C 38 37  $GLGSV,3,3,09,87
          0010  2C 30 38 2C 33 34 30 2C 34 33 2A 35 42 0D 0A     ,08,340,43*5B...
          
13:20:43  0000  24 47 4E 47 4C 4C 2C 34 30 31 34 2E 31 37 36 38  $GNGLL,4014.1768
          0010  39 2C 4E 2C 31 31 31 34 31 2E 36 35 31 34 33 2C  9,N,11141.65143,
          0020  57 2C 31 33 32 30 34 33 2E 30 30 2C 41 2C 41 2A  W,132043.00,A,A*
          0030  36 33 0D 0A                                      63...
          
13:20:44  0000  24 47 4E 52 4D 43 2C 31 33 32 30 34 34 2E 30 30  $GNRMC,132044.00
          0010  2C 41 2C 34 30 31 34 2E 31 37 36 38 38 2C 4E 2C  ,A,4014.17688,N,
          0020  31 31 31 34 31 2E 36 35 31 34 34 2C 57 2C 30 2E  11141.65144,W,0.
          0030  30 30 32 2C 2C 32 37 30 33 31 38 2C 2C 2C 41 2A  002,,270318,,,A*
          0040  37 36 0D 0A                                      76...
          
13:20:44  0000  24 47 4E 56 54 47 2C 2C 54 2C 2C 4D 2C 30 2E 30  $GNVTG,,T,,M,0.0
          0010  30 32 2C 4E 2C 30 2E 30 30 34 2C 4B 2C 41 2A 33  02,N,0.004,K,A*3
          0020  42 0D 0A                                         B...
          
13:20:44  0000  24 47 4E 47 47 41 2C 31 33 32 30 34 34 2E 30 30  $GNGGA,132044.00
          0010  2C 34 30 31 34 2E 31 37 36 38 38 2C 4E 2C 31 31  ,4014.17688,N,11
          0020  31 34 31 2E 36 35 31 34 34 2C 57 2C 31 2C 31 32  141.65144,W,1,12
          0030  2C 30 2E 36 36 2C 31 33 38 30 2E 34 2C 4D 2C 2D  ,0.66,1380.4,M,-
          0040  31 38 2E 38 2C 4D 2C 2C 2A 34 36 0D 0A           18.8,M,,*46...
          
13:20:44  0000  24 47 4E 47 53 41 2C 41 2C 33 2C 31 38 2C 30 31  $GNGSA,A,3,18,01
          0010  2C 31 34 2C 31 30 2C 31 31 2C 33 32 2C 32 32 2C  ,14,10,11,32,22,
          0020  30 33 2C 32 35 2C 33 31 2C 2C 2C 31 2E 32 34 2C  03,25,31,,,1.24,
          0030  30 2E 36 36 2C 31 2E 30 35 2A 31 34 0D 0A        0.66,1.05*14...
          
13:20:44  0000  24 47 4E 47 53 41 2C 41 2C 33 2C 37 39 2C 38 36  $GNGSA,A,3,79,86
          0010  2C 36 39 2C 37 31 2C 38 30 2C 38 35 2C 37 30 2C  ,69,71,80,85,70,
          0020  37 33 2C 2C 2C 2C 2C 31 2E 32 34 2C 30 2E 36 36  73,,,,,1.24,0.66
          0030  2C 31 2E 30 35 2A 31 30 0D 0A                    ,1.05*10...
          
13:20:44  0000  24 47 50 47 53 56 2C 33 2C 31 2C 31 32 2C 30 31  $GPGSV,3,1,12,01
          0010  2C 34 30 2C 33 30 31 2C 34 36 2C 30 33 2C 31 35  ,40,301,46,03,15
          0020  2C 33 30 33 2C 33 39 2C 30 38 2C 30 33 2C 32 34  ,303,39,08,03,24
          0030  30 2C 32 34 2C 31 30 2C 33 35 2C 31 30 39 2C 34  0,24,10,35,109,4
          0040  38 2A 37 38 0D 0A                                8*78...
          
13:20:44  0000  24 47 50 47 53 56 2C 33 2C 32 2C 31 32 2C 31 31  $GPGSV,3,2,12,11
          0010  2C 33 32 2C 32 37 37 2C 34 35 2C 31 32 2C 30 37  ,32,277,45,12,07
          0020  2C 30 34 37 2C 2C 31 34 2C 37 36 2C 33 35 36 2C  ,047,,14,76,356,
          0030  34 36 2C 31 38 2C 35 34 2C 32 36 37 2C 34 36 2A  46,18,54,267,46*
          0040  37 31 0D 0A                                      71...
          
13:20:44  0000  24 47 50 47 53 56 2C 33 2C 33 2C 31 32 2C 32 32  $GPGSV,3,3,12,22
          0010  2C 33 36 2C 33 30 35 2C 34 35 2C 32 35 2C 31 34  ,36,305,45,25,14
          0020  2C 30 38 34 2C 34 37 2C 33 31 2C 35 37 2C 31 35  ,084,47,31,57,15
          0030  38 2C 35 30 2C 33 32 2C 35 35 2C 30 34 37 2C 34  8,50,32,55,047,4
          0040  39 2A 37 33 0D 0A                                9*73...
          
13:20:44  0000  24 47 4C 47 53 56 2C 33 2C 31 2C 30 39 2C 36 39  $GLGSV,3,1,09,69
          0010  2C 31 37 2C 30 38 34 2C 34 32 2C 37 30 2C 35 38  ,17,084,42,70,58
          0020  2C 30 32 38 2C 34 32 2C 37 31 2C 33 37 2C 33 30  ,028,42,71,37,30
          0030  38 2C 34 39 2C 37 33 2C 32 33 2C 31 36 30 2C 34  8,49,73,23,160,4
          0040  37 2A 36 45 0D 0A                                7*6E...
          
13:20:44  0000  24 47 4C 47 53 56 2C 33 2C 32 2C 30 39 2C 37 39  $GLGSV,3,2,09,79
          0010  2C 31 37 2C 30 32 38 2C 34 36 2C 38 30 2C 34 39  ,17,028,46,80,49
          0020  2C 30 39 36 2C 34 38 2C 38 35 2C 32 31 2C 32 32  ,096,48,85,21,22
          0030  35 2C 34 37 2C 38 36 2C 33 33 2C 32 38 36 2C 35  5,47,86,33,286,5
          0040  31 2A 36 35 0D 0A                                1*65...
          
13:20:44  0000  24 47 4C 47 53 56 2C 33 2C 33 2C 30 39 2C 38 37  $GLGSV,3,3,09,87
          0010  2C 30 38 2C 33 34 30 2C 34 33 2A 35 42 0D 0A     ,08,340,43*5B...
          
13:20:44  0000  24 47 4E 47 4C 4C 2C 34 30 31 34 2E 31 37 36 38  $GNGLL,4014.1768
          0010  38 2C 4E 2C 31 31 31 34 31 2E 36 35 31 34 34 2C  8,N,11141.65144,
          0020  57 2C 31 33 32 30 34 34 2E 30 30 2C 41 2C 41 2A  W,132044.00,A,A*
          0030  36 32 0D 0A                                      62...
          
13:20:45  0000  24 47 4E 52 4D 43 2C 31 33 32 30 34 35 2E 30 30  $GNRMC,132045.00
          0010  2C 41 2C 34 30 31 34 2E 31 37 36 38 37 2C 4E 2C  ,A,4014.17687,N,
          0020  31 31 31 34 31 2E 36 35 31 34 35 2C 57 2C 30 2E  11141.65145,W,0.
          0030  30 30 32 2C 2C 32 37 30 33 31 38 2C 2C 2C 41 2A  002,,270318,,,A*
          0040  37 39 0D 0A                                      79...
          
13:20:45  0000  24 47 4E 56 54 47 2C 2C 54 2C 2C 4D 2C 30 2E 30  $GNVTG,,T,,M,0.0
          0010  30 32 2C 4E 2C 30 2E 30 30 34 2C 4B 2C 41 2A 33  02,N,0.004,K,A*3
          0020  42 0D 0A                                         B...
          
13:20:45  0000  24 47 4E 47 47 41 2C 31 33 32 30 34 35 2E 30 30  $GNGGA,132045.00
          0010  2C 34 30 31 34 2E 31 37 36 38 37 2C 4E 2C 31 31  ,4014.17687,N,11
          0020  31 34 31 2E 36 35 31 34 35 2C 57 2C 31 2C 31 32  141.65145,W,1,12
          0030  2C 30 2E 36 36 2C 31 33 38 30 2E 34 2C 4D 2C 2D  ,0.66,1380.4,M,-
          0040  31 38 2E 38 2C 4D 2C 2C 2A 34 39 0D 0A           18.8,M,,*49...
          
13:20:45  0000  24 47 4E 47 53 41 2C 41 2C 33 2C 31 38 2C 30 31  $GNGSA,A,3,18,01
          0010  2C 31 34 2C 31 30 2C 31 31 2C 33 32 2C 32 32 2C  ,14,10,11,32,22,
          0020  30 33 2C 32 35 2C 33 31 2C 2C 2C 31 2E 32 34 2C  03,25,31,,,1.24,
          0030  30 2E 36 36 2C 31 2E 30 35 2A 31 34 0D 0A        0.66,1.05*14...
          
13:20:45  0000  24 47 4E 47 53 41 2C 41 2C 33 2C 37 39 2C 38 36  $GNGSA,A,3,79,86
          0010  2C 36 39 2C 37 31 2C 38 30 2C 38 35 2C 37 30 2C  ,69,71,80,85,70,
          0020  37 33 2C 2C 2C 2C 2C 31 2E 32 34 2C 30 2E 36 36  73,,,,,1.24,0.66
          0030  2C 31 2E 30 35 2A 31 30 0D 0A                    ,1.05*10...
          
13:20:45  0000  24 47 50 47 53 56 2C 33 2C 31 2C 31 32 2C 30 31  $GPGSV,3,1,12,01
          0010  2C 34 30 2C 33 30 31 2C 34 36 2C 30 33 2C 31 35  ,40,301,46,03,15
          0020  2C 33 30 33 2C 33 39 2C 30 38 2C 30 33 2C 32 34  ,303,39,08,03,24
          0030  30 2C 32 33 2C 31 30 2C 33 35 2C 31 30 39 2C 34  0,23,10,35,109,4
          0040  38 2A 37 46 0D 0A                                8*7F...
          
13:20:45  0000  24 47 50 47 53 56 2C 33 2C 32 2C 31 32 2C 31 31  $GPGSV,3,2,12,11
          0010  2C 33 32 2C 32 37 37 2C 34 34 2C 31 32 2C 30 37  ,32,277,44,12,07
          0020  2C 30 34 37 2C 2C 31 34 2C 37 36 2C 33 35 36 2C  ,047,,14,76,356,
          0030  34 36 2C 31 38 2C 35 34 2C 32 36 37 2C 34 36 2A  46,18,54,267,46*
          0040  37 30 0D 0A                                      70...
          
13:20:45  0000  24 47 50 47 53 56 2C 33 2C 33 2C 31 32 2C 32 32  $GPGSV,3,3,12,22
          0010  2C 33 36 2C 33 30 35 2C 34 35 2C 32 35 2C 31 34  ,36,305,45,25,14
          0020  2C 30 38 34 2C 34 37 2C 33 31 2C 35 37 2C 31 35  ,084,47,31,57,15
          0030  38 2C 35 30 2C 33 32 2C 35 35 2C 30 34 37 2C 34  8,50,32,55,047,4
          0040  39 2A 37 33 0D 0A                                9*73...
          
13:20:45  0000  24 47 4C 47 53 56 2C 33 2C 31 2C 30 39 2C 36 39  $GLGSV,3,1,09,69
          0010  2C 31 37 2C 30 38 34 2C 34 32 2C 37 30 2C 35 38  ,17,084,42,70,58
          0020  2C 30 32 38 2C 34 32 2C 37 31 2C 33 37 2C 33 30  ,028,42,71,37,30
          0030  38 2C 34 39 2C 37 33 2C 32 33 2C 31 36 30 2C 34  8,49,73,23,160,4
          0040  37 2A 36 45 0D 0A                                7*6E...
          
13:20:45  0000  24 47 4C 47 53 56 2C 33 2C 32 2C 30 39 2C 37 39  $GLGSV,3,2,09,79
          0010  2C 31 37 2C 30 32 38 2C 34 36 2C 38 30 2C 34 39  ,17,028,46,80,49
          0020  2C 30 39 36 2C 34 38 2C 38 35 2C 32 31 2C 32 32  ,096,48,85,21,22
          0030  35 2C 34 37 2C 38 36 2C 33 33 2C 32 38 36 2C 35  5,47,86,33,286,5
          0040  31 2A 36 35 0D 0A                                1*65...
          
13:20:45  0000  24 47 4C 47 53 56 2C 33 2C 33 2C 30 39 2C 38 37  $GLGSV,3,3,09,87
          0010  2C 30 38 2C 33 34 30 2C 34 32 2A 35 41 0D 0A     ,08,340,42*5A...
          
13:20:45  0000  24 47 4E 47 4C 4C 2C 34 30 31 34 2E 31 37 36 38  $GNGLL,4014.1768
          0010  37 2C 4E 2C 31 31 31 34 31 2E 36 35 31 34 35 2C  7,N,11141.65145,
          0020  57 2C 31 33 32 30 34 35 2E 30 30 2C 41 2C 41 2A  W,132045.00,A,A*
          0030  36 44 0D 0A                                      6D...
          
13:20:46  0000  24 47 4E 52 4D 43 2C 31 33 32 30 34 36 2E 30 30  $GNRMC,132046.00
          0010  2C 41 2C 34 30 31 34 2E 31 37 36 38 36 2C 4E 2C  ,A,4014.17686,N,
          0020  31 31 31 34 31 2E 36 35 31 34 35 2C 57 2C 30 2E  11141.65145,W,0.
          0030  30 30 32 2C 2C 32 37 30 33 31 38 2C 2C 2C 41 2A  002,,270318,,,A*
          0040  37 42 0D 0A                                      7B...
          
13:20:46  0000  24 47 4E 56 54 47 2C 2C 54 2C 2C 4D 2C 30 2E 30  $GNVTG,,T,,M,0.0
          0010  30 32 2C 4E 2C 30 2E 30 30 34 2C 4B 2C 41 2A 33  02,N,0.004,K,A*3
          0020  42 0D 0A                                         B...
          
13:20:46  0000  24 47 4E 47 47 41 2C 31 33 32 30 34 36 2E 30 30  $GNGGA,132046.00
          0010  2C 34 30 31 34 2E 31 37 36 38 36 2C 4E 2C 31 31  ,4014.17686,N,11
          0020  31 34 31 2E 36 35 31 34 35 2C 57 2C 31 2C 31 32  141.65145,W,1,12
          0030  2C 30 2E 36 36 2C 31 33 38 30 2E 35 2C 4D 2C 2D  ,0.66,1380.5,M,-
          0040  31 38 2E 38 2C 4D 2C 2C 2A 34 41 0D 0A           18.8,M,,*4A...
          
13:20:46  0000  24 47 4E 47 53 41 2C 41 2C 33 2C 31 38 2C 30 31  $GNGSA,A,3,18,01
          0010  2C 31 34 2C 31 30 2C 31 31 2C 33 32 2C 32 32 2C  ,14,10,11,32,22,
          0020  30 33 2C 32 35 2C 33 31 2C 2C 2C 31 2E 32 34 2C  03,25,31,,,1.24,
          0030  30 2E 36 36 2C 31 2E 30 35 2A 31 34 0D 0A        0.66,1.05*14...
          
13:20:46  0000  24 47 4E 47 53 41 2C 41 2C 33 2C 37 39 2C 38 36  $GNGSA,A,3,79,86
          0010  2C 36 39 2C 37 31 2C 38 30 2C 38 35 2C 37 30 2C  ,69,71,80,85,70,
          0020  37 33 2C 2C 2C 2C 2C 31 2E 32 34 2C 30 2E 36 36  73,,,,,1.24,0.66
          0030  2C 31 2E 30 35 2A 31 30 0D 0A                    ,1.05*10...
          
13:20:46  0000  24 47 50 47 53 56 2C 33 2C 31 2C 31 32 2C 30 31  $GPGSV,3,1,12,01
          0010  2C 34 30 2C 33 30 31 2C 34 36 2C 30 33 2C 31 35  ,40,301,46,03,15
          0020  2C 33 30 33 2C 33 39 2C 30 38 2C 30 33 2C 32 34  ,303,39,08,03,24
          0030  30 2C 32 33 2C 31 30 2C 33 35 2C 31 30 39 2C 34  0,23,10,35,109,4
          0040  38 2A 37 46 0D 0A                                8*7F...
          
13:20:46  0000  24 47 50 47 53 56 2C 33 2C 32 2C 31 32 2C 31 31  $GPGSV,3,2,12,11
          0010  2C 33 32 2C 32 37 37 2C 34 35 2C 31 32 2C 30 37  ,32,277,45,12,07
          0020  2C 30 34 37 2C 2C 31 34 2C 37 36 2C 33 35 36 2C  ,047,,14,76,356,
          0030  34 36 2C 31 38 2C 35 34 2C 32 36 37 2C 34 37 2A  46,18,54,267,47*
          0040  37 30 0D 0A                                      70...
          
13:20:46  0000  24 47 50 47 53 56 2C 33 2C 33 2C 31 32 2C 32 32  $GPGSV,3,3,12,22
          0010  2C 33 36 2C 33 30 35 2C 34 35 2C 32 35 2C 31 34  ,36,305,45,25,14
          0020  2C 30 38 34 2C 34 37 2C 33 31 2C 35 37 2C 31 35  ,084,47,31,57,15
          0030  38 2C 35 30 2C 33 32 2C 35 35 2C 30 34 37 2C 34  8,50,32,55,047,4
          0040  39 2A 37 33 0D 0A                                9*73...
          
13:20:46  0000  24 47 4C 47 53 56 2C 33 2C 31 2C 30 39 2C 36 39  $GLGSV,3,1,09,69
          0010  2C 31 37 2C 30 38 34 2C 34 32 2C 37 30 2C 35 38  ,17,084,42,70,58
          0020  2C 30 32 38 2C 34 32 2C 37 31 2C 33 37 2C 33 30  ,028,42,71,37,30
          0030  38 2C 34 39 2C 37 33 2C 32 33 2C 31 36 30 2C 34  8,49,73,23,160,4
          0040  37 2A 36 45 0D 0A                                7*6E...
          
13:20:46  0000  24 47 4C 47 53 56 2C 33 2C 32 2C 30 39 2C 37 39  $GLGSV,3,2,09,79
          0010  2C 31 37 2C 30 32 38 2C 34 36 2C 38 30 2C 34 39  ,17,028,46,80,49
          0020  2C 30 39 36 2C 34 38 2C 38 35 2C 32 31 2C 32 32  ,096,48,85,21,22
          0030  35 2C 34 37 2C 38 36 2C 33 33 2C 32 38 36 2C 35  5,47,86,33,286,5
          0040  31 2A 36 35 0D 0A                                1*65...
          
13:20:46  0000  24 47 4C 47 53 56 2C 33 2C 33 2C 30 39 2C 38 37  $GLGSV,3,3,09,87
          0010  2C 30 38 2C 33 34 30 2C 34 32 2A 35 41 0D 0A     ,08,340,42*5A...
          
13:20:46  0000  24 47 4E 47 4C 4C 2C 34 30 31 34 2E 31 37 36 38  $GNGLL,4014.1768
          0010  36 2C 4E 2C 31 31 31 34 31 2E 36 35 31 34 35 2C  6,N,11141.65145,
          0020  57 2C 31 33 32 30 34 36 2E 30 30 2C 41 2C 41 2A  W,132046.00,A,A*
          0030  36 46 0D 0A                                      6F...
          
13:20:46  0000  B5 62 0A 04 00 00 0E 34                          µb.....4.
          
13:20:47  0000  24 47 4E 52 4D 43 2C 31 33 32 30 34 37 2E 30 30  $GNRMC,132047.00
          0010  2C 41 2C 34 30 31 34 2E 31 37 36 38 35 2C 4E 2C  ,A,4014.17685,N,
          0020  31 31 31 34 31 2E 36 35 31 34 36 2C 57 2C 30 2E  11141.65146,W,0.
          0030  30 30 32 2C 2C 32 37 30 33 31 38 2C 2C 2C 41 2A  002,,270318,,,A*
          0040  37 41 0D 0A                                      7A...
          
13:20:47  0000  24 47 4E 56 54 47 2C 2C 54 2C 2C 4D 2C 30 2E 30  $GNVTG,,T,,M,0.0
          0010  30 32 2C 4E 2C 30 2E 30 30 34 2C 4B 2C 41 2A 33  02,N,0.004,K,A*3
          0020  42 0D 0A                                         B...
          
13:20:47  0000  24 47 4E 47 47 41 2C 31 33 32 30 34 37 2E 30 30  $GNGGA,132047.00
          0010  2C 34 30 31 34 2E 31 37 36 38 35 2C 4E 2C 31 31  ,4014.17685,N,11
          0020  31 34 31 2E 36 35 31 34 36 2C 57 2C 31 2C 31 32  141.65146,W,1,12
          0030  2C 30 2E 36 36 2C 31 33 38 30 2E 35 2C 4D 2C 2D  ,0.66,1380.5,M,-
          0040  31 38 2E 38 2C 4D 2C 2C 2A 34 42 0D 0A           18.8,M,,*4B...
          
13:20:47  0000  24 47 4E 47 53 41 2C 41 2C 33 2C 31 38 2C 30 31  $GNGSA,A,3,18,01
          0010  2C 31 34 2C 31 30 2C 31 31 2C 33 32 2C 32 32 2C  ,14,10,11,32,22,
          0020  30 33 2C 32 35 2C 33 31 2C 2C 2C 31 2E 32 34 2C  03,25,31,,,1.24,
          0030  30 2E 36 36 2C 31 2E 30 35 2A 31 34 0D 0A        0.66,1.05*14...
          
13:20:47  0000  24 47 4E 47 53 41 2C 41 2C 33 2C 37 39 2C 38 36  $GNGSA,A,3,79,86
          0010  2C 36 39 2C 37 31 2C 38 30 2C 38 35 2C 37 30 2C  ,69,71,80,85,70,
          0020  37 33 2C 2C 2C 2C 2C 31 2E 32 34 2C 30 2E 36 36  73,,,,,1.24,0.66
          0030  2C 31 2E 30 35 2A 31 30 0D 0A                    ,1.05*10...
          
13:20:47  0000  24 47 50 47 53 56 2C 33 2C 31 2C 31 32 2C 30 31  $GPGSV,3,1,12,01
          0010  2C 34 30 2C 33 30 31 2C 34 36 2C 30 33 2C 31 35  ,40,301,46,03,15
          0020  2C 33 30 33 2C 33 38 2C 30 38 2C 30 33 2C 32 34  ,303,38,08,03,24
          0030  30 2C 32 33 2C 31 30 2C 33 35 2C 31 30 39 2C 34  0,23,10,35,109,4
          0040  38 2A 37 45 0D 0A                                8*7E...
          
13:20:47  0000  24 47 50 47 53 56 2C 33 2C 32 2C 31 32 2C 31 31  $GPGSV,3,2,12,11
          0010  2C 33 32 2C 32 37 37 2C 34 34 2C 31 32 2C 30 37  ,32,277,44,12,07
          0020  2C 30 34 37 2C 32 32 2C 31 34 2C 37 36 2C 33 35  ,047,22,14,76,35
          0030  36 2C 34 36 2C 31 38 2C 35 34 2C 32 36 37 2C 34  6,46,18,54,267,4
          0040  37 2A 37 31 0D 0A                                7*71...
          
13:20:47  0000  24 47 50 47 53 56 2C 33 2C 33 2C 31 32 2C 32 32  $GPGSV,3,3,12,22
          0010  2C 33 36 2C 33 30 35 2C 34 34 2C 32 35 2C 31 34  ,36,305,44,25,14
          0020  2C 30 38 34 2C 34 37 2C 33 31 2C 35 37 2C 31 35  ,084,47,31,57,15
          0030  38 2C 35 30 2C 33 32 2C 35 35 2C 30 34 37 2C 34  8,50,32,55,047,4
          0040  39 2A 37 32 0D 0A                                9*72...
          
13:20:47  0000  24 47 4C 47 53 56 2C 33 2C 31 2C 30 39 2C 36 39  $GLGSV,3,1,09,69
          0010  2C 31 37 2C 30 38 34 2C 34 31 2C 37 30 2C 35 38  ,17,084,41,70,58
          0020  2C 30 32 38 2C 34 32 2C 37 31 2C 33 37 2C 33 30  ,028,42,71,37,30
          0030  38 2C 34 39 2C 37 33 2C 32 33 2C 31 36 30 2C 34  8,49,73,23,160,4
          0040  36 2A 36 43 0D 0A                                6*6C...
          
13:20:47  0000  24 47 4C 47 53 56 2C 33 2C 32 2C 30 39 2C 37 39  $GLGSV,3,2,09,79
          0010  2C 31 37 2C 30 32 38 2C 34 35 2C 38 30 2C 34 39  ,17,028,45,80,49
          0020  2C 30 39 36 2C 34 38 2C 38 35 2C 32 31 2C 32 32  ,096,48,85,21,22
          0030  35 2C 34 36 2C 38 36 2C 33 33 2C 32 38 36 2C 35  5,46,86,33,286,5
          0040  30 2A 36 36 0D 0A                                0*66...
          
13:20:47  0000  24 47 4C 47 53 56 2C 33 2C 33 2C 30 39 2C 38 37  $GLGSV,3,3,09,87
          0010  2C 30 38 2C 33 34 30 2C 34 31 2A 35 39 0D 0A     ,08,340,41*59...
          
13:20:47  0000  24 47 4E 47 4C 4C 2C 34 30 31 34 2E 31 37 36 38  $GNGLL,4014.1768
          0010  35 2C 4E 2C 31 31 31 34 31 2E 36 35 31 34 36 2C  5,N,11141.65146,
          0020  57 2C 31 33 32 30 34 37 2E 30 30 2C 41 2C 41 2A  W,132047.00,A,A*
          0030  36 45 0D 0A                                      6E...
          
13:20:47  0000  B5 62 0A 04 FA 00 45 58 54 20 43 4F 52 45 20 33  µb..ú.EXT CORE 3
          0010  2E 30 31 20 28 64 62 30 63 38 39 29 00 00 00 00  .01 (db0c89)....
          0020  00 00 00 00 30 30 30 38 30 30 30 30 00 00 52 4F  ....00080000..RO
          0030  4D 20 42 41 53 45 20 33 2E 30 31 20 28 31 30 37  M BASE 3.01 (107
          0040  38 38 38 29 00 00 00 00 00 00 00 00 46 57 56 45  888)........FWVE
          0050  52 3D 48 50 47 20 31 2E 34 30 52 45 46 00 00 00  R=HPG 1.40REF...
          0060  00 00 00 00 00 00 00 00 00 00 50 52 4F 54 56 45  ..........PROTVE
          0070  52 3D 32 30 2E 33 30 00 00 00 00 00 00 00 00 00  R=20.30.........
          0080  00 00 00 00 00 00 00 00 4D 4F 44 3D 4E 45 4F 2D  ........MOD=NEO-
          0090  4D 38 50 2D 32 00 00 00 00 00 00 00 00 00 00 00  M8P-2...........
          00A0  00 00 00 00 00 00 46 49 53 3D 30 78 45 46 34 30  ......FIS=0xEF40
          00B0  31 35 20 28 31 30 30 31 31 31 29 00 00 00 00 00  15 (100111).....
          00C0  00 00 00 00 47 50 53 3B 47 4C 4F 3B 42 44 53 00  ....GPS;GLO;BDS.
          00D0  00 00 00 00 00 00 00 00 00 00 00 00 00 00 00 00  ................
          00E0  00 00 51 5A 53 53 00 00 00 00 00 00 00 00 00 00  ..QZSS..........
          00F0  00 00 00 00 00 00 00 00 00 00 00 00 00 00 00 00  ................
          0100  E8 1F                                            è..
          
13:20:48  0000  24 47 4E 52 4D 43 2C 31 33 32 30 34 38 2E 30 30  $GNRMC,132048.00
          0010  2C 41 2C 34 30 31 34 2E 31 37 36 38 35 2C 4E 2C  ,A,4014.17685,N,
          0020  31 31 31 34 31 2E 36 35 31 34 37 2C 57 2C 30 2E  11141.65147,W,0.
          0030  30 30 32 2C 2C 32 37 30 33 31 38 2C 2C 2C 41 2A  002,,270318,,,A*
          0040  37 34 0D 0A                                      74...
          
13:20:48  0000  24 47 4E 56 54 47 2C 2C 54 2C 2C 4D 2C 30 2E 30  $GNVTG,,T,,M,0.0
          0010  30 32 2C 4E 2C 30 2E 30 30 34 2C 4B 2C 41 2A 33  02,N,0.004,K,A*3
          0020  42 0D 0A                                         B...
          
13:20:48  0000  24 47 4E 47 47 41 2C 31 33 32 30 34 38 2E 30 30  $GNGGA,132048.00
          0010  2C 34 30 31 34 2E 31 37 36 38 35 2C 4E 2C 31 31  ,4014.17685,N,11
          0020  31 34 31 2E 36 35 31 34 37 2C 57 2C 31 2C 31 32  141.65147,W,1,12
          0030  2C 30 2E 36 36 2C 31 33 38 30 2E 35 2C 4D 2C 2D  ,0.66,1380.5,M,-
          0040  31 38 2E 38 2C 4D 2C 2C 2A 34 35 0D 0A           18.8,M,,*45...
          
13:20:48  0000  24 47 4E 47 53 41 2C 41 2C 33 2C 31 38 2C 30 31  $GNGSA,A,3,18,01
          0010  2C 31 34 2C 31 30 2C 31 31 2C 33 32 2C 32 32 2C  ,14,10,11,32,22,
          0020  30 33 2C 32 35 2C 33 31 2C 2C 2C 31 2E 32 34 2C  03,25,31,,,1.24,
          0030  30 2E 36 36 2C 31 2E 30 35 2A 31 34 0D 0A        0.66,1.05*14...
          
13:20:48  0000  24 47 4E 47 53 41 2C 41 2C 33 2C 37 39 2C 38 36  $GNGSA,A,3,79,86
          0010  2C 36 39 2C 37 31 2C 38 30 2C 38 35 2C 37 30 2C  ,69,71,80,85,70,
          0020  37 33 2C 2C 2C 2C 2C 31 2E 32 34 2C 30 2E 36 36  73,,,,,1.24,0.66
          0030  2C 31 2E 30 35 2A 31 30 0D 0A                    ,1.05*10...
          
13:20:48  0000  24 47 50 47 53 56 2C 33 2C 31 2C 31 32 2C 30 31  $GPGSV,3,1,12,01
          0010  2C 34 30 2C 33 30 31 2C 34 36 2C 30 33 2C 31 35  ,40,301,46,03,15
          0020  2C 33 30 33 2C 33 38 2C 30 38 2C 30 33 2C 32 34  ,303,38,08,03,24
          0030  30 2C 32 34 2C 31 30 2C 33 35 2C 31 30 39 2C 34  0,24,10,35,109,4
          0040  38 2A 37 39 0D 0A                                8*79...
          
13:20:48  0000  24 47 50 47 53 56 2C 33 2C 32 2C 31 32 2C 31 31  $GPGSV,3,2,12,11
          0010  2C 33 32 2C 32 37 37 2C 34 34 2C 31 32 2C 30 37  ,32,277,44,12,07
          0020  2C 30 34 37 2C 31 39 2C 31 34 2C 37 36 2C 33 35  ,047,19,14,76,35
          0030  37 2C 34 36 2C 31 38 2C 35 34 2C 32 36 37 2C 34  7,46,18,54,267,4
          0040  37 2A 37 38 0D 0A                                7*78...
          
13:20:48  0000  24 47 50 47 53 56 2C 33 2C 33 2C 31 32 2C 32 32  $GPGSV,3,3,12,22
          0010  2C 33 36 2C 33 30 35 2C 34 35 2C 32 35 2C 31 34  ,36,305,45,25,14
          0020  2C 30 38 34 2C 34 37 2C 33 31 2C 35 37 2C 31 35  ,084,47,31,57,15
          0030  38 2C 35 30 2C 33 32 2C 35 35 2C 30 34 37 2C 34  8,50,32,55,047,4
          0040  39 2A 37 33 0D 0A                                9*73...
          
13:20:48  0000  24 47 4C 47 53 56 2C 33 2C 31 2C 30 39 2C 36 39  $GLGSV,3,1,09,69
          0010  2C 31 37 2C 30 38 34 2C 34 32 2C 37 30 2C 35 38  ,17,084,42,70,58
          0020  2C 30 32 38 2C 34 32 2C 37 31 2C 33 37 2C 33 30  ,028,42,71,37,30
          0030  38 2C 35 30 2C 37 33 2C 32 33 2C 31 36 30 2C 34  8,50,73,23,160,4
          0040  37 2A 36 36 0D 0A                                7*66...
          
13:20:48  0000  24 47 4C 47 53 56 2C 33 2C 32 2C 30 39 2C 37 39  $GLGSV,3,2,09,79
          0010  2C 31 37 2C 30 32 38 2C 34 36 2C 38 30 2C 34 39  ,17,028,46,80,49
          0020  2C 30 39 36 2C 34 38 2C 38 35 2C 32 31 2C 32 32  ,096,48,85,21,22
          0030  35 2C 34 36 2C 38 36 2C 33 33 2C 32 38 36 2C 35  5,46,86,33,286,5
          0040  31 2A 36 34 0D 0A                                1*64...
          
13:20:48  0000  24 47 4C 47 53 56 2C 33 2C 33 2C 30 39 2C 38 37  $GLGSV,3,3,09,87
          0010  2C 30 38 2C 33 34 30 2C 34 31 2A 35 39 0D 0A     ,08,340,41*59...
          
13:20:48  0000  24 47 4E 47 4C 4C 2C 34 30 31 34 2E 31 37 36 38  $GNGLL,4014.1768
          0010  35 2C 4E 2C 31 31 31 34 31 2E 36 35 31 34 37 2C  5,N,11141.65147,
          0020  57 2C 31 33 32 30 34 38 2E 30 30 2C 41 2C 41 2A  W,132048.00,A,A*
          0030  36 30 0D 0A                                      60...
          
13:20:49  0000  24 47 4E 52 4D 43 2C 31 33 32 30 34 39 2E 30 30  $GNRMC,132049.00
          0010  2C 41 2C 34 30 31 34 2E 31 37 36 38 34 2C 4E 2C  ,A,4014.17684,N,
          0020  31 31 31 34 31 2E 36 35 31 34 38 2C 57 2C 30 2E  11141.65148,W,0.
          0030  30 30 33 2C 2C 32 37 30 33 31 38 2C 2C 2C 41 2A  003,,270318,,,A*
          0040  37 41 0D 0A                                      7A...
          
13:20:49  0000  24 47 4E 56 54 47 2C 2C 54 2C 2C 4D 2C 30 2E 30  $GNVTG,,T,,M,0.0
          0010  30 33 2C 4E 2C 30 2E 30 30 35 2C 4B 2C 41 2A 33  03,N,0.005,K,A*3
          0020  42 0D 0A                                         B...
          
13:20:49  0000  24 47 4E 47 47 41 2C 31 33 32 30 34 39 2E 30 30  $GNGGA,132049.00
          0010  2C 34 30 31 34 2E 31 37 36 38 34 2C 4E 2C 31 31  ,4014.17684,N,11
