$GNGSA,A,3,83,77,79,78,67,84,69,68,,,,,1.25,0.66,1.06*1B

$GPGSV,3,1,12,01,44,258,46,03,42,311,44,04,,,43,10,09,130,*4B

$GPGSV,3,2,12,11,21,245,43,14,53,052,46,22,63,305,46,23,16,271,38*72

$GPGSV,3,3,12,25,18,054,38,26,19,145,41,31,71,078,50,32,30,070,44*7C

$GLGSV,3,1,10,67,40,088,47,68,60,353,48,69,19,308,38,77,43,045,44*60

$GLGSV,3,2,10,78,61,137,51,79,26,181,47,83,12,245,25,84,19,300,35*60

$GLGSV,3,3,10,85,03,348,22,,,,40*51

$GNGLL,4014.78367,N,11138.94969,W,161954.00,A,A*66

second #285
SENT CFG_CHECK: B5 62 01 3B 00 00 3C B5
487ef412
318013
30010000
101147f5
d56efce4
36d16f18
26
08
06
84560000
31010000
00
01
UBX-NAV-SVIN: b562013b280000000000487ef41230010000101147f5d56efce436d16f1826080600845600003101000000010000b07d

Time of Week: 318013000ms - Wednesday 16:20:13

Suverying for: 304

ECEF position in m: (-1798919.5162,-4532186.029200001,4099812.3806)

Accuracy in m: 2.2148

Sample count: 305

SVIN valid?: False

SVIN active?: True



$GNRMC,161955.00,A,4014.78367,N,11138.94969,W,0.003,,280218,,,A*7C

$GNVTG,,T,,M,0.003,N,0.005,K,A*3B

$GNGGA,161955.00,4014.78367,N,11138.94969,W,1,12,0.66,1422.9,M,-18.8,M,,*41

$GNGSA,A,3,03,22,01,11,23,26,31,32,25,14,,,1.25,0.66,1.06*1B

$GNGSA,A,3,83,77,79,78,67,84,69,68,,,,,1.25,0.66,1.06*1B

$GPGSV,3,1,12,01,44,258,46,03,42,311,44,04,,,43,10,09,130,*4B

$GPGSV,3,2,12,11,21,245,43,14,53,052,46,22,63,305,46,23,16,271,44*79

$GPGSV,3,3,12,25,18,054,38,26,19,145,41,31,71,078,50,32,30,070,44*7C

$GLGSV,3,1,10,67,40,088,47,68,60,353,48,69,19,308,40,77,43,045,44*6F

$GLGSV,3,2,10,78,61,137,51,79,26,181,47,83,12,245,25,84,19,300,31*64

$GLGSV,3,3,10,85,03,348,22,,,,32*54

$GNGLL,4014.78367,N,11138.94969,W,161955.00,A,A*67

second #286
SENT CFG_CHECK: B5 62 01 3B 00 00 3C B5
3082f412
318014
31010000
101147f5
d56efce4
36d16f18
2c
00
1e
6f560000
32010000
00
01
UBX-NAV-SVIN: b562013b2800000000003082f41231010000101147f5d56efce436d16f182c001e006f56000032010000000100009f0d

Time of Week: 318014000ms - Wednesday 16:20:14

Suverying for: 305

ECEF position in m: (-1798919.5156,-4532186.03,4099812.383)

Accuracy in m: 2.2127

Sample count: 306

SVIN valid?: False

SVIN active?: True



$GNRMC,161956.00,A,4014.78367,N,11138.94969,W,0.003,,280218,,,A*7F

$GNVTG,,T,,M,0.003,N,0.006,K,A*38

$GNGGA,161956.00,4014.78367,N,11138.94969,W,1,12,0.68,1422.9,M,-18.8,M,,*4C

$GNGSA,A,3,03,22,01,11,23,26,31,32,25,14,,,1.29,0.68,1.09*16

$GNGSA,A,3,83,77,79,78,67,84,69,68,,,,,1.29,0.68,1.09*16

$GPGSV,3,1,12,01,44,258,46,03,42,311,44,04,,,43,10,09,130,*4B

$GPGSV,3,2,12,11,21,245,43,14,53,052,46,22,63,305,46,23,16,271,43*7E

$GPGSV,3,3,12,25,18,054,38,26,19,145,41,31,71,078,50,32,30,070,44*7C

$GLGSV,3,1,10,67,40,088,47,68,60,353,48,69,19,308,37,77,43,045,44*6F

$GLGSV,3,2,10,78,61,137,51,79,26,181,47,83,12,245,25,84,19,300,35*60

$GLGSV,3,3,10,85,03,348,22,,,,42*53

$GNGLL,4014.78367,N,11138.94969,W,161956.00,A,A*64

second #287
SENT CFG_CHECK: B5 62 01 3B 00 00 3C B5
1886f412
318015
32010000
111147f5
d56efce4
37d16f18
ce
f8
d2
59560000
33010000
00
01
UBX-NAV-SVIN: b562013b2800000000001886f41232010000111147f5d56efce437d16f18cef8d200595600003301000000010000c709

Time of Week: 318015000ms - Wednesday 16:20:15

Suverying for: 306

ECEF position in m: (-1798919.4894,-4532186.0052000005,4099812.4110000003)

Accuracy in m: 2.2105

Sample count: 307

SVIN valid?: False

SVIN active?: True



$GNRMC,161957.00,A,4014.78367,N,11138.94969,W,0.003,,280218,,,A*7E

$GNVTG,,T,,M,0.003,N,0.005,K,A*3B

$GNGGA,161957.00,4014.78367,N,11138.94969,W,1,12,0.68,1422.9,M,-18.8,M,,*4D

$GNGSA,A,3,03,22,01,11,23,26,31,32,25,14,,,1.29,0.68,1.09*16

$GNGSA,A,3,83,77,79,78,67,84,69,68,,,,,1.29,0.68,1.09*16

$GPGSV,3,1,12,01,44,258,46,03,42,311,44,04,,,43,10,09,130,*4B

$GPGSV,3,2,12,11,21,245,44,14,53,053,46,22,63,305,46,23,16,271,44*7F

$GPGSV,3,3,12,25,18,054,38,26,19,145,41,31,71,078,50,32,30,070,44*7C

$GLGSV,3,1,10,67,40,088,47,68,60,353,48,69,19,308,39,77,43,045,44*61

$GLGSV,3,2,10,78,61,137,51,79,26,181,47,83,12,245,24,84,19,300,35*61

$GLGSV,3,3,10,85,03,348,23,,,,40*50

$GNGLL,4014.78367,N,11138.94969,W,161957.00,A,A*65

$GNRMC,161958.00,A,4014.78367,N,11138.94969,W,0.003,,280218,,,A*71

$GNVTG,,T,,M,0.003,N,0.006,K,A*38

$GNGGA,161958.00,4014.78367,N,11138.94969,W,1,12,0.68,1422.9,M,-18.8,M,,*42

$GNGSA,A,3,03,22,01,11,23,26,31,32,25,14,,,1.29,0.68,1.09*16

$GNGSA,A,3,83,77,79,78,67,84,69,68,,,,,1.29,0.68,1.09*16

$GPGSV,3,1,12,01,44,258,46,03,42,311,44,04,,,43,10,09,130,*4B

$GPGSV,3,2,12,11,21,245,43,14,53,053,46,22,63,305,46,23,16,271,44*78

$GPGSV,3,3,12,25,18,054,38,26,19,145,42,31,71,078,50,32,30,070,44*7F

$GLGSV,3,1,10,67,40,088,48,68,60,353,48,69,19,308,38,77,43,045,44*6F

$GLGSV,3,2,10,78,61,137,51,79,26,181,47,83,12,245,24,84,19,300,35*61

$GLGSV,3,3,10,85,03,348,23,,,,40*50

$GNGLL,4014.78367,N,11138.94969,W,161958.00,A,A*6A

second #288
SENT CFG_CHECK: B5 62 01 3B 00 00 3C B5
e88df412
318017
34010000
111147f5
d56efce4
37d16f18
da
e7
03
2e560000
35010000
00
01
UBX-NAV-SVIN: b562013b280000000000e88df41234010000111147f5d56efce437d16f18dae703002e5600003501000000010000a3f9

Time of Week: 318017000ms - Wednesday 16:20:17

Suverying for: 308

ECEF position in m: (-1798919.4882,-4532186.0069,4099812.3903)

Accuracy in m: 2.2062

Sample count: 309

SVIN valid?: False

SVIN active?: True



$GNRMC,161959.00,A,4014.78367,N,11138.94969,W,0.003,,280218,,,A*70

$GNVTG,,T,,M,0.003,N,0.005,K,A*3B

$GNGGA,161959.00,4014.78367,N,11138.94969,W,1,12,0.68,1423.0,M,-18.8,M,,*4B

$GNGSA,A,3,03,22,01,11,23,26,31,32,25,14,,,1.29,0.68,1.09*16

$GNGSA,A,3,83,77,79,78,67,84,69,68,,,,,1.29,0.68,1.09*16

$GPGSV,4,1,13,01,44,258,46,03,42,311,44,04,,,43,10,09,130,*4D

$GPGSV,4,2,13,11,21,245,44,14,53,053,46,16,00,166,,22,63,305,47*7C

$GPGSV,4,3,13,23,16,271,44,25,18,054,37,26,19,145,41,31,71,078,50*72

$GPGSV,4,4,13,32,30,070,44*4E

$GLGSV,3,1,10,67,40,088,48,68,60,353,48,69,19,308,38,77,43,045,44*6F

$GLGSV,3,2,10,78,61,137,51,79,26,181,47,83,12,245,24,84,19,300,35*61

$GLGSV,3,3,10,85,03,348,24,,,,40*57

$GNGLL,4014.78367,N,11138.94969,W,161959.00,A,A*6B

second #289
SENT CFG_CHECK: B5 62 01 3B 00 00 3C B5
d091f412
318018
35010000
111147f5
d56efce4
37d16f18
e0
de
1b
19560000
36010000
00
01
UBX-NAV-SVIN: b562013b280000000000d091f41235010000111147f5d56efce437d16f18e0de1b00195600003601000000010000917a

Time of Week: 318018000ms - Wednesday 16:20:18

Suverying for: 309

ECEF position in m: (-1798919.4876,-4532186.007800001,4099812.3927)

Accuracy in m: 2.2041

Sample count: 310

SVIN valid?: False

SVIN active?: True



$GNRMC,162000.00,A,4014.78367,N,11138.94968,W,0.003,,280218,,,A*77

$GNVTG,,T,,M,0.003,N,0.005,K,A*3B

$GNGGA,162000.00,4014.78367,N,11138.94968,W,1,12,0.68,1423.0,M,-18.8,M,,*4C

$GNGSA,A,3,03,22,01,11,23,26,31,32,25,14,,,1.29,0.68,1.09*16

$GNGSA,A,3,83,77,79,78,67,84,69,68,,,,,1.29,0.68,1.09*16

$GPGSV,4,1,13,01,44,258,46,03,42,311,44,04,,,43,10,09,130,*4D

$GPGSV,4,2,13,11,21,245,44,14,53,053,46,16,00,166,,22,63,305,47*7C

$GPGSV,4,3,13,23,16,271,44,25,18,054,37,26,19,145,42,31,71,078,50*71

$GPGSV,4,4,13,32,30,070,44*4E

$GLGSV,3,1,10,67,40,088,48,68,60,353,49,69,19,308,38,77,43,045,44*6E

$GLGSV,3,2,10,78,61,137,51,79,26,181,47,83,12,245,25,84,19,300,35*60

$GLGSV,3,3,10,85,03,348,25,,,,40*56

$GNGLL,4014.78367,N,11138.94968,W,162000.00,A,A*6C

second #290
SENT CFG_CHECK: B5 62 01 3B 00 00 3C B5
b895f412
318019
36010000
111147f5
d56efce4
38d16f18
e6
d5
d0
03560000
37010000
00
01
UBX-NAV-SVIN: b562013b280000000000b895f41236010000111147f5d56efce438d16f18e6d5d0000356000037010000000100001c99

Time of Week: 318019000ms - Wednesday 16:20:19

Suverying for: 310

ECEF position in m: (-1798919.487,-4532186.0087,4099812.4208)

Accuracy in m: 2.2019

Sample count: 311

SVIN valid?: False

SVIN active?: True



$GNRMC,162001.00,A,4014.78367,N,11138.94968,W,0.003,,280218,,,A*76

$GNVTG,,T,,M,0.003,N,0.005,K,A*3B

$GNGGA,162001.00,4014.78367,N,11138.94968,W,1,12,0.68,1423.0,M,-18.8,M,,*4D

$GNGSA,A,3,03,22,01,11,23,26,31,32,25,14,,,1.29,0.68,1.09*16

$GNGSA,A,3,83,77,79,78,67,84,69,68,,,,,1.29,0.68,1.09*16

$GPGSV,4,1,13,01,44,258,46,03,42,311,44,04,,,43,10,09,130,*4D

$GPGSV,4,2,13,11,21,245,44,14,53,053,46,16,00,166,,22,63,305,47*7C

$GPGSV,4,3,13,23,16,271,43,25,18,054,37,26,19,145,41,31,71,078,50*75

$GPGSV,4,4,13,32,30,070,44*4E

$GLGSV,3,1,10,67,40,088,48,68,60,353,49,69,19,308,38,77,43,045,44*6E

$GLGSV,3,2,10,78,61,137,51,79,26,181,47,83,12,245,25,84,19,300,35*60

$GLGSV,3,3,10,85,03,348,25,,,,40*56

$GNGLL,4014.78367,N,11138.94968,W,162001.00,A,A*6D

second #291
SENT CFG_CHECK: B5 62 01 3B 00 00 3C B5
a099f412
318020
37010000
111147f5
d46efce4
38d16f18
ed
31
e8
ee550000
38010000
00
01
UBX-NAV-SVIN: b562013b280000000000a099f41237010000111147f5d46efce438d16f18ed31e800ee55000038010000000100006ef2

Time of Week: 318020000ms - Wednesday 16:20:20

Suverying for: 311

ECEF position in m: (-1798919.4863,-4532186.0351,4099812.4232)

Accuracy in m: 2.1998

Sample count: 312

SVIN valid?: False

SVIN active?: True



$GNRMC,162002.00,A,4014.78368,N,11138.94968,W,0.003,,280218,,,A*7A

$GNVTG,,T,,M,0.003,N,0.005,K,A*3B

$GNGGA,162002.00,4014.78368,N,11138.94968,W,1,12,0.68,1423.0,M,-18.8,M,,*41

$GNGSA,A,3,03,22,01,11,23,26,31,32,25,14,,,1.29,0.68,1.09*16

$GNGSA,A,3,83,77,79,78,67,84,69,68,,,,,1.29,0.68,1.09*16

$GPGSV,4,1,13,01,44,258,46,03,42,311,44,04,,,43,10,09,130,*4D

$GPGSV,4,2,13,11,21,245,44,14,53,053,46,16,00,166,,22,63,305,47*7C

$GPGSV,4,3,13,23,16,271,43,25,18,054,37,26,19,145,42,31,71,078,50*76

$GPGSV,4,4,13,32,30,070,44*4E

$GLGSV,3,1,10,67,40,088,48,68,60,353,49,69,19,308,38,77,43,045,44*6E

$GLGSV,3,2,10,78,61,137,51,79,26,181,47,83,12,245,25,84,19,300,35*60

$GLGSV,3,3,10,85,03,348,25,,,,40*56

$GNGLL,4014.78368,N,11138.94968,W,162002.00,A,A*61

second #292
SENT CFG_CHECK: B5 62 01 3B 00 00 3C B5
889df412
318021
38010000
111147f5
d46efce4
38d16f18
f3
29
00
d9550000
39010000
00
01
UBX-NAV-SVIN: b562013b280000000000889df41238010000111147f5d46efce438d16f18f3290000d955000039010000000100005d82

Time of Week: 318021000ms - Wednesday 16:20:21

Suverying for: 312

ECEF position in m: (-1798919.4857,-4532186.0359000005,4099812.4)

Accuracy in m: 2.1977

Sample count: 313

SVIN valid?: False

SVIN active?: True



$GNRMC,162003.00,A,4014.78368,N,11138.94967,W,0.003,,280218,,,A*74

$GNVTG,,T,,M,0.003,N,0.005,K,A*3B

$GNGGA,162003.00,4014.78368,N,11138.94967,W,1,12,0.68,1423.0,M,-18.8,M,,*4F

$GNGSA,A,3,03,22,01,11,23,26,31,32,25,14,,,1.29,0.68,1.09*16

$GNGSA,A,3,83,77,79,78,67,84,69,68,,,,,1.29,0.68,1.09*16

$GPGSV,4,1,13,01,44,258,46,03,42,311,44,04,,,43,10,09,130,*4D

$GPGSV,4,2,13,11,21,245,44,14,53,053,46,16,00,166,,22,63,305,47*7C

$GPGSV,4,3,13,23,16,271,43,25,18,054,37,26,19,145,42,31,71,078,50*76

$GPGSV,4,4,13,32,30,070,44*4E

$GLGSV,3,1,10,67,40,088,48,68,60,353,49,69,19,308,38,77,43,045,44*6E

$GLGSV,3,2,10,78,61,137,51,79,26,181,47,83,12,245,25,84,19,300,35*60

$GLGSV,3,3,10,85,03,348,25,,,,40*56

$GNGLL,4014.78368,N,11138.94967,W,162003.00,A,A*6F

second #293
SENT CFG_CHECK: B5 62 01 3B 00 00 3C B5
70a1f412
318022
39010000
111147f5
d46efce4
38d16f18
fa
20
18
c4550000
3a010000
00
01
UBX-NAV-SVIN: b562013b28000000000070a1f41239010000111147f5d46efce438d16f18fa201800c45500003a010000000100004c13

Time of Week: 318022000ms - Wednesday 16:20:22

Suverying for: 313

ECEF position in m: (-1798919.485,-4532186.0368,4099812.4024)

Accuracy in m: 2.1956

Sample count: 314

SVIN valid?: False

SVIN active?: True



$GNRMC,162004.00,A,4014.78368,N,11138.94967,W,0.003,,280218,,,A*73

$GNVTG,,T,,M,0.003,N,0.005,K,A*3B

$GNGGA,162004.00,4014.78368,N,11138.94967,W,1,12,0.68,1422.9,M,-18.8,M,,*40

$GNGSA,A,3,03,22,01,11,23,26,31,32,25,14,,,1.29,0.68,1.09*16

$GNGSA,A,3,83,77,79,78,67,84,69,68,,,,,1.29,0.68,1.09*16

$GPGSV,4,1,13,01,44,258,46,03,42,311,44,04,,,43,10,09,130,*4D

$GPGSV,4,2,13,11,21,245,44,14,53,053,46,16,00,166,,22,63,305,47*7C

$GPGSV,4,3,13,23,16,271,43,25,18,054,37,26,19,145,41,31,71,078,50*75

$GPGSV,4,4,13,32,30,070,44*4E

$GLGSV,3,1,10,67,40,088,48,68,60,353,49,69,19,308,37,77,43,045,44*61

$GLGSV,3,2,10,78,61,137,50,79,26,181,47,83,12,245,26,84,19,300,34*63

$GLGSV,3,3,10,85,03,348,25,,,,40*56

$GNGLL,4014.78368,N,11138.94967,W,162004.00,A,A*68

second #294
SENT CFG_CHECK: B5 62 01 3B 00 00 3C B5
58a5f412
318023
3a010000
111147f5
d46efce4
38d16f18
01
19
2f
af550000
3b010000
00
01
UBX-NAV-SVIN: b562013b28000000000058a5f4123a010000111147f5d46efce438d16f1801192f00af5500003b010000000100003cb4

Time of Week: 318023000ms - Wednesday 16:20:23

Suverying for: 314

ECEF position in m: (-1798919.5099,-4532186.0375,4099812.4047)

Accuracy in m: 2.1935

Sample count: 315

SVIN valid?: False

SVIN active?: True



$GNRMC,162005.00,A,4014.78368,N,11138.94966,W,0.003,,280218,,,A*73

$GNVTG,,T,,M,0.003,N,0.005,K,A*3B

$GNGGA,162005.00,4014.78368,N,11138.94966,W,1,12,0.68,1422.9,M,-18.8,M,,*40

$GNGSA,A,3,03,22,01,11,23,26,31,32,25,14,,,1.29,0.68,1.09*16

$GNGSA,A,3,83,77,79,78,67,84,69,68,,,,,1.29,0.68,1.09*16

$GPGSV,4,1,13,01,44,258,46,03,42,311,44,04,,,43,10,09,130,*4D

$GPGSV,4,2,13,11,21,245,44,14,53,053,46,16,00,166,,22,63,305,47*7C

$GPGSV,4,3,13,23,16,271,43,25,18,054,37,26,19,145,42,31,71,078,50*76

$GPGSV,4,4,13,32,30,070,44*4E

$GLGSV,3,1,10,67,40,088,48,68,60,353,49,69,19,308,37,77,43,045,44*61

$GLGSV,3,2,10,78,61,137,51,79,26,181,47,83,12,245,26,84,19,300,34*62

$GLGSV,3,3,10,85,03,348,25,,,,40*56

$GNGLL,4014.78368,N,11138.94966,W,162005.00,A,A*68

second #295
SENT CFG_CHECK: B5 62 01 3B 00 00 3C B5
40a9f412
318024
3b010000
111147f5
d46efce4
39d16f18
09
11
e3
9a550000
3c010000
00
01
UBX-NAV-SVIN: b562013b28000000000040a9f4123b010000111147f5d46efce439d16f180911e3009a5500003c01000000010000ca00

Time of Week: 318024000ms - Wednesday 16:20:24

Suverying for: 315

ECEF position in m: (-1798919.5091,-4532186.0383,4099812.4327000002)

Accuracy in m: 2.1914

Sample count: 316

SVIN valid?: False

SVIN active?: True



$GNRMC,162006.00,A,4014.78368,N,11138.94966,W,0.003,,280218,,,A*70

$GNVTG,,T,,M,0.003,N,0.005,K,A*3B

$GNGGA,162006.00,4014.78368,N,11138.94966,W,1,12,0.68,1422.9,M,-18.8,M,,*43

$GNGSA,A,3,03,22,01,11,23,26,31,32,25,14,,,1.29,0.68,1.09*16

$GNGSA,A,3,83,77,79,78,67,84,69,68,,,,,1.29,0.68,1.09*16

$GPGSV,4,1,13,01,44,258,46,03,42,311,44,04,,,43,10,09,130,*4D

$GPGSV,4,2,13,11,21,245,44,14,53,053,46,16,00,166,,22,63,305,47*7C

$GPGSV,4,3,13,23,17,272,43,25,18,054,37,26,19,145,41,31,71,078,50*77

$GPGSV,4,4,13,32,30,070,44*4E

$GLGSV,3,1,10,67,40,088,48,68,60,353,49,69,19,308,38,77,43,045,44*6E

$GLGSV,3,2,10,78,61,137,51,79,26,181,47,83,12,245,27,84,19,300,34*63

$GLGSV,3,3,10,85,03,348,24,,,,40*57

$GNGLL,4014.78368,N,11138.94966,W,162006.00,A,A*6B

second #296
SENT CFG_CHECK: B5 62 01 3B 00 00 3C B5
28adf412
318025
3c010000
111147f5
d46efce4
39d16f18
10
0a
fa
86550000
3d010000
00
01
UBX-NAV-SVIN: b562013b28000000000028adf4123c010000111147f5d46efce439d16f18100afa00865500003d01000000010000bbad

Time of Week: 318025000ms - Wednesday 16:20:25

Suverying for: 316

ECEF position in m: (-1798919.5084,-4532186.039,4099812.435)

Accuracy in m: 2.1894

Sample count: 317

SVIN valid?: False

SVIN active?: True



$GNRMC,162007.00,A,4014.78369,N,11138.94966,W,0.003,,280218,,,A*70

$GNVTG,,T,,M,0.003,N,0.006,K,A*38

$GNGGA,162007.00,4014.78369,N,11138.94966,W,1,12,0.66,1422.9,M,-18.8,M,,*4D

$GNGSA,A,3,03,22,01,11,23,26,31,32,25,14,,,1.25,0.66,1.06*1B

$GNGSA,A,3,83,77,79,78,67,84,69,68,,,,,1.25,0.66,1.06*1B

$GPGSV,4,1,13,01,44,258,46,03,42,311,44,04,,,43,10,09,130,*4D

$GPGSV,4,2,13,11,21,245,44,14,53,053,46,16,00,166,,22,63,305,47*7C

$GPGSV,4,3,13,23,17,272,44,25,18,054,36,26,19,145,42,31,71,078,50*72

$GPGSV,4,4,13,32,30,070,44*4E

$GLGSV,3,1,10,67,40,088,48,68,60,353,49,69,19,308,37,77,43,045,44*61

$GLGSV,3,2,10,78,61,137,51,79,26,181,47,83,12,245,28,84,19,300,34*6C

$GLGSV,3,3,10,85,03,348,24,,,,41*56

$GNGLL,4014.78369,N,11138.94966,W,162007.00,A,A*6B

second #297
SENT CFG_CHECK: B5 62 01 3B 00 00 3C B5
10b1f412
318026
3d010000
111147f5
d46efce4
39d16f18
18
03
11
71550000
3e010000
00
01
UBX-NAV-SVIN: b562013b28000000000010b1f4123d010000111147f5d46efce439d16f1818031100715500003e01000000010000ac5e

Time of Week: 318026000ms - Wednesday 16:20:26

Suverying for: 317

ECEF position in m: (-1798919.5076,-4532186.0397,4099812.4117)

Accuracy in m: 2.1873

Sample count: 318

SVIN valid?: False

SVIN active?: True



$GNRMC,162008.00,A,4014.78369,N,11138.94966,W,0.003,,280218,,,A*7F

$GNVTG,,T,,M,0.003,N,0.006,K,A*38

$GNGGA,162008.00,4014.78369,N,11138.94966,W,1,12,0.66,1422.9,M,-18.8,M,,*42

$GNGSA,A,3,03,22,01,11,23,26,31,32,25,14,,,1.25,0.66,1.06*1B

$GNGSA,A,3,83,77,79,78,67,84,69,68,,,,,1.25,0.66,1.06*1B

$GPGSV,4,1,13,01,44,258,46,03,42,311,44,04,,,43,10,09,130,*4D

$GPGSV,4,2,13,11,21,245,44,14,53,053,46,16,00,166,,22,63,305,47*7C

$GPGSV,4,3,13,23,17,272,44,25,18,053,36,26,19,145,41,31,71,078,50*76

$GPGSV,4,4,13,32,30,070,44*4E

$GLGSV,3,1,10,67,40,088,48,68,60,353,49,69,19,308,37,77,43,045,44*61

$GLGSV,3,2,10,78,61,137,51,79,26,181,46,83,12,245,29,84,19,300,34*6C

$GLGSV,3,3,10,85,03,348,24,,,,41*56

$GNGLL,4014.78369,N,11138.94966,W,162008.00,A,A*64

second #298
SENT CFG_CHECK: B5 62 01 3B 00 00 3C B5
f8b4f412
318027
3e010000
111147f5
d46efce4
39d16f18
20
fd
27
5c550000
3f010000
00
01
UBX-NAV-SVIN: b562013b280000000000f8b4f4123e010000111147f5d46efce439d16f1820fd27005c5500003f010000000100009ced

Time of Week: 318027000ms - Wednesday 16:20:27

Suverying for: 318

ECEF position in m: (-1798919.5068,-4532186.0147,4099812.4139)

Accuracy in m: 2.1852

Sample count: 319

SVIN valid?: False

SVIN active?: True



$GNRMC,162009.00,A,4014.78369,N,11138.94965,W,0.003,,280218,,,A*7D

$GNVTG,,T,,M,0.003,N,0.006,K,A*38

$GNGGA,162009.00,4014.78369,N,11138.94965,W,1,12,0.66,1422.9,M,-18.8,M,,*40

$GNGSA,A,3,03,22,01,11,23,26,31,32,25,14,,,1.25,0.66,1.06*1B

$GNGSA,A,3,83,77,79,78,67,84,69,68,,,,,1.25,0.66,1.06*1B

$GPGSV,4,1,13,01,44,258,46,03,42,311,44,04,,,43,10,09,130,*4D

$GPGSV,4,2,13,11,21,245,44,14,53,053,46,16,00,166,,22,63,305,47*7C

$GPGSV,4,3,13,23,17,272,44,25,18,053,36,26,19,144,41,31,71,078,50*77

$GPGSV,4,4,13,32,30,070,44*4E

$GLGSV,3,1,10,67,40,088,48,68,60,353,49,69,19,308,37,77,43,045,44*61

$GLGSV,3,2,10,78,61,137,51,79,26,181,46,83,12,245,29,84,19,300,34*6C

$GLGSV,3,3,10,85,03,348,24,90,,,41*5F

$GNGLL,4014.78369,N,11138.94965,W,162009.00,A,A*66

second #299
SENT CFG_CHECK: B5 62 01 3B 00 00 3C B5
e0b8f412
318028
3f010000
111147f5
d46efce4
3ad16f18
28
f7
d9
48550000
40010000
00
01
UBX-NAV-SVIN: b562013b280000000000e0b8f4123f010000111147f5d46efce43ad16f1828f7d9004855000040010000000100002b47

Time of Week: 318028000ms - Wednesday 16:20:28

Suverying for: 319

ECEF position in m: (-1798919.506,-4532186.0153,4099812.4417)

Accuracy in m: 2.1832

Sample count: 320

SVIN valid?: False

SVIN active?: True



$GNRMC,162010.00,A,4014.78370,N,11138.94965,W,0.004,,280218,,,A*7A

$GNVTG,,T,,M,0.004,N,0.007,K,A*3E

$GNGGA,162010.00,4014.78370,N,11138.94965,W,1,12,0.66,1422.9,M,-18.8,M,,*40

$GNGSA,A,3,03,22,01,11,23,26,31,32,25,14,,,1.25,0.66,1.06*1B

$GNGSA,A,3,83,77,79,78,67,84,69,68,,,,,1.25,0.66,1.06*1B

$GPGSV,4,1,13,01,44,258,46,03,42,311,44,04,,,43,10,09,130,*4D

$GPGSV,4,2,13,11,21,245,44,14,53,053,46,16,00,166,,22,63,305,47*7C

$GPGSV,4,3,13,23,17,272,44,25,18,053,37,26,19,144,41,31,71,078,50*76

$GPGSV,4,4,13,32,30,070,44*4E

$GLGSV,3,1,10,67,40,088,48,68,60,353,49,69,19,308,37,77,43,045,44*61

$GLGSV,3,2,10,78,61,137,51,79,26,181,46,83,12,245,29,84,19,300,34*6C

$GLGSV,3,3,10,85,03,348,24,90,,,41*5F

$GNGLL,4014.78370,N,11138.94965,W,162010.00,A,A*66

second #300
SENT CFG_CHECK: B5 62 01 3B 00 00 3C B5
c8bcf412
318029
40010000
111147f5
d46efce4
3ad16f18
31
f1
f0
34550000
41010000
00
01
UBX-NAV-SVIN: b562013b280000000000c8bcf41240010000111147f5d46efce43ad16f1831f1f0003455000041010000000100001f23

Time of Week: 318029000ms - Wednesday 16:20:29

Suverying for: 320

ECEF position in m: (-1798919.5051,-4532186.0159,4099812.444)

Accuracy in m: 2.1812

Sample count: 321

SVIN valid?: False

SVIN active?: True



$GNRMC,162011.00,A,4014.78370,N,11138.94964,W,0.004,,280218,,,A*7A

$GNVTG,,T,,M,0.004,N,0.007,K,A*3E

$GNGGA,162011.00,4014.78370,N,11138.94964,W,1,12,0.66,1422.9,M,-18.8,M,,*40

$GNGSA,A,3,03,22,01,11,23,26,31,32,25,14,,,1.25,0.66,1.06*1B

$GNGSA,A,3,83,77,79,78,67,84,69,68,,,,,1.25,0.66,1.06*1B

$GPGSV,4,1,13,01,44,258,46,03,42,311,44,04,,,43,10,09,130,*4D

$GPGSV,4,2,13,11,21,245,44,14,53,053,46,16,00,166,,22,63,305,47*7C

$GPGSV,4,3,13,23,17,272,44,25,18,053,37,26,19,144,41,31,71,078,50*76

$GPGSV,4,4,13,32,30,070,44*4E

$GLGSV,3,1,10,67,40,088,48,68,60,353,49,69,19,308,37,77,43,045,44*61

$GLGSV,3,2,10,78,61,137,51,79,26,181,46,83,12,245,31,84,19,300,34*65

$GLGSV,3,3,10,85,03,348,25,90,,,41*5E

$GNGLL,4014.78370,N,11138.94964,W,162011.00,A,A*66

second #301
SENT CFG_CHECK: B5 62 01 3B 00 00 3C B5
b0c0f412
318030
41010000
121147f5
d46efce4
3ad16f18
d6
ec
06
1f550000
42010000
00
01
UBX-NAV-SVIN: b562013b280000000000b0c0f41241010000121147f5d46efce43ad16f18d6ec06001f5500004201000000010000afd0

Time of Week: 318030000ms - Wednesday 16:20:30

Suverying for: 321

ECEF position in m: (-1798919.4786,-4532186.0164,4099812.4206)

Accuracy in m: 2.1791

Sample count: 322

SVIN valid?: False

SVIN active?: True



$GNRMC,162012.00,A,4014.78371,N,11138.94963,W,0.004,,280218,,,A*7F

$GNVTG,,T,,M,0.004,N,0.008,K,A*31

$GNGGA,162012.00,4014.78371,N,11138.94963,W,1,12,0.66,1422.9,M,-18.8,M,,*45

$GNGSA,A,3,03,22,01,11,23,26,31,32,25,14,,,1.25,0.66,1.06*1B

$GNGSA,A,3,83,77,79,78,67,84,69,68,,,,,1.25,0.66,1.06*1B

$GPGSV,4,1,13,01,44,258,46,03,42,311,44,04,,,43,10,09,130,*4D

$GPGSV,4,2,13,11,21,245,44,14,53,053,46,16,00,166,,22,63,305,47*7C

$GPGSV,4,3,13,23,17,272,44,25,18,053,37,26,19,144,42,31,71,078,50*75

$GPGSV,4,4,13,32,30,070,44*4E

$GLGSV,3,1,09,67,40,088,48,68,60,353,49,69,19,308,37,77,43,045,44*69

$GLGSV,3,2,09,78,61,137,51,79,26,181,46,83,12,245,31,84,19,300,34*6D

$GLGSV,3,3,09,85,03,348,25*5A

$GNGLL,4014.78371,N,11138.94963,W,162012.00,A,A*63

second #302
SENT CFG_CHECK: B5 62 01 3B 00 00 3C B5
98c4f412
318031
42010000
121147f5
d46efce4
3ad16f18
e0
e6
1c
0b550000
43010000
00
01
UBX-NAV-SVIN: b562013b28000000000098c4f41242010000121147f5d46efce43ad16f18e0e61c000b5500004301000000010000a3ae

Time of Week: 318031000ms - Wednesday 16:20:31

Suverying for: 322

ECEF position in m: (-1798919.4776,-4532186.017,4099812.4228)

Accuracy in m: 2.1771

Sample count: 323

SVIN valid?: False

SVIN active?: True



$GNRMC,162013.00,A,4014.78371,N,11138.94962,W,0.004,,280218,,,A*7F

$GNVTG,,T,,M,0.004,N,0.008,K,A*31

$GNGGA,162013.00,4014.78371,N,11138.94962,W,1,12,0.66,1422.9,M,-18.8,M,,*45

$GNGSA,A,3,03,22,01,11,23,26,31,32,25,14,,,1.25,0.66,1.06*1B

$GNGSA,A,3,83,77,79,78,67,84,69,68,,,,,1.25,0.66,1.06*1B

$GPGSV,4,1,13,01,44,258,46,03,42,311,44,04,,,43,10,09,130,*4D

$GPGSV,4,2,13,11,21,245,44,14,53,053,45,16,00,166,,22,63,305,47*7F

$GPGSV,4,3,13,23,17,272,44,25,18,053,37,26,19,144,41,31,71,078,50*76

$GPGSV,4,4,13,32,30,070,44*4E

$GLGSV,3,1,10,67,40,088,48,68,60,353,49,69,19,308,37,77,43,045,44*61

$GLGSV,3,2,10,78,61,137,51,79,26,181,46,83,12,245,31,84,19,300,34*65

$GLGSV,3,3,10,85,03,348,25,,,,40*56

$GNGLL,4014.78371,N,11138.94962,W,162013.00,A,A*63

$GNRMC,162014.00,A,4014.78372,N,11138.94961,W,0.005,,280218,,,A*79

$GNVTG,,T,,M,0.005,N,0.009,K,A*31

$GNGGA,162014.00,4014.78372,N,11138.94961,W,1,12,0.66,1422.9,M,-18.8,M,,*42

$GNGSA,A,3,03,22,01,11,23,26,31,32,25,14,,,1.25,0.66,1.06*1B

$GNGSA,A,3,83,77,79,78,67,84,69,68,,,,,1.25,0.66,1.06*1B

$GPGSV,4,1,13,01,44,258,46,03,42,311,44,04,,,43,10,09,130,*4D

$GPGSV,4,2,13,11,21,245,44,14,53,053,45,16,00,166,,22,63,305,47*7F

$GPGSV,4,3,13,23,17,272,44,25,18,053,37,26,19,144,41,31,71,076,50*78

$GPGSV,4,4,13,32,30,070,44*4E

$GLGSV,3,1,10,67,40,088,48,68,60,353,49,69,19,308,37,77,43,045,44*61

$GLGSV,3,2,10,78,61,137,51,79,26,181,46,83,12,245,31,84,19,300,34*65

$GLGSV,3,3,10,85,03,348,25,,,,40*56

$GNGLL,4014.78372,N,11138.94961,W,162014.00,A,A*64

second #303
SENT CFG_CHECK: B5 62 01 3B 00 00 3C B5
68ccf412
318033
44010000
121147f5
d46efce4
3bd16f18
f5
dc
e5
e3540000
45010000
00
01
UBX-NAV-SVIN: b562013b28000000000068ccf41244010000121147f5d46efce43bd16f18f5dce500e354000045010000000100002b37

Time of Week: 318033000ms - Wednesday 16:20:33

Suverying for: 324

ECEF position in m: (-1798919.4755,-4532186.018,4099812.4529000004)

Accuracy in m: 2.1731

Sample count: 325

SVIN valid?: False

SVIN active?: True



$GNRMC,162015.00,A,4014.78373,N,11138.94961,W,0.005,,280218,,,A*79

$GNVTG,,T,,M,0.005,N,0.009,K,A*31

$GNGGA,162015.00,4014.78373,N,11138.94961,W,1,12,0.66,1422.9,M,-18.8,M,,*42

$GNGSA,A,3,03,22,01,11,23,26,31,32,25,14,,,1.25,0.66,1.06*1B

$GNGSA,A,3,83,77,79,78,67,84,69,68,,,,,1.25,0.66,1.06*1B

$GPGSV,4,1,13,01,44,258,46,03,42,311,44,04,,,43,10,09,130,*4D

$GPGSV,4,2,13,11,21,245,44,14,53,053,45,16,00,166,,22,63,305,46*7E

$GPGSV,4,3,13,23,17,272,44,25,18,053,37,26,19,144,41,31,71,076,50*78

$GPGSV,4,4,13,32,30,070,44*4E

$GLGSV,3,1,10,67,40,088,48,68,60,353,49,69,19,308,37,77,43,045,44*61

$GLGSV,3,2,10,78,61,137,51,79,26,181,47,83,12,245,32,84,19,300,34*67

$GLGSV,3,3,10,85,03,348,25,,,,40*56

$GNGLL,4014.78373,N,11138.94961,W,162015.00,A,A*64

second #304
SENT CFG_CHECK: B5 62 01 3B 00 00 3C B5
50d0f412
318034
45010000
121147f5
d46efce4
3bd16f18
00
d7
fc
cf540000
46010000
00
01
UBX-NAV-SVIN: b562013b28000000000050d0f41245010000121147f5d46efce43bd16f1800d7fc00cf54000046010000000100002242

Time of Week: 318034000ms - Wednesday 16:20:34

Suverying for: 325

ECEF position in m: (-1798919.5,-4532186.0185,4099812.4552)

Accuracy in m: 2.1711

Sample count: 326

SVIN valid?: False

SVIN active?: True



$GNRMC,162016.00,A,4014.78373,N,11138.94960,W,0.005,,280218,,,A*7B

$GNVTG,,T,,M,0.005,N,0.009,K,A*31

$GNGGA,162016.00,4014.78373,N,11138.94960,W,1,12,0.66,1422.9,M,-18.8,M,,*40

$GNGSA,A,3,03,22,01,11,23,26,31,32,25,14,,,1.25,0.66,1.06*1B

$GNGSA,A,3,83,77,79,78,67,84,69,68,,,,,1.25,0.66,1.06*1B

$GPGSV,4,1,13,01,44,258,46,03,42,311,44,04,,,43,10,09,130,*4D

$GPGSV,4,2,13,11,21,245,44,14,53,053,45,16,00,166,,22,63,305,46*7E

$GPGSV,4,3,13,23,17,272,44,25,18,053,37,26,19,144,41,31,71,076,50*78

$GPGSV,4,4,13,32,30,070,44*4E

$GLGSV,3,1,10,67,40,088,48,68,60,353,49,69,19,308,38,77,43,045,44*6E

$GLGSV,3,2,10,78,61,137,51,79,26,181,47,83,12,245,33,84,19,300,34*66

$GLGSV,3,3,10,85,03,348,26,,,,40*55

$GNGLL,4014.78373,N,11138.94960,W,162016.00,A,A*66

second #305
SENT CFG_CHECK: B5 62 01 3B 00 00 3C B5
38d4f412
318035
46010000
121147f5
d46efce4
3bd16f18
0b
d2
13
bb540000
47010000
00
01
UBX-NAV-SVIN: b562013b28000000000038d4f41246010000121147f5d46efce43bd16f180bd21300bb5400004701000000010000194d

Time of Week: 318035000ms - Wednesday 16:20:35

Suverying for: 326

ECEF position in m: (-1798919.4989,-4532186.019,4099812.4319)

Accuracy in m: 2.1691

Sample count: 327

SVIN valid?: False

SVIN active?: True



$GNRMC,162017.00,A,4014.78374,N,11138.94959,W,0.005,,280218,,,A*77

$GNVTG,,T,,M,0.005,N,0.009,K,A*31

$GNGGA,162017.00,4014.78374,N,11138.94959,W,1,12,0.66,1422.9,M,-18.8,M,,*4C

$GNGSA,A,3,03,22,01,11,23,26,31,32,25,14,,,1.25,0.66,1.06*1B

$GNGSA,A,3,83,77,79,78,67,84,69,68,,,,,1.25,0.66,1.06*1B

$GPGSV,4,1,13,01,44,258,46,03,42,311,44,04,,,43,10,09,130,*4D

$GPGSV,4,2,13,11,21,245,44,14,53,053,45,16,00,166,,22,63,305,47*7F

$GPGSV,4,3,13,23,17,272,44,25,18,053,37,26,19,144,41,31,71,076,50*78

$GPGSV,4,4,13,32,30,070,44*4E

$GLGSV,3,1,10,67,40,088,48,68,60,353,49,69,19,308,37,77,43,045,44*61

$GLGSV,3,2,10,78,61,137,51,79,26,181,46,83,12,245,33,84,19,300,34*67

$GLGSV,3,3,10,85,03,348,26,,,,40*55

$GNGLL,4014.78374,N,11138.94959,W,162017.00,A,A*6A

second #306
SENT CFG_CHECK: B5 62 01 3B 00 00 3C B5
20d8f412
318036
47010000
121147f5
d36efce4
3bd16f18
16
31
2b
a7540000
48010000
00
01
UBX-NAV-SVIN: b562013b28000000000020d8f41247010000121147f5d36efce43bd16f1816312b00a75400004801000000010000742a

Time of Week: 318036000ms - Wednesday 16:20:36

Suverying for: 327

ECEF position in m: (-1798919.4978,-4532186.0451,4099812.4343000003)

Accuracy in m: 2.1671

Sample count: 328

SVIN valid?: False

SVIN active?: True



$GNRMC,162018.00,A,4014.78374,N,11138.94959,W,0.005,,280218,,,A*78

$GNVTG,,T,,M,0.005,N,0.010,K,A*39

$GNGGA,162018.00,4014.78374,N,11138.94959,W,1,12,0.66,1422.9,M,-18.8,M,,*43

$GNGSA,A,3,03,22,01,11,23,26,31,32,25,14,,,1.25,0.66,1.06*1B

$GNGSA,A,3,83,77,79,78,67,84,69,68,,,,,1.25,0.66,1.06*1B

$GPGSV,4,1,13,01,44,258,46,03,42,311,44,04,,,43,10,09,130,*4D

$GPGSV,4,2,13,11,21,245,44,14,53,053,45,16,00,166,,22,63,305,46*7E

$GPGSV,4,3,13,23,17,272,44,25,18,053,37,26,19,144,41,31,71,076,50*78

$GPGSV,4,4,13,32,30,070,44*4E

$GLGSV,3,1,10,67,40,088,48,68,60,353,49,69,19,308,37,77,43,045,44*61

$GLGSV,3,2,10,78,61,137,51,79,26,181,46,83,12,245,34,84,19,300,34*60

$GLGSV,3,3,10,85,03,348,27,,,,40*54

$GNGLL,4014.78374,N,11138.94959,W,162018.00,A,A*65

second #307
SENT CFG_CHECK: B5 62 01 3B 00 00 3C B5
08dcf412
318037
48010000
121147f5
d36efce4
3cd16f18
22
2c
df
94540000
49010000
00
01
UBX-NAV-SVIN: b562013b28000000000008dcf41248010000121147f5d36efce43cd16f18222cdf009454000049010000000100000bfb

Time of Week: 318037000ms - Wednesday 16:20:37

Suverying for: 328

ECEF position in m: (-1798919.4966,-4532186.0456,4099812.4623)

Accuracy in m: 2.1652

Sample count: 329

SVIN valid?: False

SVIN active?: True



$GNRMC,162019.00,A,4014.78375,N,11138.94958,W,0.006,,280218,,,A*7A

$GNVTG,,T,,M,0.006,N,0.010,K,A*3A

$GNGGA,162019.00,4014.78375,N,11138.94958,W,1,12,0.66,1422.9,M,-18.8,M,,*42

$GNGSA,A,3,03,22,01,11,23,26,31,32,25,14,,,1.25,0.66,1.06*1B

$GNGSA,A,3,83,77,79,78,67,84,69,68,,,,,1.25,0.66,1.06*1B

$GPGSV,4,1,13,01,44,258,46,03,42,311,44,04,,,43,10,09,130,*4D

$GPGSV,4,2,13,11,21,245,44,14,53,053,45,16,00,166,,22,63,305,46*7E

$GPGSV,4,3,13,23,17,272,44,25,18,053,37,26,19,144,41,31,71,076,50*78

$GPGSV,4,4,13,32,30,070,44*4E

$GLGSV,3,1,10,67,40,088,48,68,60,353,49,69,19,308,37,77,43,045,44*61

$GLGSV,3,2,10,78,61,137,51,79,26,181,47,83,12,245,34,84,19,300,34*61

$GLGSV,3,3,10,85,03,348,27,,,,41*55

$GNGLL,4014.78375,N,11138.94958,W,162019.00,A,A*64

second #308
SENT CFG_CHECK: B5 62 01 3B 00 00 3C B5
f0dff412
318038
49010000
121147f5
d36efce4
3cd16f18
2d
26
f7
80540000
4a010000
00
01
UBX-NAV-SVIN: b562013b280000000000f0dff41249010000121147f5d36efce43cd16f182d26f700805400004a0100000001000001e2

Time of Week: 318038000ms - Wednesday 16:20:38

Suverying for: 329

ECEF position in m: (-1798919.4955,-4532186.0462,4099812.4647)

Accuracy in m: 2.1632

Sample count: 330

SVIN valid?: False

SVIN active?: True



$GNRMC,162020.00,A,4014.78376,N,11138.94957,W,0.006,,280218,,,A*7C

$GNVTG,,T,,M,0.006,N,0.011,K,A*3B

$GNGGA,162020.00,4014.78376,N,11138.94957,W,1,12,0.66,1422.9,M,-18.8,M,,*44

$GNGSA,A,3,03,22,01,11,23,26,31,32,25,14,,,1.25,0.66,1.06*1B

$GNGSA,A,3,83,77,79,78,67,84,69,68,,,,,1.25,0.66,1.06*1B

$GPGSV,4,1,13,01,44,258,46,03,42,311,44,04,,,43,10,09,130,*4D

$GPGSV,4,2,13,11,21,245,44,14,53,053,45,16,00,166,,22,63,305,46*7E

$GPGSV,4,3,13,23,17,272,44,25,18,053,37,26,19,144,41,31,71,076,50*78

$GPGSV,4,4,13,32,30,070,44*4E

$GLGSV,3,1,10,67,40,089,48,68,60,353,49,69,19,308,37,77,43,045,44*60

$GLGSV,3,2,10,78,61,137,51,79,26,181,46,83,12,245,35,84,19,300,35*60

$GLGSV,3,3,10,85,03,348,27,,,,41*55

$GNGLL,4014.78376,N,11138.94957,W,162020.00,A,A*62

second #309
SENT CFG_CHECK: B5 62 01 3B 00 00 3C B5
d8e3f412
318039
4a010000
131147f5
d36efce4
3cd16f18
d5
20
10
6c540000
4b010000
00
01
UBX-NAV-SVIN: b562013b280000000000d8e3f4124a010000131147f5d36efce43cd16f18d52010006c5400004b0100000001000097e6

Time of Week: 318039000ms - Wednesday 16:20:39

Suverying for: 330

ECEF position in m: (-1798919.4687,-4532186.0468,4099812.4416)

Accuracy in m: 2.1612

Sample count: 331

SVIN valid?: False

SVIN active?: True



$GNRMC,162021.00,A,4014.78376,N,11138.94956,W,0.006,,280218,,,A*7C

$GNVTG,,T,,M,0.006,N,0.011,K,A*3B

$GNGGA,162021.00,4014.78376,N,11138.94956,W,1,12,0.66,1422.9,M,-18.8,M,,*44

$GNGSA,A,3,03,22,01,11,23,26,31,32,25,14,,,1.25,0.66,1.06*1B

$GNGSA,A,3,83,77,79,78,67,84,69,68,,,,,1.25,0.66,1.06*1B

$GPGSV,4,1,13,01,44,258,46,03,42,311,44,04,,,43,10,09,130,*4D

$GPGSV,4,2,13,11,21,245,44,14,53,053,45,16,00,166,,22,63,305,46*7E

$GPGSV,4,3,13,23,17,272,44,25,18,053,37,26,19,144,41,31,71,076,50*78

$GPGSV,4,4,13,32,30,070,44*4E

$GLGSV,3,1,10,67,40,089,48,68,60,354,49,69,19,308,37,77,43,045,44*67

$GLGSV,3,2,10,78,61,137,51,79,26,181,46,83,12,245,35,84,19,300,34*61

$GLGSV,3,3,10,85,03,348,27,,,,41*55

$GNGLL,4014.78376,N,11138.94956,W,162021.00,A,A*62

second #310
SENT CFG_CHECK: B5 62 01 3B 00 00 3C B5
c0e7f412
318040
4b010000
131147f5
d36efce4
3cd16f18
e1
1a
2a
59540000
4c010000
00
01
UBX-NAV-SVIN: b562013b280000000000c0e7f4124b010000131147f5d36efce43cd16f18e11a2a00595400004c010000000100009228

Time of Week: 318040000ms - Wednesday 16:20:40

Suverying for: 331

ECEF position in m: (-1798919.4675,-4532186.0474,4099812.4442)

Accuracy in m: 2.1593

Sample count: 332

SVIN valid?: False

SVIN active?: True



$GNRMC,162022.00,A,4014.78377,N,11138.94956,W,0.006,,280218,,,A*7E

$GNVTG,,T,,M,0.006,N,0.011,K,A*3B

$GNGGA,162022.00,4014.78377,N,11138.94956,W,1,12,0.66,1423.0,M,-18.8,M,,*4E

$GNGSA,A,3,03,22,01,11,23,26,31,32,25,14,,,1.25,0.66,1.06*1B

$GNGSA,A,3,83,77,79,78,67,84,69,68,,,,,1.25,0.66,1.06*1B

$GPGSV,4,1,13,01,44,258,46,03,42,311,44,04,,,43,10,09,130,*4D

$GPGSV,4,2,13,11,21,245,44,14,53,053,45,16,00,166,,22,63,305,46*7E

$GPGSV,4,3,13,23,17,272,44,25,18,053,37,26,19,144,41,31,71,076,50*78

$GPGSV,4,4,13,32,30,070,44*4E

$GLGSV,3,1,10,67,40,089,48,68,60,354,48,69,19,309,36,77,43,045,44*66

$GLGSV,3,2,10,78,61,137,50,79,26,181,46,83,12,245,34,84,19,300,34*61

$GLGSV,3,3,10,85,03,348,27,,,,40*54

$GNGLL,4014.78377,N,11138.94956,W,162022.00,A,A*60

second #311
SENT CFG_CHECK: B5 62 01 3B 00 00 3C B5
a8ebf412
318041
4c010000
131147f5
d36efce4
3dd16f18
ed
13
e0
46540000
4d010000
00
01
UBX-NAV-SVIN: b562013b280000000000a8ebf4124c010000131147f5d36efce43dd16f18ed13e000465400004d0100000001000029f7

Time of Week: 318041000ms - Wednesday 16:20:41

Suverying for: 332

ECEF position in m: (-1798919.4663,-4532186.0481,4099812.4724000003)

Accuracy in m: 2.1574

Sample count: 333

SVIN valid?: False

SVIN active?: True



$GNRMC,162023.00,A,4014.78377,N,11138.94955,W,0.006,,280218,,,A*7C

$GNVTG,,T,,M,0.006,N,0.011,K,A*3B

$GNGGA,162023.00,4014.78377,N,11138.94955,W,1,12,0.66,1423.0,M,-18.8,M,,*4C

$GNGSA,A,3,03,22,01,11,23,26,31,32,25,14,,,1.25,0.66,1.06*1B

$GNGSA,A,3,83,77,79,78,67,84,69,68,,,,,1.25,0.66,1.06*1B

$GPGSV,4,1,13,01,44,258,46,03,42,311,44,04,,,43,10,09,130,*4D

$GPGSV,4,2,13,11,21,245,44,14,53,053,46,16,00,166,,22,63,305,46*7D

$GPGSV,4,3,13,23,17,272,44,25,18,053,37,26,19,144,41,31,71,076,50*78

$GPGSV,4,4,13,32,30,070,44*4E

$GLGSV,3,1,10,67,40,089,48,68,60,354,48,69,19,309,37,77,43,045,44*67

$GLGSV,3,2,10,78,61,137,50,79,26,181,46,83,12,245,34,84,19,300,34*61

$GLGSV,3,3,10,85,03,348,27,,,,40*54

$GNGLL,4014.78377,N,11138.94955,W,162023.00,A,A*62

second #312
SENT CFG_CHECK: B5 62 01 3B 00 00 3C B5
90eff412
318042
4d010000
131147f5
d36efce4
3dd16f18
f9
0b
fa
32540000
4e010000
00
01
UBX-NAV-SVIN: b562013b28000000000090eff4124d010000131147f5d36efce43dd16f18f90bfa00325400004e01000000010000210f

Time of Week: 318042000ms - Wednesday 16:20:42

Suverying for: 333

ECEF position in m: (-1798919.4651,-4532186.0489,4099812.475)

Accuracy in m: 2.1554

Sample count: 334

SVIN valid?: False

SVIN active?: True



$GNRMC,162024.00,A,4014.78377,N,11138.94954,W,0.006,,280218,,,A*7A

$GNVTG,,T,,M,0.006,N,0.011,K,A*3B

$GNGGA,162024.00,4014.78377,N,11138.94954,W,1,12,0.66,1423.0,M,-18.8,M,,*4A

$GNGSA,A,3,03,22,01,11,23,26,31,32,25,14,,,1.25,0.66,1.06*1B

$GNGSA,A,3,83,77,79,78,67,84,69,68,,,,,1.25,0.66,1.06*1B

$GPGSV,4,1,13,01,44,258,46,03,42,311,44,04,,,43,10,09,130,*4D

$GPGSV,4,2,13,11,21,245,44,14,53,053,46,16,00,166,,22,63,305,46*7D

$GPGSV,4,3,13,23,17,272,44,25,18,053,37,26,19,144,41,31,71,076,50*78

$GPGSV,4,4,13,32,30,070,44*4E

$GLGSV,3,1,10,67,40,089,48,68,60,354,48,69,19,309,37,77,43,045,44*67

$GLGSV,3,2,10,78,61,137,50,79,26,181,46,83,12,245,35,84,19,300,34*60

$GLGSV,3,3,10,85,03,348,27,,,,41*55

$GNGLL,4014.78377,N,11138.94954,W,162024.00,A,A*64

second #313
SENT CFG_CHECK: B5 62 01 3B 00 00 3C B5
78f3f412
318043
4e010000
131147f5
d36efce4
3dd16f18
05
04
15
1f540000
4f010000
00
01
UBX-NAV-SVIN: b562013b28000000000078f3f4124e010000131147f5d36efce43dd16f18050415001f5400004f010000000100001c50

Time of Week: 318043000ms - Wednesday 16:20:43

Suverying for: 334

ECEF position in m: (-1798919.4895,-4532186.0496,4099812.4521000003)

Accuracy in m: 2.1535

Sample count: 335

SVIN valid?: False

SVIN active?: True



$GNRMC,162025.00,A,4014.78378,N,11138.94954,W,0.006,,280218,,,A*74

$GNVTG,,T,,M,0.006,N,0.011,K,A*3B

$GNGGA,162025.00,4014.78378,N,11138.94954,W,1,12,0.66,1423.0,M,-18.8,M,,*44

$GNGSA,A,3,03,22,01,11,23,26,31,32,25,14,,,1.25,0.66,1.06*1B

$GNGSA,A,3,83,77,79,78,67,84,69,68,,,,,1.25,0.66,1.06*1B

$GPGSV,4,1,13,01,44,258,46,03,42,311,44,04,,,43,10,09,130,*4D

$GPGSV,4,2,13,11,21,245,44,14,53,053,46,16,00,166,,22,63,305,46*7D

$GPGSV,4,3,13,23,17,272,44,25,18,053,38,26,19,144,41,31,71,076,50*77

$GPGSV,4,4,13,32,30,070,44*4E

$GLGSV,3,1,10,67,40,089,48,68,60,354,48,69,19,309,36,77,43,045,43*61

$GLGSV,3,2,10,78,61,137,50,79,26,181,46,83,12,245,34,84,19,300,34*61

$GLGSV,3,3,10,85,03,348,27,,,,41*55

$GNGLL,4014.78378,N,11138.94954,W,162025.00,A,A*6A

second #314
SENT CFG_CHECK: B5 62 01 3B 00 00 3C B5
60f7f412
318044
4f010000
131147f5
d36efce4
3dd16f18
11
fb
30
0c540000
50010000
00
01
UBX-NAV-SVIN: b562013b28000000000060f7f4124f010000131147f5d36efce43dd16f1811fb30000c54000050010000000100001573

Time of Week: 318044000ms - Wednesday 16:20:44

Suverying for: 335

ECEF position in m: (-1798919.4883,-4532186.0249,4099812.4548000004)

Accuracy in m: 2.1516

Sample count: 336

SVIN valid?: False

SVIN active?: True



$GNRMC,162026.00,A,4014.78378,N,11138.94953,W,0.006,,280218,,,A*70

$GNVTG,,T,,M,0.006,N,0.011,K,A*3B

$GNGGA,162026.00,4014.78378,N,11138.94953,W,1,12,0.66,1423.1,M,-18.8,M,,*41

$GNGSA,A,3,03,22,01,11,23,26,31,32,25,14,,,1.25,0.66,1.06*1B

$GNGSA,A,3,83,77,79,78,67,84,69,68,,,,,1.25,0.66,1.06*1B

$GPGSV,4,1,13,01,44,258,46,03,42,311,45,04,,,43,10,09,130,*4C

$GPGSV,4,2,13,11,21,245,44,14,53,053,46,16,00,166,,22,63,305,46*7D

$GPGSV,4,3,13,23,17,272,44,25,18,053,38,26,19,144,41,31,71,076,50*77

$GPGSV,4,4,13,32,30,070,44*4E

$GLGSV,3,1,10,67,40,089,48,68,60,354,48,69,19,309,36,77,43,045,44*66

$GLGSV,3,2,10,78,61,137,50,79,26,181,46,83,12,245,34,84,19,300,34*61

$GLGSV,3,3,10,85,03,348,27,,,,41*55

$GNGLL,4014.78378,N,11138.94953,W,162026.00,A,A*6E

second #315
SENT CFG_CHECK: B5 62 01 3B 00 00 3C B5
48fbf412
318045
50010000
131147f5
d36efce4
3ed16f18
1d
f2
e8
f9530000
51010000
00
01
UBX-NAV-SVIN: b562013b28000000000048fbf41250010000131147f5d36efce43ed16f181df2e800f95300005101000000010000ab35

Time of Week: 318045000ms - Wednesday 16:20:45

Suverying for: 336

ECEF position in m: (-1798919.4871,-4532186.0258,4099812.4832)

Accuracy in m: 2.1497

Sample count: 337

SVIN valid?: False

SVIN active?: True



$GNRMC,162027.00,A,4014.78378,N,11138.94953,W,0.006,,280218,,,A*71

$GNVTG,,T,,M,0.006,N,0.011,K,A*3B

$GNGGA,162027.00,4014.78378,N,11138.94953,W,1,12,0.66,1423.1,M,-18.8,M,,*40

$GNGSA,A,3,03,22,01,11,23,26,31,32,25,14,,,1.25,0.66,1.06*1B

$GNGSA,A,3,83,77,79,78,67,84,69,68,,,,,1.25,0.66,1.06*1B

$GPGSV,4,1,13,01,44,258,46,03,42,311,45,04,,,43,10,09,130,*4C

$GPGSV,4,2,13,11,21,245,44,14,53,053,46,16,00,166,,22,63,305,46*7D

$GPGSV,4,3,13,23,17,272,44,25,18,053,38,26,19,144,41,31,71,076,50*77

$GPGSV,4,4,13,32,30,070,44*4E

$GLGSV,3,1,10,67,40,089,48,68,60,354,48,69,19,309,36,77,43,045,44*66

$GLGSV,3,2,10,78,61,137,50,79,26,181,46,83,12,245,34,84,19,300,34*61

$GLGSV,3,3,10,85,03,348,27,,,,41*55

$GNGLL,4014.78378,N,11138.94953,W,162027.00,A,A*6F

$GNRMC,162028.00,A,4014.78378,N,11138.94952,W,0.006,,280218,,,A*7F

$GNVTG,,T,,M,0.006,N,0.011,K,A*3B

$GNGGA,162028.00,4014.78378,N,11138.94952,W,1,12,0.66,1423.1,M,-18.8,M,,*4E

$GNGSA,A,3,03,22,01,11,23,26,31,32,25,14,,,1.25,0.66,1.06*1B

$GNGSA,A,3,83,77,79,78,67,84,69,68,,,,,1.25,0.66,1.06*1B

$GPGSV,4,1,13,01,44,258,46,03,42,311,45,04,,,43,10,09,130,*4C

$GPGSV,4,2,13,11,21,245,44,14,53,053,46,16,00,166,,22,63,305,46*7D

$GPGSV,4,3,13,23,17,272,44,25,18,053,38,26,19,144,41,31,71,076,50*77

$GPGSV,4,4,13,32,30,070,44*4E

$GLGSV,3,1,10,67,40,089,48,68,60,354,48,69,19,309,36,77,43,045,44*66

$GLGSV,3,2,10,78,61,137,50,79,26,181,46,83,12,245,34,84,19,300,35*60

$GLGSV,3,3,10,85,03,348,26,,,,41*54

$GNGLL,4014.78378,N,11138.94952,W,162028.00,A,A*61

second #316
SENT CFG_CHECK: B5 62 01 3B 00 00 3C B5
1803f512
318047
52010000
141147f5
d36efce4
3ed16f18
d1
df
21
d2530000
53010000
00
01
UBX-NAV-SVIN: b562013b2800000000001803f51252010000141147f5d36efce43ed16f18d1df2100d253000053010000000100003c88

Time of Week: 318047000ms - Wednesday 16:20:47

Suverying for: 338

ECEF position in m: (-1798919.4591,-4532186.0276999995,4099812.4633)

Accuracy in m: 2.1458

Sample count: 339

SVIN valid?: False

SVIN active?: True



$GNRMC,162029.00,A,4014.78379,N,11138.94952,W,0.006,,280218,,,A*7F

$GNVTG,,T,,M,0.006,N,0.011,K,A*3B

$GNGGA,162029.00,4014.78379,N,11138.94952,W,1,12,0.66,1423.1,M,-18.8,M,,*4E

$GNGSA,A,3,03,22,01,11,23,26,31,32,25,14,,,1.25,0.66,1.06*1B

$GNGSA,A,3,83,77,79,78,67,84,69,68,,,,,1.25,0.66,1.06*1B

$GPGSV,4,1,13,01,44,258,46,03,42,311,45,04,,,43,10,09,130,*4C

$GPGSV,4,2,13,11,21,245,44,14,53,053,46,16,00,166,,22,63,305,46*7D

$GPGSV,4,3,13,23,17,272,44,25,18,053,38,26,19,144,41,31,71,076,50*77

$GPGSV,4,4,13,32,30,070,44*4E

$GLGSV,3,1,10,67,40,089,48,68,60,354,48,69,19,309,36,77,43,045,44*66

$GLGSV,3,2,10,78,61,137,50,79,26,181,46,83,12,245,33,84,19,300,34*66

$GLGSV,3,3,10,85,03,348,26,,,,41*54

$GNGLL,4014.78379,N,11138.94952,W,162029.00,A,A*61

second #317
SENT CFG_CHECK: B5 62 01 3B 00 00 3C B5
0007f512
318048
53010000
141147f5
d36efce4
3fd16f18
dd
d5
da
bf530000
54010000
00
01
UBX-NAV-SVIN: b562013b2800000000000007f51253010000141147f5d36efce43fd16f18ddd5da00bf5300005401000000010000d354

Time of Week: 318048000ms - Wednesday 16:20:48

Suverying for: 339

ECEF position in m: (-1798919.4579,-4532186.0287,4099812.4918000004)

Accuracy in m: 2.1439

Sample count: 340

SVIN valid?: False

SVIN active?: True



$GNRMC,162030.00,A,4014.78379,N,11138.94952,W,0.006,,280218,,,A*77

$GNVTG,,T,,M,0.006,N,0.012,K,A*38

$GNGGA,162030.00,4014.78379,N,11138.94952,W,1,12,0.66,1423.1,M,-18.8,M,,*46

$GNGSA,A,3,03,22,01,11,23,26,31,32,25,14,,,1.25,0.66,1.06*1B

$GNGSA,A,3,83,77,79,78,67,84,69,68,,,,,1.25,0.66,1.06*1B

$GPGSV,4,1,13,01,44,258,46,03,42,311,45,04,,,43,10,09,130,*4C

$GPGSV,4,2,13,11,21,245,43,14,53,053,46,16,00,166,,22,63,305,46*7A

$GPGSV,4,3,13,23,17,272,44,25,18,053,38,26,19,144,41,31,71,076,50*77

$GPGSV,4,4,13,32,30,070,44*4E

$GLGSV,3,1,10,67,40,089,48,68,60,354,48,69,19,309,36,77,43,044,44*67

$GLGSV,3,2,10,78,61,137,50,79,26,181,46,83,12,245,33,84,19,300,35*67

$GLGSV,3,3,10,85,03,348,26,,,,40*55

$GNGLL,4014.78379,N,11138.94952,W,162030.00,A,A*69

second #318
SENT CFG_CHECK: B5 62 01 3B 00 00 3C B5
e80af512
318049
54010000
141147f5
d26efce4
3fd16f18
e9
2f
f8
ad530000
55010000
00
01
UBX-NAV-SVIN: b562013b280000000000e80af51254010000141147f5d26efce43fd16f18e92ff800ad5300005501000000010000313f

Time of Week: 318049000ms - Wednesday 16:20:49

Suverying for: 340

ECEF position in m: (-1798919.4567,-4532186.055299999,4099812.4948)

Accuracy in m: 2.1421

Sample count: 341

SVIN valid?: False

SVIN active?: True



$GNRMC,162031.00,A,4014.78379,N,11138.94951,W,0.006,,280218,,,A*75

$GNVTG,,T,,M,0.006,N,0.012,K,A*38

$GNGGA,162031.00,4014.78379,N,11138.94951,W,1,12,0.66,1423.2,M,-18.8,M,,*47

$GNGSA,A,3,03,22,01,11,23,26,31,32,25,14,,,1.25,0.66,1.06*1B

$GNGSA,A,3,83,77,79,78,67,84,69,68,,,,,1.25,0.66,1.06*1B

$GPGSV,4,1,13,01,44,258,46,03,42,311,45,04,,,43,10,09,130,*4C

$GPGSV,4,2,13,11,21,245,43,14,53,053,46,16,00,166,,22,63,305,46*7A

$GPGSV,4,3,13,23,17,272,44,25,18,053,38,26,19,144,41,31,71,076,50*77

$GPGSV,4,4,13,32,30,070,44*4E

$GLGSV,3,1,10,67,40,089,48,68,60,354,48,69,19,309,36,77,43,044,44*67

$GLGSV,3,2,10,78,62,136,50,79,26,181,46,83,12,245,33,84,19,300,35*65

$GLGSV,3,3,10,85,03,348,25,,,,40*56

$GNGLL,4014.78379,N,11138.94951,W,162031.00,A,A*6B

second #319
SENT CFG_CHECK: B5 62 01 3B 00 00 3C B5
d00ef512
318050
55010000
141147f5
d26efce4
3fd16f18
f4
24
16
9a530000
56010000
00
01
UBX-NAV-SVIN: b562013b280000000000d00ef51255010000141147f5d26efce43fd16f18f42416009a53000056010000000100002a5e

Time of Week: 318050000ms - Wednesday 16:20:50

Suverying for: 341

ECEF position in m: (-1798919.4556,-4532186.056399999,4099812.4722)

Accuracy in m: 2.1402

Sample count: 342

SVIN valid?: False

SVIN active?: True



$GNRMC,162032.00,A,4014.78380,N,11138.94951,W,0.006,,280218,,,A*70

$GNVTG,,T,,M,0.006,N,0.012,K,A*38

$GNGGA,162032.00,4014.78380,N,11138.94951,W,1,12,0.66,1423.2,M,-18.8,M,,*42

$GNGSA,A,3,03,22,01,11,23,26,31,32,25,14,,,1.25,0.66,1.06*1B

$GNGSA,A,3,83,77,79,78,67,84,69,68,,,,,1.25,0.66,1.06*1B

$GPGSV,4,1,13,01,44,258,46,03,42,311,45,04,,,43,10,09,130,*4C

$GPGSV,4,2,13,11,21,245,43,14,53,053,46,16,00,166,,22,63,305,46*7A

$GPGSV,4,3,13,23,17,272,44,25,18,053,38,26,19,144,41,31,71,076,50*77

$GPGSV,4,4,13,32,30,070,44*4E

$GLGSV,3,1,10,67,40,089,48,68,60,354,48,69,19,309,36,77,43,044,44*67

$GLGSV,3,2,10,78,62,136,50,79,27,181,47,83,12,245,33,84,19,300,34*64

$GLGSV,3,3,10,85,03,348,24,,,,39*59

$GNGLL,4014.78380,N,11138.94951,W,162032.00,A,A*6E

second #320
SENT CFG_CHECK: B5 62 01 3B 00 00 3C B5
b812f512
318051
56010000
141147f5
d26efce4
40d16f18
00
18
d0
87530000
57010000
00
01
UBX-NAV-SVIN: b562013b280000000000b812f51256010000141147f5d26efce440d16f180018d000875300005701000000010000c01a

Time of Week: 318051000ms - Wednesday 16:20:51

Suverying for: 342

ECEF position in m: (-1798919.48,-4532186.0576,4099812.5008)

Accuracy in m: 2.1383

Sample count: 343

SVIN valid?: False

SVIN active?: True



$GNRMC,162033.00,A,4014.78380,N,11138.94950,W,0.006,,280218,,,A*70

$GNVTG,,T,,M,0.006,N,0.012,K,A*38

$GNGGA,162033.00,4014.78380,N,11138.94950,W,1,12,0.66,1423.2,M,-18.8,M,,*42

$GNGSA,A,3,03,22,01,11,23,26,31,32,25,14,,,1.25,0.66,1.06*1B

$GNGSA,A,3,83,77,79,78,67,84,69,68,,,,,1.25,0.66,1.06*1B

$GPGSV,4,1,13,01,44,258,46,03,42,311,45,04,,,43,10,09,130,*4C

$GPGSV,4,2,13,11,21,245,42,14,53,053,46,16,00,166,,22,63,305,47*7A

$GPGSV,4,3,13,23,17,272,43,25,18,053,38,26,19,144,42,31,71,076,50*73

$GPGSV,4,4,13,32,30,070,44*4E

$GLGSV,3,1,10,67,40,089,48,68,60,354,48,69,19,309,35,77,43,044,44*64

$GLGSV,3,2,10,78,62,136,50,79,27,181,47,83,12,245,33,84,19,300,30*60

$GLGSV,3,3,10,85,03,348,23,,,,37*50

$GNGLL,4014.78380,N,11138.94950,W,162033.00,A,A*6E

second #321
SENT CFG_CHECK: B5 62 01 3B 00 00 3C B5
a016f512
318052
57010000
141147f5
d26efce4
40d16f18
0b
0d
ef
74530000
58010000
00
01
UBX-NAV-SVIN: b562013b280000000000a016f51257010000141147f5d26efce440d16f180b0def00745300005801000000010000ba47

Time of Week: 318052000ms - Wednesday 16:20:52

Suverying for: 343

ECEF position in m: (-1798919.4789,-4532186.0587,4099812.5039)

Accuracy in m: 2.1364

Sample count: 344

SVIN valid?: False

SVIN active?: True



$GNRMC,162034.00,A,4014.78380,N,11138.94950,W,0.006,,280218,,,A*77

$GNVTG,,T,,M,0.006,N,0.012,K,A*38

$GNGGA,162034.00,4014.78380,N,11138.94950,W,1,12,0.66,1423.2,M,-18.8,M,,*45

$GNGSA,A,3,03,22,01,11,23,26,31,32,25,14,,,1.25,0.66,1.06*1B

$GNGSA,A,3,83,77,79,78,67,84,69,68,,,,,1.25,0.66,1.06*1B

$GPGSV,4,1,13,01,44,258,46,03,42,311,45,04,,,43,10,09,130,*4C

$GPGSV,4,2,13,11,21,245,44,14,53,053,46,16,00,166,,22,63,305,47*7C

$GPGSV,4,3,13,23,17,272,41,25,18,053,38,26,19,144,41,31,71,076,50*72

$GPGSV,4,4,13,32,30,070,44*4E

$GLGSV,3,1,10,67,40,089,48,68,60,354,48,69,19,309,37,77,43,044,44*66

$GLGSV,3,2,10,78,62,136,50,79,27,181,47,83,12,245,33,84,19,300,34*64

$GLGSV,3,3,10,85,03,348,22,,,,41*50

$GNGLL,4014.78380,N,11138.94950,W,162034.00,A,A*69

second #322
SENT CFG_CHECK: B5 62 01 3B 00 00 3C B5
881af512
318053
58010000
141147f5
d26efce4
40d16f18
17
02
0e
62530000
59010000
00
01
UBX-NAV-SVIN: b562013b280000000000881af51258010000141147f5d26efce440d16f1817020e00625300005901000000010000b690

Time of Week: 318053000ms - Wednesday 16:20:53

Suverying for: 344

ECEF position in m: (-1798919.4777,-4532186.0598,4099812.4814)

Accuracy in m: 2.1346

Sample count: 345

SVIN valid?: False

SVIN active?: True



$GNRMC,162035.00,A,4014.78381,N,11138.94950,W,0.007,,280218,,,A*76

$GNVTG,,T,,M,0.007,N,0.012,K,A*39

$GNGGA,162035.00,4014.78381,N,11138.94950,W,1,12,0.66,1423.2,M,-18.8,M,,*45

$GNGSA,A,3,03,22,01,11,23,26,31,32,25,14,,,1.25,0.66,1.06*1B

$GNGSA,A,3,83,77,79,78,67,84,69,68,,,,,1.25,0.66,1.06*1B

$GPGSV,4,1,13,01,44,258,46,03,42,311,45,04,,,43,10,09,130,*4C

$GPGSV,4,2,13,11,21,245,44,14,53,053,45,16,00,166,,22,63,305,47*7F

$GPGSV,4,3,13,23,17,272,41,25,18,053,38,26,19,144,41,31,71,076,50*72

$GPGSV,4,4,13,32,30,070,44*4E

$GLGSV,3,1,10,67,40,089,48,68,60,354,48,69,19,309,32,77,43,044,44*63

$GLGSV,3,2,10,78,62,136,50,79,27,181,47,83,12,245,33,84,19,300,34*64

$GLGSV,3,3,10,85,03,348,21,,,,41*53

$GNGLL,4014.78381,N,11138.94950,W,162035.00,A,A*69

second #323
SENT CFG_CHECK: B5 62 01 3B 00 00 3C B5
701ef512
318054
59010000
141147f5
d26efce4
40d16f18
22
f7
2c
4f530000
5a010000
00
01
UBX-NAV-SVIN: b562013b280000000000701ef51259010000141147f5d26efce440d16f1822f72c004f5300005a01000000010000afaf

Time of Week: 318054000ms - Wednesday 16:20:54

Suverying for: 345

ECEF position in m: (-1798919.4766,-4532186.0353,4099812.4844)

Accuracy in m: 2.1327

Sample count: 346

SVIN valid?: False

SVIN active?: True



$GNRMC,162036.00,A,4014.78381,N,11138.94950,W,0.007,,280218,,,A*75

$GNVTG,,T,,M,0.007,N,0.012,K,A*39

$GNGGA,162036.00,4014.78381,N,11138.94950,W,1,12,0.66,1423.2,M,-18.8,M,,*46

$GNGSA,A,3,03,22,01,11,23,26,31,32,25,14,,,1.25,0.66,1.06*1B

$GNGSA,A,3,83,77,79,78,67,84,69,68,,,,,1.25,0.66,1.06*1B

$GPGSV,4,1,13,01,44,258,46,03,42,311,45,04,,,43,10,09,130,*4C

$GPGSV,4,2,13,11,21,245,41,14,53,053,46,16,00,166,,22,63,305,47*79

$GPGSV,4,3,13,23,17,272,44,25,18,053,38,26,19,144,41,31,71,076,50*77

$GPGSV,4,4,13,32,30,070,44*4E

$GLGSV,3,1,10,67,40,089,48,68,60,354,48,69,19,309,37,77,43,044,44*66

$GLGSV,3,2,10,78,62,136,50,79,27,181,47,83,12,245,31,84,19,300,34*66

$GLGSV,3,3,10,85,03,348,22,,,,40*51

$GNGLL,4014.78381,N,11138.94950,W,162036.00,A,A*6A

second #324
SENT CFG_CHECK: B5 62 01 3B 00 00 3C B5
5822f512
318055
5a010000
141147f5
d26efce4
41d16f18
2e
ec
e7
3d530000
5b010000
00
01
UBX-NAV-SVIN: b562013b2800000000005822f5125a010000141147f5d26efce441d16f182eece7003d5300005b010000000100004894

Time of Week: 318055000ms - Wednesday 16:20:55

Suverying for: 346

ECEF position in m: (-1798919.4753999999,-4532186.0364,4099812.5131)

Accuracy in m: 2.1309

Sample count: 347

SVIN valid?: False

SVIN active?: True



$GNRMC,162037.00,A,4014.78382,N,11138.94950,W,0.007,,280218,,,A*77

$GNVTG,,T,,M,0.007,N,0.012,K,A*39

$GNGGA,162037.00,4014.78382,N,11138.94950,W,1,12,0.66,1423.2,M,-18.8,M,,*44

$GNGSA,A,3,03,22,01,11,23,26,31,32,25,14,,,1.25,0.66,1.06*1B

$GNGSA,A,3,83,77,79,78,67,84,69,68,,,,,1.25,0.66,1.06*1B

$GPGSV,4,1,13,01,44,258,46,03,42,311,45,04,,,43,10,09,130,*4C

$GPGSV,4,2,13,11,21,245,44,14,53,053,45,16,00,166,,22,63,305,47*7F

$GPGSV,4,3,13,23,17,272,43,25,18,053,38,26,19,144,41,31,71,076,50*70

$GPGSV,4,4,13,32,30,070,44*4E

$GLGSV,3,1,10,67,40,089,48,68,60,354,48,69,19,309,37,77,43,044,44*66

$GLGSV,3,2,10,78,62,136,50,79,27,181,47,83,12,245,32,84,19,300,33*62

$GLGSV,3,3,10,85,03,348,22,,,,40*51

$GNGLL,4014.78382,N,11138.94950,W,162037.00,A,A*68

second #325
SENT CFG_CHECK: B5 62 01 3B 00 00 3C B5
4026f512
318056
5b010000
151147f5
d26efce4
41d16f18
d5
e1
06
2a530000
5c010000
00
01
UBX-NAV-SVIN: b562013b2800000000004026f5125b010000151147f5d26efce441d16f18d5e106002a5300005c01000000010000df9d

Time of Week: 318056000ms - Wednesday 16:20:56

Suverying for: 347

ECEF position in m: (-1798919.4487,-4532186.0375,4099812.4906)

Accuracy in m: 2.129

Sample count: 348

SVIN valid?: False

SVIN active?: True



$GNRMC,162038.00,A,4014.78382,N,11138.94950,W,0.012,,280218,,,A*7C

$GNVTG,,T,,M,0.012,N,0.022,K,A*3E

$GNGGA,162038.00,4014.78382,N,11138.94950,W,1,12,0.66,1423.2,M,-18.8,M,,*4B

$GNGSA,A,3,03,22,01,11,23,26,31,32,25,14,,,1.25,0.66,1.06*1B

$GNGSA,A,3,83,77,79,78,67,84,69,68,,,,,1.25,0.66,1.06*1B

$GPGSV,4,1,13,01,44,258,46,03,42,311,45,04,,,43,10,09,130,*4C

$GPGSV,4,2,13,11,21,245,43,14,53,053,45,16,00,166,,22,63,305,47*78

$GPGSV,4,3,13,23,17,272,43,25,18,053,38,26,19,144,41,31,71,076,50*70

$GPGSV,4,4,13,32,30,070,44*4E

$GLGSV,3,1,10,67,40,089,49,68,60,354,48,69,19,309,37,77,43,044,44*67

$GLGSV,3,2,10,78,62,136,50,79,27,181,47,83,12,245,33,84,19,300,34*64

$GLGSV,3,3,10,85,03,348,22,,,,41*50

$GNGLL,4014.78382,N,11138.94950,W,162038.00,A,A*67

second #326
SENT CFG_CHECK: B5 62 01 3B 00 00 3C B5
282af512
318057
5c010000
151147f5
d26efce4
41d16f18
e0
d5
25
18530000
5d010000
00
01
UBX-NAV-SVIN: b562013b280000000000282af5125c010000151147f5d26efce441d16f18e0d52500185300005d01000000010000d9c7

Time of Week: 318057000ms - Wednesday 16:20:57

Suverying for: 348

ECEF position in m: (-1798919.4476,-4532186.038699999,4099812.4937)

Accuracy in m: 2.1272

Sample count: 349

SVIN valid?: False

SVIN active?: True



$GNRMC,162039.00,A,4014.78382,N,11138.94950,W,0.011,,280218,,,A*7E

$GNVTG,,T,,M,0.011,N,0.021,K,A*3E

$GNGGA,162039.00,4014.78382,N,11138.94950,W,1,12,0.66,1423.3,M,-18.8,M,,*4B

$GNGSA,A,3,03,22,01,11,23,26,31,32,25,14,,,1.25,0.66,1.06*1B

$GNGSA,A,3,83,77,79,78,67,84,69,68,,,,,1.25,0.66,1.06*1B

$GPGSV,4,1,13,01,44,258,46,03,42,311,45,04,,,43,10,09,130,*4C

$GPGSV,4,2,13,11,21,245,43,14,53,053,45,16,00,166,,22,63,305,47*78

$GPGSV,4,3,13,23,17,272,43,25,18,053,39,26,19,144,41,31,71,076,50*71

$GPGSV,4,4,13,32,30,070,44*4E

$GLGSV,3,1,10,67,40,089,49,68,60,354,48,69,19,309,37,77,43,044,44*67

$GLGSV,3,2,10,78,62,136,50,79,27,181,47,83,12,245,33,84,19,300,34*64

$GLGSV,3,3,10,85,03,348,22,90,,,42*5A

$GNGLL,4014.78382,N,11138.94950,W,162039.00,A,A*66

second #327
SENT CFG_CHECK: B5 62 01 3B 00 00 3C B5
102ef512
318058
5d010000
151147f5
d16efce4
42d16f18
eb
2e
e0
06530000
5e010000
00
01
UBX-NAV-SVIN: b562013b280000000000102ef5125d010000151147f5d16efce442d16f18eb2ee000065300005e01000000010000d460

Time of Week: 318058000ms - Wednesday 16:20:58

Suverying for: 349

ECEF position in m: (-1798919.4465,-4532186.065400001,4099812.5224)

Accuracy in m: 2.1254

Sample count: 350

SVIN valid?: False

SVIN active?: True



$GNRMC,162040.00,A,4014.78382,N,11138.94950,W,0.008,,280218,,,A*78

$GNVTG,,T,,M,0.008,N,0.015,K,A*31

$GNGGA,162040.00,4014.78382,N,11138.94950,W,1,12,0.66,1423.3,M,-18.8,M,,*45

$GNGSA,A,3,03,22,01,11,23,26,31,32,25,14,,,1.25,0.66,1.06*1B

$GNGSA,A,3,83,77,79,78,67,84,69,68,,,,,1.25,0.66,1.06*1B

$GPGSV,4,1,13,01,44,258,46,03,42,311,45,04,,,43,10,09,130,*4C

$GPGSV,4,2,13,11,21,245,43,14,53,053,45,16,00,166,,22,63,305,47*78

$GPGSV,4,3,13,23,17,272,43,25,18,053,39,26,19,144,41,31,71,076,50*71

$GPGSV,4,4,13,32,30,070,44*4E

$GLGSV,3,1,09,67,40,089,49,68,60,354,48,69,19,309,37,77,43,044,44*6F

$GLGSV,3,2,09,78,62,136,50,79,27,181,47,83,12,245,32,84,19,300,34*6D

$GLGSV,3,3,09,85,03,348,22*5D

$GNGLL,4014.78382,N,11138.94950,W,162040.00,A,A*68

second #328
SENT CFG_CHECK: B5 62 01 3B 00 00 3C B5
f831f512
318059
5e010000
151147f5
d16efce4
42d16f18
f6
22
fe
f3520000
5f010000
00
01
UBX-NAV-SVIN: b562013b280000000000f831f5125e010000151147f5d16efce442d16f18f622fe00f35200005f01000000010000ca42

Time of Week: 318059000ms - Wednesday 16:20:59

Suverying for: 350

ECEF position in m: (-1798919.4454,-4532186.0666000005,4099812.5254)

Accuracy in m: 2.1235

Sample count: 351

SVIN valid?: False

SVIN active?: True



$GNRMC,162041.00,A,4014.78381,N,11138.94950,W,0.006,,280218,,,A*74

$GNVTG,,T,,M,0.006,N,0.011,K,A*3B

$GNGGA,162041.00,4014.78381,N,11138.94950,W,1,12,0.66,1423.3,M,-18.8,M,,*47

$GNGSA,A,3,03,22,01,11,23,26,31,32,25,14,,,1.25,0.66,1.06*1B

$GNGSA,A,3,83,77,79,78,67,84,69,68,,,,,1.25,0.66,1.06*1B

$GPGSV,4,1,13,01,44,258,46,03,42,311,45,04,,,43,10,09,130,*4C

$GPGSV,4,2,13,11,21,245,43,14,53,053,45,16,00,166,,22,63,305,47*78

$GPGSV,4,3,13,23,17,272,43,25,18,053,38,26,19,144,41,31,71,076,50*70

$GPGSV,4,4,13,32,30,070,44*4E

$GLGSV,3,1,10,67,40,089,48,68,60,354,48,69,19,309,37,77,43,044,44*66

$GLGSV,3,2,10,78,62,136,50,79,27,181,47,83,12,245,32,84,19,300,34*65

$GLGSV,3,3,10,85,03,348,22,,,,41*50

$GNGLL,4014.78381,N,11138.94950,W,162041.00,A,A*6A

second #329
SENT CFG_CHECK: B5 62 01 3B 00 00 3C B5
e035f512
318060
5f010000
151147f5
d16efce4
42d16f18
00
16
1d
e1520000
60010000
00
01
UBX-NAV-SVIN: b562013b280000000000e035f5125f010000151147f5d16efce442d16f1800161d00e15200006001000000010000c35c

Time of Week: 318060000ms - Wednesday 16:21:0

Suverying for: 351

ECEF position in m: (-1798919.47,-4532186.0678,4099812.5029)

Accuracy in m: 2.1217

Sample count: 352

SVIN valid?: False

SVIN active?: True



$GNRMC,162042.00,A,4014.78381,N,11138.94950,W,0.005,,280218,,,A*74

$GNVTG,,T,,M,0.005,N,0.010,K,A*39

$GNGGA,162042.00,4014.78381,N,11138.94950,W,1,12,0.66,1423.3,M,-18.8,M,,*44

$GNGSA,A,3,03,22,01,11,23,26,31,32,25,14,,,1.25,0.66,1.06*1B

$GNGSA,A,3,83,77,79,78,67,84,69,68,,,,,1.25,0.66,1.06*1B

$GPGSV,4,1,13,01,43,258,46,03,42,311,45,04,,,43,10,09,130,*4B

$GPGSV,4,2,13,11,21,245,44,14,53,053,45,16,00,166,,22,63,305,47*7F

$GPGSV,4,3,13,23,17,272,43,25,18,053,38,26,19,144,41,31,71,076,50*70

$GPGSV,4,4,13,32,30,070,44*4E

$GLGSV,3,1,10,67,40,089,48,68,60,354,48,69,19,309,37,77,43,044,44*66

$GLGSV,3,2,10,78,62,136,51,79,27,181,47,83,12,245,32,84,19,300,34*64

$GLGSV,3,3,10,85,03,348,23,,,,41*51

$GNGLL,4014.78381,N,11138.94950,W,162042.00,A,A*69

second #330
SENT CFG_CHECK: B5 62 01 3B 00 00 3C B5
c839f512
318061
60010000
151147f5
d16efce4
43d16f18
0b
0b
d8
cf520000
61010000
00
01
UBX-NAV-SVIN: b562013b280000000000c839f51260010000151147f5d16efce443d16f180b0bd800cf52000061010000000100005b31

Time of Week: 318061000ms - Wednesday 16:21:1

Suverying for: 352

ECEF position in m: (-1798919.4689,-4532186.0689,4099812.5316)

Accuracy in m: 2.1199

Sample count: 353

SVIN valid?: False

SVIN active?: True



$GNRMC,162043.00,A,4014.78381,N,11138.94950,W,0.006,,280218,,,A*76

$GNVTG,,T,,M,0.006,N,0.012,K,A*38

$GNGGA,162043.00,4014.78381,N,11138.94950,W,1,12,0.66,1423.3,M,-18.8,M,,*45

$GNGSA,A,3,03,22,01,11,23,26,31,32,25,14,,,1.25,0.66,1.06*1B

$GNGSA,A,3,83,77,79,78,67,84,69,68,,,,,1.25,0.66,1.06*1B

$GPGSV,4,1,13,01,43,258,46,03,42,311,45,04,,,43,10,09,130,*4B

$GPGSV,4,2,13,11,21,245,44,14,53,053,46,16,00,166,,22,63,305,47*7C

$GPGSV,4,3,13,23,17,272,43,25,18,053,38,26,19,144,41,31,71,076,50*70

$GPGSV,4,4,13,32,30,070,44*4E

$GLGSV,3,1,10,67,40,089,48,68,60,354,48,69,19,309,37,77,43,044,44*66

$GLGSV,3,2,10,78,62,136,51,79,27,181,47,83,12,245,32,84,19,300,35*65

$GLGSV,3,3,10,85,03,348,22,,,,42*53

$GNGLL,4014.78381,N,11138.94950,W,162043.00,A,A*68

$GNRMC,162044.00,A,4014.78381,N,11138.94950,W,0.008,,280218,,,A*7F

$GNVTG,,T,,M,0.008,N,0.014,K,A*30

$GNGGA,162044.00,4014.78381,N,11138.94950,W,1,12,0.66,1423.3,M,-18.8,M,,*42

$GNGSA,A,3,03,22,01,11,23,26,31,32,25,14,,,1.25,0.66,1.06*1B

$GNGSA,A,3,83,77,79,78,67,84,69,68,,,,,1.25,0.66,1.06*1B

$GPGSV,4,1,13,01,43,258,46,03,43,311,45,04,,,43,10,09,130,*4A

$GPGSV,4,2,13,11,21,245,44,14,53,053,46,16,00,166,,22,63,305,47*7C

$GPGSV,4,3,13,23,17,272,43,25,18,053,38,26,19,144,41,31,71,076,50*70

$GPGSV,4,4,13,32,30,070,44*4E

$GLGSV,3,1,10,67,40,089,48,68,60,354,48,69,19,309,37,77,43,044,44*66

$GLGSV,3,2,10,78,62,136,51,79,27,181,47,83,12,245,31,84,19,300,35*66

$GLGSV,3,3,10,85,03,348,23,,,,42*52

$GNGLL,4014.78381,N,11138.94950,W,162044.00,A,A*6F

second #331
SENT CFG_CHECK: B5 62 01 3B 00 00 3C B5
9841f512
318063
62010000
151147f5
d16efce4
43d16f18
1f
