          0010  2C 31 30 2C 30 32 34 2C 2C 37 37 2C 35 33 2C 30  ,10,024,,77,53,0
          0020  37 34 2C 34 33 2C 37 38 2C 34 30 2C 31 35 34 2C  74,43,78,40,154,
          0030  34 39 2C 37 39 2C 30 36 2C 31 38 31 2C 33 37 2A  49,79,06,181,37*
          0040  36 31 0D 0A                                      61...
          
14:03:30  0000  24 47 4C 47 53 56 2C 33 2C 33 2C 31 32 2C 38 32  $GLGSV,3,3,12,82
          0010  2C 30 36 2C 32 31 35 2C 34 33 2C 38 33 2C 32 37  ,06,215,43,83,27
          0020  2C 32 36 31 2C 34 37 2C 38 34 2C 31 39 2C 33 32  ,261,47,84,19,32
          0030  31 2C 34 31 2C 2C 2C 2C 34 36 2A 35 30 0D 0A     1,41,,,,46*50...
          
14:03:30  0000  24 47 4E 47 4C 4C 2C 34 30 31 34 2E 39 31 33 32  $GNGLL,4014.9132
          0010  38 2C 4E 2C 31 31 31 33 37 2E 32 31 31 36 35 2C  8,N,11137.21165,
          0020  57 2C 31 34 30 33 33 30 2E 30 30 2C 41 2C 41 2A  W,140330.00,A,A*
          0030  36 34 0D 0A                                      64...
          
14:03:31  0000  24 47 4E 52 4D 43 2C 31 34 30 33 33 31 2E 30 30  $GNRMC,140331.00
          0010  2C 41 2C 34 30 31 34 2E 39 31 33 32 37 2C 4E 2C  ,A,4014.91327,N,
          0020  31 31 31 33 37 2E 32 31 31 36 35 2C 57 2C 30 2E  11137.21165,W,0.
          0030  30 30 33 2C 2C 32 34 30 33 31 38 2C 2C 2C 41 2A  003,,240318,,,A*
          0040  37 43 0D 0A                                      7C...
          
14:03:31  0000  24 47 4E 56 54 47 2C 2C 54 2C 2C 4D 2C 30 2E 30  $GNVTG,,T,,M,0.0
          0010  30 33 2C 4E 2C 30 2E 30 30 35 2C 4B 2C 41 2A 33  03,N,0.005,K,A*3
          0020  42 0D 0A                                         B...
          
14:03:31  0000  24 47 4E 47 47 41 2C 31 34 30 33 33 31 2E 30 30  $GNGGA,140331.00
          0010  2C 34 30 31 34 2E 39 31 33 32 37 2C 4E 2C 31 31  ,4014.91327,N,11
          0020  31 33 37 2E 32 31 31 36 35 2C 57 2C 31 2C 31 32  137.21165,W,1,12
          0030  2C 30 2E 39 33 2C 31 38 39 37 2E 30 2C 4D 2C 2D  ,0.93,1897.0,M,-
          0040  31 38 2E 38 2C 4D 2C 2C 2A 34 44 0D 0A           18.8,M,,*4D...
          
14:03:31  0000  24 47 4E 47 53 41 2C 41 2C 33 2C 30 31 2C 30 33  $GNGSA,A,3,01,03
          0010  2C 31 31 2C 31 34 2C 31 38 2C 32 32 2C 33 31 2C  ,11,14,18,22,31,
          0020  33 32 2C 2C 2C 2C 2C 32 2E 31 36 2C 30 2E 39 33  32,,,,,2.16,0.93
          0030  2C 31 2E 39 35 2A 31 33 0D 0A                    ,1.95*13...
          
14:03:31  0000  24 47 4E 47 53 41 2C 41 2C 33 2C 37 37 2C 37 38  $GNGSA,A,3,77,78
          0010  2C 38 34 2C 38 33 2C 36 37 2C 36 38 2C 2C 2C 2C  ,84,83,67,68,,,,
          0020  2C 2C 2C 32 2E 31 36 2C 30 2E 39 33 2C 31 2E 39  ,,,2.16,0.93,1.9
          0030  35 2A 31 39 0D 0A                                5*19...
          
14:03:31  0000  24 47 50 47 53 56 2C 34 2C 31 2C 31 33 2C 30 31  $GPGSV,4,1,13,01
          0010  2C 34 36 2C 32 38 34 2C 34 36 2C 30 33 2C 32 37  ,46,284,46,03,27
          0020  2C 33 30 38 2C 34 34 2C 31 30 2C 32 34 2C 31 31  ,308,44,10,24,11
          0030  39 2C 2C 31 31 2C 32 39 2C 32 36 32 2C 34 35 2A  9,,11,29,262,45*
          0040  37 45 0D 0A                                      7E...
          
14:03:31  0000  24 47 50 47 53 56 2C 34 2C 32 2C 31 33 2C 31 32  $GPGSV,4,2,13,12
          0010  2C 30 35 2C 30 33 35 2C 2C 31 34 2C 36 37 2C 30  ,05,035,,14,67,0
          0020  33 30 2C 34 35 2C 31 38 2C 34 39 2C 32 34 33 2C  30,45,18,49,243,
          0030  35 30 2C 32 32 2C 34 38 2C 33 30 38 2C 34 37 2A  50,22,48,308,47*
          0040  37 42 0D 0A                                      7B...
          
14:03:31  0000  24 47 50 47 53 56 2C 34 2C 33 2C 31 33 2C 32 33  $GPGSV,4,3,13,23
          0010  2C 30 36 2C 32 36 30 2C 34 30 2C 32 35 2C 31 38  ,06,260,40,25,18
          0020  2C 30 37 31 2C 2C 32 36 2C 30 36 2C 31 35 34 2C  ,071,,26,06,154,
          0030  2C 33 31 2C 37 30 2C 31 33 36 2C 35 30 2A 37 35  ,31,70,136,50*75
          0040  0D 0A                                            ...
          
14:03:31  0000  24 47 50 47 53 56 2C 34 2C 34 2C 31 33 2C 33 32  $GPGSV,4,4,13,32
          0010  2C 34 33 2C 30 35 38 2C 34 36 2A 34 32 0D 0A     ,43,058,46*42...
          
14:03:31  0000  24 47 4C 47 53 56 2C 33 2C 31 2C 31 32 2C 36 36  $GLGSV,3,1,12,66
          0010  2C 30 38 2C 30 39 36 2C 2C 36 37 2C 35 31 2C 30  ,08,096,,67,51,0
          0020  36 31 2C 34 39 2C 36 38 2C 34 37 2C 33 32 35 2C  61,49,68,47,325,
          0030  34 38 2C 36 39 2C 30 35 2C 32 39 35 2C 33 35 2A  48,69,05,295,35*
          0040  36 42 0D 0A                                      6B...
          
14:03:31  0000  24 47 4C 47 53 56 2C 33 2C 32 2C 31 32 2C 37 36  $GLGSV,3,2,12,76
          0010  2C 31 30 2C 30 32 34 2C 2C 37 37 2C 35 33 2C 30  ,10,024,,77,53,0
          0020  37 34 2C 34 33 2C 37 38 2C 34 30 2C 31 35 34 2C  74,43,78,40,154,
          0030  34 39 2C 37 39 2C 30 36 2C 31 38 31 2C 33 37 2A  49,79,06,181,37*
          0040  36 31 0D 0A                                      61...
          
14:03:31  0000  24 47 4C 47 53 56 2C 33 2C 33 2C 31 32 2C 38 32  $GLGSV,3,3,12,82
          0010  2C 30 36 2C 32 31 35 2C 34 34 2C 38 33 2C 32 37  ,06,215,44,83,27
          0020  2C 32 36 31 2C 34 37 2C 38 34 2C 31 39 2C 33 32  ,261,47,84,19,32
          0030  31 2C 34 31 2C 2C 2C 2C 34 36 2A 35 37 0D 0A     1,41,,,,46*57...
          
14:03:31  0000  24 47 4E 47 4C 4C 2C 34 30 31 34 2E 39 31 33 32  $GNGLL,4014.9132
          0010  37 2C 4E 2C 31 31 31 33 37 2E 32 31 31 36 35 2C  7,N,11137.21165,
          0020  57 2C 31 34 30 33 33 31 2E 30 30 2C 41 2C 41 2A  W,140331.00,A,A*
          0030  36 41 0D 0A                                      6A...
          
14:03:31  0000  B5 62 0A 04 00 00 0E 34                          µb.....4.
          
14:03:32  0000  24 47 4E 52 4D 43 2C 31 34 30 33 33 32 2E 30 30  $GNRMC,140332.00
          0010  2C 41 2C 34 30 31 34 2E 39 31 33 32 37 2C 4E 2C  ,A,4014.91327,N,
          0020  31 31 31 33 37 2E 32 31 31 36 36 2C 57 2C 30 2E  11137.21166,W,0.
          0030  30 30 33 2C 2C 32 34 30 33 31 38 2C 2C 2C 41 2A  003,,240318,,,A*
          0040  37 43 0D 0A                                      7C...
          
14:03:32  0000  24 47 4E 56 54 47 2C 2C 54 2C 2C 4D 2C 30 2E 30  $GNVTG,,T,,M,0.0
          0010  30 33 2C 4E 2C 30 2E 30 30 35 2C 4B 2C 41 2A 33  03,N,0.005,K,A*3
          0020  42 0D 0A                                         B...
          
14:03:32  0000  24 47 4E 47 47 41 2C 31 34 30 33 33 32 2E 30 30  $GNGGA,140332.00
          0010  2C 34 30 31 34 2E 39 31 33 32 37 2C 4E 2C 31 31  ,4014.91327,N,11
          0020  31 33 37 2E 32 31 31 36 36 2C 57 2C 31 2C 31 32  137.21166,W,1,12
          0030  2C 30 2E 39 33 2C 31 38 39 37 2E 30 2C 4D 2C 2D  ,0.93,1897.0,M,-
          0040  31 38 2E 38 2C 4D 2C 2C 2A 34 44 0D 0A           18.8,M,,*4D...
          
14:03:32  0000  24 47 4E 47 53 41 2C 41 2C 33 2C 30 31 2C 30 33  $GNGSA,A,3,01,03
          0010  2C 31 31 2C 31 34 2C 31 38 2C 32 32 2C 33 31 2C  ,11,14,18,22,31,
          0020  33 32 2C 2C 2C 2C 2C 32 2E 31 36 2C 30 2E 39 33  32,,,,,2.16,0.93
          0030  2C 31 2E 39 35 2A 31 33 0D 0A                    ,1.95*13...
          
14:03:32  0000  24 47 4E 47 53 41 2C 41 2C 33 2C 37 37 2C 37 38  $GNGSA,A,3,77,78
          0010  2C 38 34 2C 38 33 2C 36 37 2C 36 38 2C 2C 2C 2C  ,84,83,67,68,,,,
          0020  2C 2C 2C 32 2E 31 36 2C 30 2E 39 33 2C 31 2E 39  ,,,2.16,0.93,1.9
          0030  35 2A 31 39 0D 0A                                5*19...
          
14:03:32  0000  24 47 50 47 53 56 2C 34 2C 31 2C 31 33 2C 30 31  $GPGSV,4,1,13,01
          0010  2C 34 36 2C 32 38 34 2C 34 36 2C 30 33 2C 32 37  ,46,284,46,03,27
          0020  2C 33 30 38 2C 34 34 2C 31 30 2C 32 34 2C 31 31  ,308,44,10,24,11
          0030  39 2C 2C 31 31 2C 32 39 2C 32 36 32 2C 34 35 2A  9,,11,29,262,45*
          0040  37 45 0D 0A                                      7E...
          
14:03:32  0000  24 47 50 47 53 56 2C 34 2C 32 2C 31 33 2C 31 32  $GPGSV,4,2,13,12
          0010  2C 30 35 2C 30 33 35 2C 2C 31 34 2C 36 37 2C 30  ,05,035,,14,67,0
          0020  33 30 2C 34 35 2C 31 38 2C 34 39 2C 32 34 33 2C  30,45,18,49,243,
          0030  35 30 2C 32 32 2C 34 38 2C 33 30 38 2C 34 37 2A  50,22,48,308,47*
          0040  37 42 0D 0A                                      7B...
          
14:03:32  0000  24 47 50 47 53 56 2C 34 2C 33 2C 31 33 2C 32 33  $GPGSV,4,3,13,23
          0010  2C 30 36 2C 32 36 30 2C 34 31 2C 32 35 2C 31 38  ,06,260,41,25,18
          0020  2C 30 37 31 2C 2C 32 36 2C 30 36 2C 31 35 34 2C  ,071,,26,06,154,
          0030  2C 33 31 2C 37 30 2C 31 33 36 2C 35 30 2A 37 34  ,31,70,136,50*74
          0040  0D 0A                                            ...
          
14:03:32  0000  24 47 50 47 53 56 2C 34 2C 34 2C 31 33 2C 33 32  $GPGSV,4,4,13,32
          0010  2C 34 33 2C 30 35 38 2C 34 36 2A 34 32 0D 0A     ,43,058,46*42...
          
14:03:32  0000  24 47 4C 47 53 56 2C 33 2C 31 2C 31 32 2C 36 36  $GLGSV,3,1,12,66
          0010  2C 30 38 2C 30 39 36 2C 2C 36 37 2C 35 31 2C 30  ,08,096,,67,51,0
          0020  36 31 2C 34 38 2C 36 38 2C 34 37 2C 33 32 35 2C  61,48,68,47,325,
          0030  34 38 2C 36 39 2C 30 35 2C 32 39 35 2C 33 38 2A  48,69,05,295,38*
          0040  36 37 0D 0A                                      67...
          
14:03:32  0000  24 47 4C 47 53 56 2C 33 2C 32 2C 31 32 2C 37 36  $GLGSV,3,2,12,76
          0010  2C 31 30 2C 30 32 34 2C 2C 37 37 2C 35 33 2C 30  ,10,024,,77,53,0
          0020  37 34 2C 34 33 2C 37 38 2C 34 30 2C 31 35 34 2C  74,43,78,40,154,
          0030  34 39 2C 37 39 2C 30 36 2C 31 38 31 2C 33 37 2A  49,79,06,181,37*
          0040  36 31 0D 0A                                      61...
          
14:03:32  0000  24 47 4C 47 53 56 2C 33 2C 33 2C 31 32 2C 38 32  $GLGSV,3,3,12,82
          0010  2C 30 36 2C 32 31 35 2C 34 34 2C 38 33 2C 32 37  ,06,215,44,83,27
          0020  2C 32 36 31 2C 34 37 2C 38 34 2C 31 39 2C 33 32  ,261,47,84,19,32
          0030  31 2C 34 31 2C 2C 2C 2C 34 36 2A 35 37 0D 0A     1,41,,,,46*57...
          
14:03:32  0000  24 47 4E 47 4C 4C 2C 34 30 31 34 2E 39 31 33 32  $GNGLL,4014.9132
          0010  37 2C 4E 2C 31 31 31 33 37 2E 32 31 31 36 36 2C  7,N,11137.21166,
          0020  57 2C 31 34 30 33 33 32 2E 30 30 2C 41 2C 41 2A  W,140332.00,A,A*
          0030  36 41 0D 0A                                      6A...
          
14:03:32  0000  B5 62 0A 04 FA 00 45 58 54 20 43 4F 52 45 20 33  µb..ú.EXT CORE 3
          0010  2E 30 31 20 28 64 62 30 63 38 39 29 00 00 00 00  .01 (db0c89)....
          0020  00 00 00 00 30 30 30 38 30 30 30 30 00 00 52 4F  ....00080000..RO
          0030  4D 20 42 41 53 45 20 33 2E 30 31 20 28 31 30 37  M BASE 3.01 (107
          0040  38 38 38 29 00 00 00 00 00 00 00 00 46 57 56 45  888)........FWVE
          0050  52 3D 48 50 47 20 31 2E 34 30 52 45 46 00 00 00  R=HPG 1.40REF...
          0060  00 00 00 00 00 00 00 00 00 00 50 52 4F 54 56 45  ..........PROTVE
          0070  52 3D 32 30 2E 33 30 00 00 00 00 00 00 00 00 00  R=20.30.........
          0080  00 00 00 00 00 00 00 00 4D 4F 44 3D 4E 45 4F 2D  ........MOD=NEO-
          0090  4D 38 50 2D 32 00 00 00 00 00 00 00 00 00 00 00  M8P-2...........
          00A0  00 00 00 00 00 00 46 49 53 3D 30 78 45 46 34 30  ......FIS=0xEF40
          00B0  31 35 20 28 31 30 30 31 31 31 29 00 00 00 00 00  15 (100111).....
          00C0  00 00 00 00 47 50 53 3B 47 4C 4F 3B 42 44 53 00  ....GPS;GLO;BDS.
          00D0  00 00 00 00 00 00 00 00 00 00 00 00 00 00 00 00  ................
          00E0  00 00 51 5A 53 53 00 00 00 00 00 00 00 00 00 00  ..QZSS..........
          00F0  00 00 00 00 00 00 00 00 00 00 00 00 00 00 00 00  ................
          0100  E8 1F                                            è..
          
14:03:33  0000  24 47 4E 52 4D 43 2C 31 34 30 33 33 33 2E 30 30  $GNRMC,140333.00
          0010  2C 41 2C 34 30 31 34 2E 39 31 33 32 37 2C 4E 2C  ,A,4014.91327,N,
          0020  31 31 31 33 37 2E 32 31 31 36 36 2C 57 2C 30 2E  11137.21166,W,0.
          0030  30 30 33 2C 2C 32 34 30 33 31 38 2C 2C 2C 41 2A  003,,240318,,,A*
          0040  37 44 0D 0A                                      7D...
          
14:03:33  0000  24 47 4E 56 54 47 2C 2C 54 2C 2C 4D 2C 30 2E 30  $GNVTG,,T,,M,0.0
          0010  30 33 2C 4E 2C 30 2E 30 30 35 2C 4B 2C 41 2A 33  03,N,0.005,K,A*3
          0020  42 0D 0A                                         B...
          
14:03:33  0000  24 47 4E 47 47 41 2C 31 34 30 33 33 33 2E 30 30  $GNGGA,140333.00
          0010  2C 34 30 31 34 2E 39 31 33 32 37 2C 4E 2C 31 31  ,4014.91327,N,11
          0020  31 33 37 2E 32 31 31 36 36 2C 57 2C 31 2C 31 32  137.21166,W,1,12
          0030  2C 30 2E 39 33 2C 31 38 39 37 2E 30 2C 4D 2C 2D  ,0.93,1897.0,M,-
          0040  31 38 2E 38 2C 4D 2C 2C 2A 34 43 0D 0A           18.8,M,,*4C...
          
14:03:33  0000  24 47 4E 47 53 41 2C 41 2C 33 2C 30 31 2C 30 33  $GNGSA,A,3,01,03
          0010  2C 31 31 2C 31 34 2C 31 38 2C 32 32 2C 33 31 2C  ,11,14,18,22,31,
          0020  33 32 2C 2C 2C 2C 2C 32 2E 31 36 2C 30 2E 39 33  32,,,,,2.16,0.93
          0030  2C 31 2E 39 35 2A 31 33 0D 0A                    ,1.95*13...
          
14:03:33  0000  24 47 4E 47 53 41 2C 41 2C 33 2C 37 37 2C 37 38  $GNGSA,A,3,77,78
          0010  2C 38 34 2C 38 33 2C 36 37 2C 36 38 2C 2C 2C 2C  ,84,83,67,68,,,,
          0020  2C 2C 2C 32 2E 31 36 2C 30 2E 39 33 2C 31 2E 39  ,,,2.16,0.93,1.9
          0030  35 2A 31 39 0D 0A                                5*19...
          
14:03:33  0000  24 47 50 47 53 56 2C 34 2C 31 2C 31 33 2C 30 31  $GPGSV,4,1,13,01
          0010  2C 34 36 2C 32 38 34 2C 34 36 2C 30 33 2C 32 37  ,46,284,46,03,27
          0020  2C 33 30 38 2C 34 34 2C 31 30 2C 32 34 2C 31 31  ,308,44,10,24,11
          0030  39 2C 2C 31 31 2C 32 39 2C 32 36 32 2C 34 35 2A  9,,11,29,262,45*
          0040  37 45 0D 0A                                      7E...
          
14:03:33  0000  24 47 50 47 53 56 2C 34 2C 32 2C 31 33 2C 31 32  $GPGSV,4,2,13,12
          0010  2C 30 35 2C 30 33 35 2C 2C 31 34 2C 36 37 2C 30  ,05,035,,14,67,0
          0020  33 30 2C 34 36 2C 31 38 2C 34 39 2C 32 34 33 2C  30,46,18,49,243,
          0030  35 30 2C 32 32 2C 34 38 2C 33 30 38 2C 34 37 2A  50,22,48,308,47*
          0040  37 38 0D 0A                                      78...
          
14:03:33  0000  24 47 50 47 53 56 2C 34 2C 33 2C 31 33 2C 32 33  $GPGSV,4,3,13,23
          0010  2C 30 36 2C 32 36 30 2C 34 30 2C 32 35 2C 31 38  ,06,260,40,25,18
          0020  2C 30 37 31 2C 2C 32 36 2C 30 36 2C 31 35 34 2C  ,071,,26,06,154,
          0030  2C 33 31 2C 37 30 2C 31 33 36 2C 35 30 2A 37 35  ,31,70,136,50*75
          0040  0D 0A                                            ...
          
14:03:33  0000  24 47 50 47 53 56 2C 34 2C 34 2C 31 33 2C 33 32  $GPGSV,4,4,13,32
          0010  2C 34 33 2C 30 35 38 2C 34 36 2A 34 32 0D 0A     ,43,058,46*42...
          
14:03:33  0000  24 47 4C 47 53 56 2C 33 2C 31 2C 31 32 2C 36 36  $GLGSV,3,1,12,66
          0010  2C 30 38 2C 30 39 36 2C 2C 36 37 2C 35 31 2C 30  ,08,096,,67,51,0
          0020  36 31 2C 34 38 2C 36 38 2C 34 37 2C 33 32 35 2C  61,48,68,47,325,
          0030  34 38 2C 36 39 2C 30 35 2C 32 39 35 2C 33 37 2A  48,69,05,295,37*
          0040  36 38 0D 0A                                      68...
          
14:03:33  0000  24 47 4C 47 53 56 2C 33 2C 32 2C 31 32 2C 37 36  $GLGSV,3,2,12,76
          0010  2C 31 30 2C 30 32 34 2C 2C 37 37 2C 35 33 2C 30  ,10,024,,77,53,0
          0020  37 34 2C 34 33 2C 37 38 2C 34 30 2C 31 35 34 2C  74,43,78,40,154,
          0030  34 39 2C 37 39 2C 30 36 2C 31 38 31 2C 33 36 2A  49,79,06,181,36*
          0040  36 30 0D 0A                                      60...
          
14:03:33  0000  24 47 4C 47 53 56 2C 33 2C 33 2C 31 32 2C 38 32  $GLGSV,3,3,12,82
          0010  2C 30 36 2C 32 31 35 2C 34 32 2C 38 33 2C 32 37  ,06,215,42,83,27
          0020  2C 32 36 31 2C 34 37 2C 38 34 2C 31 39 2C 33 32  ,261,47,84,19,32
          0030  31 2C 34 31 2C 2C 2C 2C 34 36 2A 35 31 0D 0A     1,41,,,,46*51...
          
14:03:33  0000  24 47 4E 47 4C 4C 2C 34 30 31 34 2E 39 31 33 32  $GNGLL,4014.9132
          0010  37 2C 4E 2C 31 31 31 33 37 2E 32 31 31 36 36 2C  7,N,11137.21166,
          0020  57 2C 31 34 30 33 33 33 2E 30 30 2C 41 2C 41 2A  W,140333.00,A,A*
          0030  36 42 0D 0A                                      6B...
          
14:03:34  0000  24 47 4E 52 4D 43 2C 31 34 30 33 33 34 2E 30 30  $GNRMC,140334.00
          0010  2C 41 2C 34 30 31 34 2E 39 31 33 32 37 2C 4E 2C  ,A,4014.91327,N,
          0020  31 31 31 33 37 2E 32 31 31 36 36 2C 57 2C 30 2E  11137.21166,W,0.
          0030  30 30 33 2C 2C 32 34 30 33 31 38 2C 2C 2C 41 2A  003,,240318,,,A*
          0040  37 41 0D 0A                                      7A...
          
14:03:34  0000  24 47 4E 56 54 47 2C 2C 54 2C 2C 4D 2C 30 2E 30  $GNVTG,,T,,M,0.0
          0010  30 33 2C 4E 2C 30 2E 30 30 35 2C 4B 2C 41 2A 33  03,N,0.005,K,A*3
          0020  42 0D 0A                                         B...
          
14:03:34  0000  24 47 4E 47 47 41 2C 31 34 30 33 33 34 2E 30 30  $GNGGA,140334.00
          0010  2C 34 30 31 34 2E 39 31 33 32 37 2C 4E 2C 31 31  ,4014.91327,N,11
          0020  31 33 37 2E 32 31 31 36 36 2C 57 2C 31 2C 31 32  137.21166,W,1,12
          0030  2C 30 2E 39 33 2C 31 38 39 37 2E 30 2C 4D 2C 2D  ,0.93,1897.0,M,-
          0040  31 38 2E 38 2C 4D 2C 2C 2A 34 42 0D 0A           18.8,M,,*4B...
          
14:03:34  0000  24 47 4E 47 53 41 2C 41 2C 33 2C 30 31 2C 30 33  $GNGSA,A,3,01,03
          0010  2C 31 31 2C 31 34 2C 31 38 2C 32 32 2C 33 31 2C  ,11,14,18,22,31,
          0020  33 32 2C 2C 2C 2C 2C 32 2E 31 36 2C 30 2E 39 33  32,,,,,2.16,0.93
          0030  2C 31 2E 39 35 2A 31 33 0D 0A                    ,1.95*13...
          
14:03:34  0000  24 47 4E 47 53 41 2C 41 2C 33 2C 37 37 2C 37 38  $GNGSA,A,3,77,78
          0010  2C 38 34 2C 38 33 2C 36 37 2C 36 38 2C 2C 2C 2C  ,84,83,67,68,,,,
          0020  2C 2C 2C 32 2E 31 36 2C 30 2E 39 33 2C 31 2E 39  ,,,2.16,0.93,1.9
          0030  35 2A 31 39 0D 0A                                5*19...
          
14:03:34  0000  24 47 50 47 53 56 2C 34 2C 31 2C 31 33 2C 30 31  $GPGSV,4,1,13,01
          0010  2C 34 36 2C 32 38 34 2C 34 36 2C 30 33 2C 32 37  ,46,284,46,03,27
          0020  2C 33 30 38 2C 34 34 2C 31 30 2C 32 34 2C 31 31  ,308,44,10,24,11
          0030  39 2C 2C 31 31 2C 32 39 2C 32 36 32 2C 34 35 2A  9,,11,29,262,45*
          0040  37 45 0D 0A                                      7E...
          
14:03:34  0000  24 47 50 47 53 56 2C 34 2C 32 2C 31 33 2C 31 32  $GPGSV,4,2,13,12
          0010  2C 30 35 2C 30 33 35 2C 2C 31 34 2C 36 37 2C 30  ,05,035,,14,67,0
          0020  33 30 2C 34 36 2C 31 38 2C 34 39 2C 32 34 33 2C  30,46,18,49,243,
          0030  35 30 2C 32 32 2C 34 38 2C 33 30 38 2C 34 37 2A  50,22,48,308,47*
          0040  37 38 0D 0A                                      78...
          
14:03:34  0000  24 47 50 47 53 56 2C 34 2C 33 2C 31 33 2C 32 33  $GPGSV,4,3,13,23
          0010  2C 30 36 2C 32 36 30 2C 34 32 2C 32 35 2C 31 38  ,06,260,42,25,18
          0020  2C 30 37 31 2C 2C 32 36 2C 30 36 2C 31 35 34 2C  ,071,,26,06,154,
          0030  2C 33 31 2C 37 30 2C 31 33 36 2C 35 30 2A 37 37  ,31,70,136,50*77
          0040  0D 0A                                            ...
          
14:03:34  0000  24 47 50 47 53 56 2C 34 2C 34 2C 31 33 2C 33 32  $GPGSV,4,4,13,32
          0010  2C 34 33 2C 30 35 38 2C 34 36 2A 34 32 0D 0A     ,43,058,46*42...
          
14:03:34  0000  24 47 4C 47 53 56 2C 33 2C 31 2C 31 32 2C 36 36  $GLGSV,3,1,12,66
          0010  2C 30 38 2C 30 39 36 2C 2C 36 37 2C 35 31 2C 30  ,08,096,,67,51,0
          0020  36 31 2C 34 38 2C 36 38 2C 34 37 2C 33 32 35 2C  61,48,68,47,325,
          0030  34 38 2C 36 39 2C 30 35 2C 32 39 35 2C 33 39 2A  48,69,05,295,39*
          0040  36 36 0D 0A                                      66...
          
14:03:34  0000  24 47 4C 47 53 56 2C 33 2C 32 2C 31 32 2C 37 36  $GLGSV,3,2,12,76
          0010  2C 31 30 2C 30 32 34 2C 2C 37 37 2C 35 33 2C 30  ,10,024,,77,53,0
          0020  37 34 2C 34 33 2C 37 38 2C 34 30 2C 31 35 34 2C  74,43,78,40,154,
          0030  34 39 2C 37 39 2C 30 36 2C 31 38 31 2C 33 36 2A  49,79,06,181,36*
          0040  36 30 0D 0A                                      60...
          
14:03:34  0000  24 47 4C 47 53 56 2C 33 2C 33 2C 31 32 2C 38 32  $GLGSV,3,3,12,82
          0010  2C 30 36 2C 32 31 35 2C 34 34 2C 38 33 2C 32 37  ,06,215,44,83,27
          0020  2C 32 36 31 2C 34 37 2C 38 34 2C 31 39 2C 33 32  ,261,47,84,19,32
          0030  31 2C 34 31 2C 2C 2C 2C 34 36 2A 35 37 0D 0A     1,41,,,,46*57...
          
14:03:34  0000  24 47 4E 47 4C 4C 2C 34 30 31 34 2E 39 31 33 32  $GNGLL,4014.9132
          0010  37 2C 4E 2C 31 31 31 33 37 2E 32 31 31 36 36 2C  7,N,11137.21166,
          0020  57 2C 31 34 30 33 33 34 2E 30 30 2C 41 2C 41 2A  W,140334.00,A,A*
          0030  36 43 0D 0A                                      6C...
          
14:03:35  0000  24 47 4E 52 4D 43 2C 31 34 30 33 33 35 2E 30 30  $GNRMC,140335.00
          0010  2C 41 2C 34 30 31 34 2E 39 31 33 32 37 2C 4E 2C  ,A,4014.91327,N,
          0020  31 31 31 33 37 2E 32 31 31 36 35 2C 57 2C 30 2E  11137.21165,W,0.
          0030  30 30 34 2C 2C 32 34 30 33 31 38 2C 2C 2C 41 2A  004,,240318,,,A*
          0040  37 46 0D 0A                                      7F...
          
14:03:35  0000  24 47 4E 56 54 47 2C 2C 54 2C 2C 4D 2C 30 2E 30  $GNVTG,,T,,M,0.0
          0010  30 34 2C 4E 2C 30 2E 30 30 37 2C 4B 2C 41 2A 33  04,N,0.007,K,A*3
          0020  45 0D 0A                                         E...
          
14:03:35  0000  24 47 4E 47 47 41 2C 31 34 30 33 33 35 2E 30 30  $GNGGA,140335.00
          0010  2C 34 30 31 34 2E 39 31 33 32 37 2C 4E 2C 31 31  ,4014.91327,N,11
          0020  31 33 37 2E 32 31 31 36 35 2C 57 2C 31 2C 31 32  137.21165,W,1,12
          0030  2C 30 2E 39 33 2C 31 38 39 37 2E 30 2C 4D 2C 2D  ,0.93,1897.0,M,-
          0040  31 38 2E 38 2C 4D 2C 2C 2A 34 39 0D 0A           18.8,M,,*49...
          
14:03:35  0000  24 47 4E 47 53 41 2C 41 2C 33 2C 30 31 2C 30 33  $GNGSA,A,3,01,03
          0010  2C 31 31 2C 31 34 2C 31 38 2C 32 32 2C 33 31 2C  ,11,14,18,22,31,
          0020  33 32 2C 2C 2C 2C 2C 32 2E 31 36 2C 30 2E 39 33  32,,,,,2.16,0.93
          0030  2C 31 2E 39 35 2A 31 33 0D 0A                    ,1.95*13...
          
14:03:35  0000  24 47 4E 47 53 41 2C 41 2C 33 2C 37 37 2C 37 38  $GNGSA,A,3,77,78
          0010  2C 38 34 2C 38 33 2C 36 37 2C 36 38 2C 2C 2C 2C  ,84,83,67,68,,,,
          0020  2C 2C 2C 32 2E 31 36 2C 30 2E 39 33 2C 31 2E 39  ,,,2.16,0.93,1.9
          0030  35 2A 31 39 0D 0A                                5*19...
          
14:03:35  0000  24 47 50 47 53 56 2C 34 2C 31 2C 31 33 2C 30 31  $GPGSV,4,1,13,01
          0010  2C 34 36 2C 32 38 34 2C 34 36 2C 30 33 2C 32 37  ,46,284,46,03,27
          0020  2C 33 30 38 2C 34 34 2C 31 30 2C 32 34 2C 31 31  ,308,44,10,24,11
          0030  39 2C 2C 31 31 2C 32 39 2C 32 36 32 2C 34 35 2A  9,,11,29,262,45*
          0040  37 45 0D 0A                                      7E...
          
14:03:35  0000  24 47 50 47 53 56 2C 34 2C 32 2C 31 33 2C 31 32  $GPGSV,4,2,13,12
          0010  2C 30 35 2C 30 33 35 2C 2C 31 34 2C 36 37 2C 30  ,05,035,,14,67,0
          0020  33 30 2C 34 36 2C 31 38 2C 34 39 2C 32 34 33 2C  30,46,18,49,243,
          0030  35 30 2C 32 32 2C 34 38 2C 33 30 38 2C 34 37 2A  50,22,48,308,47*
          0040  37 38 0D 0A                                      78...
          
14:03:35  0000  24 47 50 47 53 56 2C 34 2C 33 2C 31 33 2C 32 33  $GPGSV,4,3,13,23
          0010  2C 30 36 2C 32 36 30 2C 34 30 2C 32 35 2C 31 38  ,06,260,40,25,18
          0020  2C 30 37 31 2C 2C 32 36 2C 30 36 2C 31 35 34 2C  ,071,,26,06,154,
          0030  2C 33 31 2C 37 30 2C 31 33 36 2C 35 30 2A 37 35  ,31,70,136,50*75
          0040  0D 0A                                            ...
          
14:03:35  0000  24 47 50 47 53 56 2C 34 2C 34 2C 31 33 2C 33 32  $GPGSV,4,4,13,32
          0010  2C 34 33 2C 30 35 38 2C 34 36 2A 34 32 0D 0A     ,43,058,46*42...
          
14:03:35  0000  24 47 4C 47 53 56 2C 33 2C 31 2C 31 32 2C 36 36  $GLGSV,3,1,12,66
          0010  2C 30 38 2C 30 39 36 2C 2C 36 37 2C 35 31 2C 30  ,08,096,,67,51,0
          0020  36 31 2C 34 38 2C 36 38 2C 34 37 2C 33 32 35 2C  61,48,68,47,325,
          0030  34 38 2C 36 39 2C 30 35 2C 32 39 35 2C 33 37 2A  48,69,05,295,37*
          0040  36 38 0D 0A                                      68...
          
14:03:35  0000  24 47 4C 47 53 56 2C 33 2C 32 2C 31 32 2C 37 36  $GLGSV,3,2,12,76
          0010  2C 31 30 2C 30 32 34 2C 2C 37 37 2C 35 33 2C 30  ,10,024,,77,53,0
          0020  37 34 2C 34 33 2C 37 38 2C 34 30 2C 31 35 34 2C  74,43,78,40,154,
          0030  34 39 2C 37 39 2C 30 36 2C 31 38 31 2C 33 36 2A  49,79,06,181,36*
          0040  36 30 0D 0A                                      60...
          
14:03:35  0000  24 47 4C 47 53 56 2C 33 2C 33 2C 31 32 2C 38 32  $GLGSV,3,3,12,82
          0010  2C 30 36 2C 32 31 35 2C 34 35 2C 38 33 2C 32 37  ,06,215,45,83,27
          0020  2C 32 36 31 2C 34 37 2C 38 34 2C 31 39 2C 33 32  ,261,47,84,19,32
          0030  31 2C 34 31 2C 2C 2C 2C 34 36 2A 35 36 0D 0A     1,41,,,,46*56...
          
14:03:35  0000  24 47 4E 47 4C 4C 2C 34 30 31 34 2E 39 31 33 32  $GNGLL,4014.9132
          0010  37 2C 4E 2C 31 31 31 33 37 2E 32 31 31 36 35 2C  7,N,11137.21165,
          0020  57 2C 31 34 30 33 33 35 2E 30 30 2C 41 2C 41 2A  W,140335.00,A,A*
          0030  36 45 0D 0A                                      6E...
          
14:03:35  0000  B5 62 0A 04 00 00 0E 34                          µb.....4.
          
14:03:36  0000  24 47 4E 52 4D 43 2C 31 34 30 33 33 36 2E 30 30  $GNRMC,140336.00
          0010  2C 41 2C 34 30 31 34 2E 39 31 33 32 37 2C 4E 2C  ,A,4014.91327,N,
          0020  31 31 31 33 37 2E 32 31 31 36 35 2C 57 2C 30 2E  11137.21165,W,0.
          0030  30 30 35 2C 2C 32 34 30 33 31 38 2C 2C 2C 41 2A  005,,240318,,,A*
          0040  37 44 0D 0A                                      7D...
          
14:03:36  0000  24 47 4E 56 54 47 2C 2C 54 2C 2C 4D 2C 30 2E 30  $GNVTG,,T,,M,0.0
          0010  30 35 2C 4E 2C 30 2E 30 30 39 2C 4B 2C 41 2A 33  05,N,0.009,K,A*3
          0020  31 0D 0A                                         1...
          
14:03:36  0000  24 47 4E 47 47 41 2C 31 34 30 33 33 36 2E 30 30  $GNGGA,140336.00
          0010  2C 34 30 31 34 2E 39 31 33 32 37 2C 4E 2C 31 31  ,4014.91327,N,11
          0020  31 33 37 2E 32 31 31 36 35 2C 57 2C 31 2C 31 32  137.21165,W,1,12
          0030  2C 30 2E 39 33 2C 31 38 39 37 2E 30 2C 4D 2C 2D  ,0.93,1897.0,M,-
          0040  31 38 2E 38 2C 4D 2C 2C 2A 34 41 0D 0A           18.8,M,,*4A...
          
14:03:36  0000  24 47 4E 47 53 41 2C 41 2C 33 2C 30 31 2C 30 33  $GNGSA,A,3,01,03
          0010  2C 31 31 2C 31 34 2C 31 38 2C 32 32 2C 33 31 2C  ,11,14,18,22,31,
          0020  33 32 2C 2C 2C 2C 2C 32 2E 31 36 2C 30 2E 39 33  32,,,,,2.16,0.93
          0030  2C 31 2E 39 35 2A 31 33 0D 0A                    ,1.95*13...
          
14:03:36  0000  24 47 4E 47 53 41 2C 41 2C 33 2C 37 37 2C 37 38  $GNGSA,A,3,77,78
          0010  2C 38 34 2C 38 33 2C 36 37 2C 36 38 2C 2C 2C 2C  ,84,83,67,68,,,,
          0020  2C 2C 2C 32 2E 31 36 2C 30 2E 39 33 2C 31 2E 39  ,,,2.16,0.93,1.9
          0030  35 2A 31 39 0D 0A                                5*19...
          
14:03:36  0000  24 47 50 47 53 56 2C 34 2C 31 2C 31 33 2C 30 31  $GPGSV,4,1,13,01
          0010  2C 34 36 2C 32 38 34 2C 34 36 2C 30 33 2C 32 37  ,46,284,46,03,27
          0020  2C 33 30 38 2C 34 34 2C 31 30 2C 32 34 2C 31 31  ,308,44,10,24,11
          0030  39 2C 2C 31 31 2C 32 39 2C 32 36 32 2C 34 35 2A  9,,11,29,262,45*
          0040  37 45 0D 0A                                      7E...
          
14:03:36  0000  24 47 50 47 53 56 2C 34 2C 32 2C 31 33 2C 31 32  $GPGSV,4,2,13,12
          0010  2C 30 35 2C 30 33 35 2C 2C 31 34 2C 36 37 2C 30  ,05,035,,14,67,0
          0020  33 30 2C 34 36 2C 31 38 2C 34 39 2C 32 34 33 2C  30,46,18,49,243,
          0030  35 30 2C 32 32 2C 34 38 2C 33 30 38 2C 34 37 2A  50,22,48,308,47*
          0040  37 38 0D 0A                                      78...
          
14:03:36  0000  24 47 50 47 53 56 2C 34 2C 33 2C 31 33 2C 32 33  $GPGSV,4,3,13,23
          0010  2C 30 36 2C 32 36 30 2C 34 31 2C 32 35 2C 31 38  ,06,260,41,25,18
          0020  2C 30 37 31 2C 2C 32 36 2C 30 36 2C 31 35 34 2C  ,071,,26,06,154,
          0030  2C 33 31 2C 37 30 2C 31 33 36 2C 35 30 2A 37 34  ,31,70,136,50*74
          0040  0D 0A                                            ...
          
14:03:36  0000  24 47 50 47 53 56 2C 34 2C 34 2C 31 33 2C 33 32  $GPGSV,4,4,13,32
          0010  2C 34 33 2C 30 35 38 2C 34 36 2A 34 32 0D 0A     ,43,058,46*42...
          
14:03:36  0000  24 47 4C 47 53 56 2C 33 2C 31 2C 31 32 2C 36 36  $GLGSV,3,1,12,66
          0010  2C 30 38 2C 30 39 36 2C 2C 36 37 2C 35 31 2C 30  ,08,096,,67,51,0
          0020  36 31 2C 34 38 2C 36 38 2C 34 37 2C 33 32 35 2C  61,48,68,47,325,
          0030  34 38 2C 36 39 2C 30 35 2C 32 39 35 2C 33 36 2A  48,69,05,295,36*
          0040  36 39 0D 0A                                      69...
          
14:03:36  0000  24 47 4C 47 53 56 2C 33 2C 32 2C 31 32 2C 37 36  $GLGSV,3,2,12,76
          0010  2C 31 30 2C 30 32 34 2C 2C 37 37 2C 35 33 2C 30  ,10,024,,77,53,0
          0020  37 34 2C 34 33 2C 37 38 2C 34 30 2C 31 35 34 2C  74,43,78,40,154,
          0030  34 39 2C 37 39 2C 30 36 2C 31 38 31 2C 33 36 2A  49,79,06,181,36*
          0040  36 30 0D 0A                                      60...
          
14:03:36  0000  24 47 4C 47 53 56 2C 33 2C 33 2C 31 32 2C 38 32  $GLGSV,3,3,12,82
          0010  2C 30 36 2C 32 31 35 2C 34 34 2C 38 33 2C 32 37  ,06,215,44,83,27
          0020  2C 32 36 31 2C 34 37 2C 38 34 2C 31 39 2C 33 32  ,261,47,84,19,32
          0030  31 2C 34 31 2C 2C 2C 2C 34 36 2A 35 37 0D 0A     1,41,,,,46*57...
          
14:03:36  0000  24 47 4E 47 4C 4C 2C 34 30 31 34 2E 39 31 33 32  $GNGLL,4014.9132
          0010  37 2C 4E 2C 31 31 31 33 37 2E 32 31 31 36 35 2C  7,N,11137.21165,
          0020  57 2C 31 34 30 33 33 36 2E 30 30 2C 41 2C 41 2A  W,140336.00,A,A*
          0030  36 44 0D 0A                                      6D...
          
14:03:36  0000  B5 62 0A 04 FA 00 45 58 54 20 43 4F 52 45 20 33  µb..ú.EXT CORE 3
          0010  2E 30 31 20 28 64 62 30 63 38 39 29 00 00 00 00  .01 (db0c89)....
          0020  00 00 00 00 30 30 30 38 30 30 30 30 00 00 52 4F  ....00080000..RO
          0030  4D 20 42 41 53 45 20 33 2E 30 31 20 28 31 30 37  M BASE 3.01 (107
          0040  38 38 38 29 00 00 00 00 00 00 00 00 46 57 56 45  888)........FWVE
          0050  52 3D 48 50 47 20 31 2E 34 30 52 45 46 00 00 00  R=HPG 1.40REF...
          0060  00 00 00 00 00 00 00 00 00 00 50 52 4F 54 56 45  ..........PROTVE
          0070  52 3D 32 30 2E 33 30 00 00 00 00 00 00 00 00 00  R=20.30.........
          0080  00 00 00 00 00 00 00 00 4D 4F 44 3D 4E 45 4F 2D  ........MOD=NEO-
          0090  4D 38 50 2D 32 00 00 00 00 00 00 00 00 00 00 00  M8P-2...........
          00A0  00 00 00 00 00 00 46 49 53 3D 30 78 45 46 34 30  ......FIS=0xEF40
          00B0  31 35 20 28 31 30 30 31 31 31 29 00 00 00 00 00  15 (100111).....
          00C0  00 00 00 00 47 50 53 3B 47 4C 4F 3B 42 44 53 00  ....GPS;GLO;BDS.
          00D0  00 00 00 00 00 00 00 00 00 00 00 00 00 00 00 00  ................
          00E0  00 00 51 5A 53 53 00 00 00 00 00 00 00 00 00 00  ..QZSS..........
          00F0  00 00 00 00 00 00 00 00 00 00 00 00 00 00 00 00  ................
          0100  E8 1F                                            è..
          
14:03:37  0000  24 47 4E 52 4D 43 2C 31 34 30 33 33 37 2E 30 30  $GNRMC,140337.00
          0010  2C 41 2C 34 30 31 34 2E 39 31 33 32 37 2C 4E 2C  ,A,4014.91327,N,
          0020  31 31 31 33 37 2E 32 31 31 36 35 2C 57 2C 30 2E  11137.21165,W,0.
          0030  30 30 34 2C 2C 32 34 30 33 31 38 2C 2C 2C 41 2A  004,,240318,,,A*
          0040  37 44 0D 0A                                      7D...
          
14:03:37  0000  24 47 4E 56 54 47 2C 2C 54 2C 2C 4D 2C 30 2E 30  $GNVTG,,T,,M,0.0
          0010  30 34 2C 4E 2C 30 2E 30 30 38 2C 4B 2C 41 2A 33  04,N,0.008,K,A*3
          0020  31 0D 0A                                         1...
          
14:03:37  0000  24 47 4E 47 47 41 2C 31 34 30 33 33 37 2E 30 30  $GNGGA,140337.00
          0010  2C 34 30 31 34 2E 39 31 33 32 37 2C 4E 2C 31 31  ,4014.91327,N,11
          0020  31 33 37 2E 32 31 31 36 35 2C 57 2C 31 2C 31 32  137.21165,W,1,12
          0030  2C 30 2E 39 33 2C 31 38 39 37 2E 30 2C 4D 2C 2D  ,0.93,1897.0,M,-
          0040  31 38 2E 38 2C 4D 2C 2C 2A 34 42 0D 0A           18.8,M,,*4B...
          
14:03:37  0000  24 47 4E 47 53 41 2C 41 2C 33 2C 30 31 2C 30 33  $GNGSA,A,3,01,03
          0010  2C 31 31 2C 31 34 2C 31 38 2C 32 32 2C 33 31 2C  ,11,14,18,22,31,
          0020  33 32 2C 2C 2C 2C 2C 32 2E 31 36 2C 30 2E 39 33  32,,,,,2.16,0.93
          0030  2C 31 2E 39 35 2A 31 33 0D 0A                    ,1.95*13...
          
14:03:37  0000  24 47 4E 47 53 41 2C 41 2C 33 2C 37 37 2C 37 38  $GNGSA,A,3,77,78
          0010  2C 38 34 2C 38 33 2C 36 37 2C 36 38 2C 2C 2C 2C  ,84,83,67,68,,,,
          0020  2C 2C 2C 32 2E 31 36 2C 30 2E 39 33 2C 31 2E 39  ,,,2.16,0.93,1.9
          0030  35 2A 31 39 0D 0A                                5*19...
          
14:03:37  0000  24 47 50 47 53 56 2C 34 2C 31 2C 31 33 2C 30 31  $GPGSV,4,1,13,01
          0010  2C 34 36 2C 32 38 34 2C 34 36 2C 30 33 2C 32 37  ,46,284,46,03,27
          0020  2C 33 30 38 2C 34 34 2C 31 30 2C 32 34 2C 31 31  ,308,44,10,24,11
          0030  39 2C 2C 31 31 2C 32 39 2C 32 36 32 2C 34 35 2A  9,,11,29,262,45*
          0040  37 45 0D 0A                                      7E...
          
14:03:37  0000  24 47 50 47 53 56 2C 34 2C 32 2C 31 33 2C 31 32  $GPGSV,4,2,13,12
          0010  2C 30 35 2C 30 33 35 2C 2C 31 34 2C 36 37 2C 30  ,05,035,,14,67,0
          0020  33 30 2C 34 36 2C 31 38 2C 34 39 2C 32 34 33 2C  30,46,18,49,243,
          0030  35 30 2C 32 32 2C 34 38 2C 33 30 38 2C 34 37 2A  50,22,48,308,47*
          0040  37 38 0D 0A                                      78...
          
14:03:37  0000  24 47 50 47 53 56 2C 34 2C 33 2C 31 33 2C 32 33  $GPGSV,4,3,13,23
          0010  2C 30 36 2C 32 36 30 2C 34 30 2C 32 35 2C 31 38  ,06,260,40,25,18
          0020  2C 30 37 31 2C 2C 32 36 2C 30 36 2C 31 35 34 2C  ,071,,26,06,154,
          0030  2C 33 31 2C 37 30 2C 31 33 36 2C 35 30 2A 37 35  ,31,70,136,50*75
          0040  0D 0A                                            ...
          
14:03:37  0000  24 47 50 47 53 56 2C 34 2C 34 2C 31 33 2C 33 32  $GPGSV,4,4,13,32
          0010  2C 34 33 2C 30 35 38 2C 34 36 2A 34 32 0D 0A     ,43,058,46*42...
          
14:03:37  0000  24 47 4C 47 53 56 2C 33 2C 31 2C 31 32 2C 36 36  $GLGSV,3,1,12,66
          0010  2C 30 38 2C 30 39 36 2C 2C 36 37 2C 35 31 2C 30  ,08,096,,67,51,0
          0020  36 31 2C 34 39 2C 36 38 2C 34 37 2C 33 32 35 2C  61,49,68,47,325,
          0030  34 37 2C 36 39 2C 30 35 2C 32 39 35 2C 33 38 2A  47,69,05,295,38*
          0040  36 39 0D 0A                                      69...
          
14:03:37  0000  24 47 4C 47 53 56 2C 33 2C 32 2C 31 32 2C 37 36  $GLGSV,3,2,12,76
          0010  2C 31 30 2C 30 32 34 2C 2C 37 37 2C 35 33 2C 30  ,10,024,,77,53,0
          0020  37 34 2C 34 33 2C 37 38 2C 34 30 2C 31 35 34 2C  74,43,78,40,154,
          0030  34 39 2C 37 39 2C 30 36 2C 31 38 31 2C 33 36 2A  49,79,06,181,36*
          0040  36 30 0D 0A                                      60...
          
14:03:37  0000  24 47 4C 47 53 56 2C 33 2C 33 2C 31 32 2C 38 32  $GLGSV,3,3,12,82
          0010  2C 30 36 2C 32 31 35 2C 34 34 2C 38 33 2C 32 37  ,06,215,44,83,27
          0020  2C 32 36 31 2C 34 37 2C 38 34 2C 31 39 2C 33 32  ,261,47,84,19,32
          0030  31 2C 34 31 2C 2C 2C 2C 34 36 2A 35 37 0D 0A     1,41,,,,46*57...
          
14:03:37  0000  24 47 4E 47 4C 4C 2C 34 30 31 34 2E 39 31 33 32  $GNGLL,4014.9132
          0010  37 2C 4E 2C 31 31 31 33 37 2E 32 31 31 36 35 2C  7,N,11137.21165,
          0020  57 2C 31 34 30 33 33 37 2E 30 30 2C 41 2C 41 2A  W,140337.00,A,A*
          0030  36 43 0D 0A                                      6C...
          
14:03:38  0000  24 47 4E 52 4D 43 2C 31 34 30 33 33 38 2E 30 30  $GNRMC,140338.00
          0010  2C 41 2C 34 30 31 34 2E 39 31 33 32 37 2C 4E 2C  ,A,4014.91327,N,
          0020  31 31 31 33 37 2E 32 31 31 36 35 2C 57 2C 30 2E  11137.21165,W,0.
          0030  30 30 34 2C 2C 32 34 30 33 31 38 2C 2C 2C 41 2A  004,,240318,,,A*
          0040  37 32 0D 0A                                      72...
          
14:03:38  0000  24 47 4E 56 54 47 2C 2C 54 2C 2C 4D 2C 30 2E 30  $GNVTG,,T,,M,0.0
          0010  30 34 2C 4E 2C 30 2E 30 30 37 2C 4B 2C 41 2A 33  04,N,0.007,K,A*3
          0020  45 0D 0A                                         E...
          
14:03:38  0000  24 47 4E 47 47 41 2C 31 34 30 33 33 38 2E 30 30  $GNGGA,140338.00
          0010  2C 34 30 31 34 2E 39 31 33 32 37 2C 4E 2C 31 31  ,4014.91327,N,11
          0020  31 33 37 2E 32 31 31 36 35 2C 57 2C 31 2C 31 32  137.21165,W,1,12
          0030  2C 30 2E 39 33 2C 31 38 39 37 2E 30 2C 4D 2C 2D  ,0.93,1897.0,M,-
          0040  31 38 2E 38 2C 4D 2C 2C 2A 34 34 0D 0A           18.8,M,,*44...
          
14:03:38  0000  24 47 4E 47 53 41 2C 41 2C 33 2C 30 31 2C 30 33  $GNGSA,A,3,01,03
          0010  2C 31 31 2C 31 34 2C 31 38 2C 32 32 2C 33 31 2C  ,11,14,18,22,31,
          0020  33 32 2C 2C 2C 2C 2C 32 2E 31 36 2C 30 2E 39 33  32,,,,,2.16,0.93
          0030  2C 31 2E 39 35 2A 31 33 0D 0A                    ,1.95*13...
          
14:03:38  0000  24 47 4E 47 53 41 2C 41 2C 33 2C 37 37 2C 37 38  $GNGSA,A,3,77,78
          0010  2C 38 34 2C 38 33 2C 36 37 2C 36 38 2C 2C 2C 2C  ,84,83,67,68,,,,
          0020  2C 2C 2C 32 2E 31 36 2C 30 2E 39 33 2C 31 2E 39  ,,,2.16,0.93,1.9
          0030  35 2A 31 39 0D 0A                                5*19...
          
14:03:38  0000  24 47 50 47 53 56 2C 34 2C 31 2C 31 33 2C 30 31  $GPGSV,4,1,13,01
          0010  2C 34 36 2C 32 38 34 2C 34 36 2C 30 33 2C 32 37  ,46,284,46,03,27
          0020  2C 33 30 38 2C 34 33 2C 31 30 2C 32 34 2C 31 31  ,308,43,10,24,11
          0030  39 2C 2C 31 31 2C 32 39 2C 32 36 32 2C 34 35 2A  9,,11,29,262,45*
          0040  37 39 0D 0A                                      79...
          
14:03:38  0000  24 47 50 47 53 56 2C 34 2C 32 2C 31 33 2C 31 32  $GPGSV,4,2,13,12
          0010  2C 30 35 2C 30 33 35 2C 2C 31 34 2C 36 37 2C 30  ,05,035,,14,67,0
          0020  33 30 2C 34 36 2C 31 38 2C 34 39 2C 32 34 33 2C  30,46,18,49,243,
          0030  35 30 2C 32 32 2C 34 38 2C 33 30 38 2C 34 37 2A  50,22,48,308,47*
          0040  37 38 0D 0A                                      78...
          
14:03:38  0000  24 47 50 47 53 56 2C 34 2C 33 2C 31 33 2C 32 33  $GPGSV,4,3,13,23
          0010  2C 30 36 2C 32 36 30 2C 34 30 2C 32 35 2C 31 38  ,06,260,40,25,18
          0020  2C 30 37 31 2C 2C 32 36 2C 30 36 2C 31 35 34 2C  ,071,,26,06,154,
          0030  2C 33 31 2C 37 30 2C 31 33 36 2C 35 30 2A 37 35  ,31,70,136,50*75
          0040  0D 0A                                            ...
          
14:03:38  0000  24 47 50 47 53 56 2C 34 2C 34 2C 31 33 2C 33 32  $GPGSV,4,4,13,32
          0010  2C 34 33 2C 30 35 38 2C 34 36 2A 34 32 0D 0A     ,43,058,46*42...
          
14:03:38  0000  24 47 4C 47 53 56 2C 33 2C 31 2C 31 32 2C 36 36  $GLGSV,3,1,12,66
          0010  2C 30 38 2C 30 39 36 2C 2C 36 37 2C 35 31 2C 30  ,08,096,,67,51,0
          0020  36 31 2C 34 38 2C 36 38 2C 34 37 2C 33 32 35 2C  61,48,68,47,325,
          0030  34 38 2C 36 39 2C 30 35 2C 32 39 35 2C 33 36 2A  48,69,05,295,36*
          0040  36 39 0D 0A                                      69...
          
14:03:38  0000  24 47 4C 47 53 56 2C 33 2C 32 2C 31 32 2C 37 36  $GLGSV,3,2,12,76
          0010  2C 31 30 2C 30 32 34 2C 2C 37 37 2C 35 33 2C 30  ,10,024,,77,53,0
          0020  37 34 2C 34 33 2C 37 38 2C 34 30 2C 31 35 34 2C  74,43,78,40,154,
          0030  34 39 2C 37 39 2C 30 36 2C 31 38 31 2C 33 36 2A  49,79,06,181,36*
          0040  36 30 0D 0A                                      60...
          
14:03:38  0000  24 47 4C 47 53 56 2C 33 2C 33 2C 31 32 2C 38 32  $GLGSV,3,3,12,82
          0010  2C 30 36 2C 32 31 35 2C 34 35 2C 38 33 2C 32 37  ,06,215,45,83,27
          0020  2C 32 36 31 2C 34 37 2C 38 34 2C 31 39 2C 33 32  ,261,47,84,19,32
          0030  31 2C 34 31 2C 2C 2C 2C 34 36 2A 35 36 0D 0A     1,41,,,,46*56...
          
14:03:38  0000  24 47 4E 47 4C 4C 2C 34 30 31 34 2E 39 31 33 32  $GNGLL,4014.9132
          0010  37 2C 4E 2C 31 31 31 33 37 2E 32 31 31 36 35 2C  7,N,11137.21165,
          0020  57 2C 31 34 30 33 33 38 2E 30 30 2C 41 2C 41 2A  W,140338.00,A,A*
          0030  36 33 0D 0A                                      63...
          
14:03:38  0000  B5 62 0A 04 00 00 0E 34                          µb.....4.
          
14:03:39  0000  24 47 4E 52 4D 43 2C 31 34 30 33 33 39 2E 30 30  $GNRMC,140339.00
          0010  2C 41 2C 34 30 31 34 2E 39 31 33 32 37 2C 4E 2C  ,A,4014.91327,N,
          0020  31 31 31 33 37 2E 32 31 31 36 35 2C 57 2C 30 2E  11137.21165,W,0.
          0030  30 30 33 2C 2C 32 34 30 33 31 38 2C 2C 2C 41 2A  003,,240318,,,A*
          0040  37 34 0D 0A                                      74...
          
14:03:39  0000  24 47 4E 56 54 47 2C 2C 54 2C 2C 4D 2C 30 2E 30  $GNVTG,,T,,M,0.0
          0010  30 33 2C 4E 2C 30 2E 30 30 35 2C 4B 2C 41 2A 33  03,N,0.005,K,A*3
          0020  42 0D 0A                                         B...
          
14:03:39  0000  24 47 4E 47 47 41 2C 31 34 30 33 33 39 2E 30 30  $GNGGA,140339.00
          0010  2C 34 30 31 34 2E 39 31 33 32 37 2C 4E 2C 31 31  ,4014.91327,N,11
          0020  31 33 37 2E 32 31 31 36 35 2C 57 2C 31 2C 31 32  137.21165,W,1,12
          0030  2C 30 2E 39 33 2C 31 38 39 37 2E 30 2C 4D 2C 2D  ,0.93,1897.0,M,-
          0040  31 38 2E 38 2C 4D 2C 2C 2A 34 35 0D 0A           18.8,M,,*45...
          
14:03:39  0000  24 47 4E 47 53 41 2C 41 2C 33 2C 30 31 2C 30 33  $GNGSA,A,3,01,03
          0010  2C 31 31 2C 31 34 2C 31 38 2C 32 32 2C 33 31 2C  ,11,14,18,22,31,
          0020  33 32 2C 2C 2C 2C 2C 32 2E 31 36 2C 30 2E 39 33  32,,,,,2.16,0.93
          0030  2C 31 2E 39 35 2A 31 33 0D 0A                    ,1.95*13...
          
14:03:39  0000  24 47 4E 47 53 41 2C 41 2C 33 2C 37 37 2C 37 38  $GNGSA,A,3,77,78
          0010  2C 38 34 2C 38 33 2C 36 37 2C 36 38 2C 2C 2C 2C  ,84,83,67,68,,,,
          0020  2C 2C 2C 32 2E 31 36 2C 30 2E 39 33 2C 31 2E 39  ,,,2.16,0.93,1.9
          0030  35 2A 31 39 0D 0A                                5*19...
          
14:03:39  0000  24 47 50 47 53 56 2C 34 2C 31 2C 31 33 2C 30 31  $GPGSV,4,1,13,01
          0010  2C 34 36 2C 32 38 34 2C 34 36 2C 30 33 2C 32 37  ,46,284,46,03,27
          0020  2C 33 30 38 2C 34 34 2C 31 30 2C 32 34 2C 31 31  ,308,44,10,24,11
          0030  39 2C 2C 31 31 2C 32 39 2C 32 36 32 2C 34 35 2A  9,,11,29,262,45*
          0040  37 45 0D 0A                                      7E...
          
14:03:39  0000  24 47 50 47 53 56 2C 34 2C 32 2C 31 33 2C 31 32  $GPGSV,4,2,13,12
          0010  2C 30 35 2C 30 33 35 2C 2C 31 34 2C 36 37 2C 30  ,05,035,,14,67,0
          0020  33 30 2C 34 36 2C 31 38 2C 34 39 2C 32 34 33 2C  30,46,18,49,243,
          0030  35 30 2C 32 32 2C 34 38 2C 33 30 38 2C 34 37 2A  50,22,48,308,47*
          0040  37 38 0D 0A                                      78...
          
14:03:39  0000  24 47 50 47 53 56 2C 34 2C 33 2C 31 33 2C 32 33  $GPGSV,4,3,13,23
          0010  2C 30 36 2C 32 36 30 2C 34 32 2C 32 35 2C 31 38  ,06,260,42,25,18
          0020  2C 30 37 31 2C 2C 32 36 2C 30 36 2C 31 35 34 2C  ,071,,26,06,154,
          0030  2C 33 31 2C 37 30 2C 31 33 36 2C 35 30 2A 37 37  ,31,70,136,50*77
          0040  0D 0A                                            ...
          
14:03:39  0000  24 47 50 47 53 56 2C 34 2C 34 2C 31 33 2C 33 32  $GPGSV,4,4,13,32
          0010  2C 34 33 2C 30 35 38 2C 34 36 2A 34 32 0D 0A     ,43,058,46*42...
          
14:03:39  0000  24 47 4C 47 53 56 2C 33 2C 31 2C 31 31 2C 36 36  $GLGSV,3,1,11,66
          0010  2C 30 38 2C 30 39 36 2C 2C 36 37 2C 35 31 2C 30  ,08,096,,67,51,0
          0020  36 31 2C 34 38 2C 36 38 2C 34 37 2C 33 32 35 2C  61,48,68,47,325,
          0030  34 38 2C 36 39 2C 30 35 2C 32 39 35 2C 33 38 2A  48,69,05,295,38*
          0040  36 34 0D 0A                                      64...
          
14:03:39  0000  24 47 4C 47 53 56 2C 33 2C 32 2C 31 31 2C 37 36  $GLGSV,3,2,11,76
          0010  2C 31 30 2C 30 32 34 2C 2C 37 37 2C 35 33 2C 30  ,10,024,,77,53,0
          0020  37 34 2C 34 33 2C 37 38 2C 34 30 2C 31 35 34 2C  74,43,78,40,154,
          0030  34 39 2C 37 39 2C 30 36 2C 31 38 31 2C 33 36 2A  49,79,06,181,36*
          0040  36 33 0D 0A                                      63...
          
14:03:39  0000  24 47 4C 47 53 56 2C 33 2C 33 2C 31 31 2C 38 32  $GLGSV,3,3,11,82
          0010  2C 30 36 2C 32 31 35 2C 34 33 2C 38 33 2C 32 37  ,06,215,43,83,27
          0020  2C 32 36 31 2C 34 37 2C 38 34 2C 31 39 2C 33 32  ,261,47,84,19,32
          0030  31 2C 34 31 2A 35 31 0D 0A                       1,41*51...
          
14:03:39  0000  24 47 4E 47 4C 4C 2C 34 30 31 34 2E 39 31 33 32  $GNGLL,4014.9132
          0010  37 2C 4E 2C 31 31 31 33 37 2E 32 31 31 36 35 2C  7,N,11137.21165,
          0020  57 2C 31 34 30 33 33 39 2E 30 30 2C 41 2C 41 2A  W,140339.00,A,A*
          0030  36 32 0D 0A                                      62...
          
14:03:39  0000  B5 62 0A 04 FA 00 45 58 54 20 43 4F 52 45 20 33  µb..ú.EXT CORE 3
          0010  2E 30 31 20 28 64 62 30 63 38 39 29 00 00 00 00  .01 (db0c89)....
          0020  00 00 00 00 30 30 30 38 30 30 30 30 00 00 52 4F  ....00080000..RO
          0030  4D 20 42 41 53 45 20 33 2E 30 31 20 28 31 30 37  M BASE 3.01 (107
          0040  38 38 38 29 00 00 00 00 00 00 00 00 46 57 56 45  888)........FWVE
          0050  52 3D 48 50 47 20 31 2E 34 30 52 45 46 00 00 00  R=HPG 1.40REF...
          0060  00 00 00 00 00 00 00 00 00 00 50 52 4F 54 56 45  ..........PROTVE
          0070  52 3D 32 30 2E 33 30 00 00 00 00 00 00 00 00 00  R=20.30.........
          0080  00 00 00 00 00 00 00 00 4D 4F 44 3D 4E 45 4F 2D  ........MOD=NEO-
          0090  4D 38 50 2D 32 00 00 00 00 00 00 00 00 00 00 00  M8P-2...........
          00A0  00 00 00 00 00 00 46 49 53 3D 30 78 45 46 34 30  ......FIS=0xEF40
          00B0  31 35 20 28 31 30 30 31 31 31 29 00 00 00 00 00  15 (100111).....
          00C0  00 00 00 00 47 50 53 3B 47 4C 4F 3B 42 44 53 00  ....GPS;GLO;BDS.
          00D0  00 00 00 00 00 00 00 00 00 00 00 00 00 00 00 00  ................
          00E0  00 00 51 5A 53 53 00 00 00 00 00 00 00 00 00 00  ..QZSS..........
          00F0  00 00 00 00 00 00 00 00 00 00 00 00 00 00 00 00  ................
          0100  E8 1F                                            è..
          
14:03:40  0000  24 47 4E 52 4D 43 2C 31 34 30 33 34 30 2E 30 30  $GNRMC,140340.00
          0010  2C 41 2C 34 30 31 34 2E 39 31 33 32 38 2C 4E 2C  ,A,4014.91328,N,
          0020  31 31 31 33 37 2E 32 31 31 36 35 2C 57 2C 30 2E  11137.21165,W,0.
          0030  30 30 33 2C 2C 32 34 30 33 31 38 2C 2C 2C 41 2A  003,,240318,,,A*
          0040  37 35 0D 0A                                      75...
          
14:03:40  0000  24 47 4E 56 54 47 2C 2C 54 2C 2C 4D 2C 30 2E 30  $GNVTG,,T,,M,0.0
          0010  30 33 2C 4E 2C 30 2E 30 30 36 2C 4B 2C 41 2A 33  03,N,0.006,K,A*3
          0020  38 0D 0A                                         8...
          
14:03:40  0000  24 47 4E 47 47 41 2C 31 34 30 33 34 30 2E 30 30  $GNGGA,140340.00
          0010  2C 34 30 31 34 2E 39 31 33 32 38 2C 4E 2C 31 31  ,4014.91328,N,11
          0020  31 33 37 2E 32 31 31 36 35 2C 57 2C 31 2C 31 32  137.21165,W,1,12
          0030  2C 30 2E 39 33 2C 31 38 39 37 2E 30 2C 4D 2C 2D  ,0.93,1897.0,M,-
          0040  31 38 2E 38 2C 4D 2C 2C 2A 34 34 0D 0A           18.8,M,,*44...
          
14:03:40  0000  24 47 4E 47 53 41 2C 41 2C 33 2C 30 31 2C 30 33  $GNGSA,A,3,01,03
          0010  2C 31 31 2C 31 34 2C 31 38 2C 32 32 2C 33 31 2C  ,11,14,18,22,31,
          0020  33 32 2C 2C 2C 2C 2C 32 2E 31 36 2C 30 2E 39 33  32,,,,,2.16,0.93
          0030  2C 31 2E 39 35 2A 31 33 0D 0A                    ,1.95*13...
          
14:03:40  0000  24 47 4E 47 53 41 2C 41 2C 33 2C 37 37 2C 37 38  $GNGSA,A,3,77,78
          0010  2C 38 34 2C 38 33 2C 36 37 2C 36 38 2C 2C 2C 2C  ,84,83,67,68,,,,
          0020  2C 2C 2C 32 2E 31 36 2C 30 2E 39 33 2C 31 2E 39  ,,,2.16,0.93,1.9
          0030  35 2A 31 39 0D 0A                                5*19...
          
14:03:40  0000  24 47 50 47 53 56 2C 34 2C 31 2C 31 33 2C 30 31  $GPGSV,4,1,13,01
          0010  2C 34 36 2C 32 38 34 2C 34 36 2C 30 33 2C 32 37  ,46,284,46,03,27
          0020  2C 33 30 38 2C 34 33 2C 31 30 2C 32 34 2C 31 31  ,308,43,10,24,11
          0030  39 2C 2C 31 31 2C 32 39 2C 32 36 32 2C 34 35 2A  9,,11,29,262,45*
          0040  37 39 0D 0A                                      79...
          
14:03:40  0000  24 47 50 47 53 56 2C 34 2C 32 2C 31 33 2C 31 32  $GPGSV,4,2,13,12
          0010  2C 30 35 2C 30 33 35 2C 2C 31 34 2C 36 37 2C 30  ,05,035,,14,67,0
          0020  33 30 2C 34 36 2C 31 38 2C 34 39 2C 32 34 33 2C  30,46,18,49,243,
          0030  35 30 2C 32 32 2C 34 38 2C 33 30 38 2C 34 37 2A  50,22,48,308,47*
          0040  37 38 0D 0A                                      78...
          
14:03:40  0000  24 47 50 47 53 56 2C 34 2C 33 2C 31 33 2C 32 33  $GPGSV,4,3,13,23
          0010  2C 30 36 2C 32 36 30 2C 34 30 2C 32 35 2C 31 38  ,06,260,40,25,18
          0020  2C 30 37 31 2C 2C 32 36 2C 30 36 2C 31 35 34 2C  ,071,,26,06,154,
          0030  2C 33 31 2C 37 30 2C 31 33 36 2C 35 30 2A 37 35  ,31,70,136,50*75
          0040  0D 0A                                            ...
          
14:03:40  0000  24 47 50 47 53 56 2C 34 2C 34 2C 31 33 2C 33 32  $GPGSV,4,4,13,32
          0010  2C 34 33 2C 30 35 38 2C 34 36 2A 34 32 0D 0A     ,43,058,46*42...
          
14:03:40  0000  24 47 4C 47 53 56 2C 33 2C 31 2C 31 32 2C 36 36  $GLGSV,3,1,12,66
          0010  2C 30 38 2C 30 39 36 2C 2C 36 37 2C 35 31 2C 30  ,08,096,,67,51,0
          0020  36 31 2C 34 38 2C 36 38 2C 34 37 2C 33 32 35 2C  61,48,68,47,325,
          0030  34 37 2C 36 39 2C 30 35 2C 32 39 35 2C 33 38 2A  47,69,05,295,38*
          0040  36 38 0D 0A                                      68...
          
14:03:40  0000  24 47 4C 47 53 56 2C 33 2C 32 2C 31 32 2C 37 36  $GLGSV,3,2,12,76
          0010  2C 30 39 2C 30 32 34 2C 2C 37 37 2C 35 33 2C 30  ,09,024,,77,53,0
          0020  37 34 2C 34 33 2C 37 38 2C 34 30 2C 31 35 34 2C  74,43,78,40,154,
          0030  34 39 2C 37 39 2C 30 36 2C 31 38 31 2C 33 36 2A  49,79,06,181,36*
          0040  36 38 0D 0A                                      68...
          
14:03:40  0000  24 47 4C 47 53 56 2C 33 2C 33 2C 31 32 2C 38 32  $GLGSV,3,3,12,82
          0010  2C 30 36 2C 32 31 35 2C 34 32 2C 38 33 2C 32 37  ,06,215,42,83,27
          0020  2C 32 36 31 2C 34 37 2C 38 34 2C 31 39 2C 33 32  ,261,47,84,19,32
          0030  31 2C 34 31 2C 2C 2C 2C 34 37 2A 35 30 0D 0A     1,41,,,,47*50...
          
14:03:40  0000  24 47 4E 47 4C 4C 2C 34 30 31 34 2E 39 31 33 32  $GNGLL,4014.9132
          0010  38 2C 4E 2C 31 31 31 33 37 2E 32 31 31 36 35 2C  8,N,11137.21165,
          0020  57 2C 31 34 30 33 34 30 2E 30 30 2C 41 2C 41 2A  W,140340.00,A,A*
          0030  36 33 0D 0A                                      63...
          
14:03:40  0000  B5 62 01 3B 00 00 3C B5                          µb.;..<µ.
          
14:03:40  0000  B5 62 01 3B 28 00 00 00 00 00 98 D8 EA 21 21 02  µb.;(......Øê!!.
          0010  00 00 7B 72 4A F5 C2 C0 FA E4 82 90 70 18 D2 2A  ..{rJõÂÀúä..p.Ò*
          0020  31 00 44 4E 00 00 1D 02 00 00 00 01 00 00 07 E2  1.DN...........â.
          
14:03:41  0000  24 47 4E 52 4D 43 2C 31 34 30 33 34 31 2E 30 30  $GNRMC,140341.00
          0010  2C 41 2C 34 30 31 34 2E 39 31 33 32 38 2C 4E 2C  ,A,4014.91328,N,
          0020  31 31 31 33 37 2E 32 31 31 36 35 2C 57 2C 30 2E  11137.21165,W,0.
          0030  30 30 34 2C 2C 32 34 30 33 31 38 2C 2C 2C 41 2A  004,,240318,,,A*
          0040  37 33 0D 0A                                      73...
          
14:03:41  0000  24 47 4E 56 54 47 2C 2C 54 2C 2C 4D 2C 30 2E 30  $GNVTG,,T,,M,0.0
          0010  30 34 2C 4E 2C 30 2E 30 30 38 2C 4B 2C 41 2A 33  04,N,0.008,K,A*3
          0020  31 0D 0A                                         1...
          
14:03:41  0000  24 47 4E 47 47 41 2C 31 34 30 33 34 31 2E 30 30  $GNGGA,140341.00
          0010  2C 34 30 31 34 2E 39 31 33 32 38 2C 4E 2C 31 31  ,4014.91328,N,11
          0020  31 33 37 2E 32 31 31 36 35 2C 57 2C 31 2C 31 32  137.21165,W,1,12
          0030  2C 30 2E 39 33 2C 31 38 39 36 2E 39 2C 4D 2C 2D  ,0.93,1896.9,M,-
          0040  31 38 2E 38 2C 4D 2C 2C 2A 34 44 0D 0A           18.8,M,,*4D...
          
14:03:41  0000  24 47 4E 47 53 41 2C 41 2C 33 2C 30 31 2C 30 33  $GNGSA,A,3,01,03
          0010  2C 31 31 2C 31 34 2C 31 38 2C 32 32 2C 33 31 2C  ,11,14,18,22,31,
          0020  33 32 2C 2C 2C 2C 2C 32 2E 31 36 2C 30 2E 39 33  32,,,,,2.16,0.93
          0030  2C 31 2E 39 35 2A 31 33 0D 0A                    ,1.95*13...
          
14:03:41  0000  24 47 4E 47 53 41 2C 41 2C 33 2C 37 37 2C 37 38  $GNGSA,A,3,77,78
          0010  2C 38 34 2C 38 33 2C 36 37 2C 36 38 2C 2C 2C 2C  ,84,83,67,68,,,,
          0020  2C 2C 2C 32 2E 31 36 2C 30 2E 39 33 2C 31 2E 39  ,,,2.16,0.93,1.9
          0030  35 2A 31 39 0D 0A                                5*19...
          
14:03:41  0000  24 47 50 47 53 56 2C 34 2C 31 2C 31 33 2C 30 31  $GPGSV,4,1,13,01
          0010  2C 34 36 2C 32 38 34 2C 34 36 2C 30 33 2C 32 37  ,46,284,46,03,27
          0020  2C 33 30 38 2C 34 33 2C 31 30 2C 32 34 2C 31 31  ,308,43,10,24,11
          0030  39 2C 2C 31 31 2C 32 39 2C 32 36 32 2C 34 35 2A  9,,11,29,262,45*
          0040  37 39 0D 0A                                      79...
          
14:03:41  0000  24 47 50 47 53 56 2C 34 2C 32 2C 31 33 2C 31 32  $GPGSV,4,2,13,12
          0010  2C 30 35 2C 30 33 35 2C 2C 31 34 2C 36 37 2C 30  ,05,035,,14,67,0
          0020  33 30 2C 34 36 2C 31 38 2C 34 39 2C 32 34 33 2C  30,46,18,49,243,
          0030  35 30 2C 32 32 2C 34 38 2C 33 30 38 2C 34 37 2A  50,22,48,308,47*
          0040  37 38 0D 0A                                      78...
          
14:03:41  0000  24 47 50 47 53 56 2C 34 2C 33 2C 31 33 2C 32 33  $GPGSV,4,3,13,23
          0010  2C 30 36 2C 32 36 30 2C 34 31 2C 32 35 2C 31 38  ,06,260,41,25,18
          0020  2C 30 37 31 2C 2C 32 36 2C 30 36 2C 31 35 34 2C  ,071,,26,06,154,
          0030  2C 33 31 2C 37 30 2C 31 33 36 2C 35 30 2A 37 34  ,31,70,136,50*74
          0040  0D 0A                                            ...
          
14:03:41  0000  24 47 50 47 53 56 2C 34 2C 34 2C 31 33 2C 33 32  $GPGSV,4,4,13,32
          0010  2C 34 33 2C 30 35 38 2C 34 36 2A 34 32 0D 0A     ,43,058,46*42...
          
14:03:41  0000  24 47 4C 47 53 56 2C 33 2C 31 2C 31 32 2C 36 36  $GLGSV,3,1,12,66
          0010  2C 30 38 2C 30 39 36 2C 2C 36 37 2C 35 31 2C 30  ,08,096,,67,51,0
          0020  36 31 2C 34 38 2C 36 38 2C 34 37 2C 33 32 35 2C  61,48,68,47,325,
          0030  34 37 2C 36 39 2C 30 35 2C 32 39 35 2C 33 38 2A  47,69,05,295,38*
          0040  36 38 0D 0A                                      68...
          
14:03:41  0000  24 47 4C 47 53 56 2C 33 2C 32 2C 31 32 2C 37 36  $GLGSV,3,2,12,76
          0010  2C 30 39 2C 30 32 34 2C 2C 37 37 2C 35 33 2C 30  ,09,024,,77,53,0
          0020  37 33 2C 34 33 2C 37 38 2C 34 30 2C 31 35 34 2C  73,43,78,40,154,
          0030  34 39 2C 37 39 2C 30 36 2C 31 38 31 2C 33 36 2A  49,79,06,181,36*
          0040  36 46 0D 0A                                      6F...
          
14:03:41  0000  24 47 4C 47 53 56 2C 33 2C 33 2C 31 32 2C 38 32  $GLGSV,3,3,12,82
          0010  2C 30 36 2C 32 31 35 2C 34 33 2C 38 33 2C 32 37  ,06,215,43,83,27
          0020  2C 32 36 31 2C 34 37 2C 38 34 2C 31 39 2C 33 32  ,261,47,84,19,32
          0030  31 2C 34 31 2C 2C 2C 2C 34 37 2A 35 31 0D 0A     1,41,,,,47*51...
          
14:03:41  0000  24 47 4E 47 4C 4C 2C 34 30 31 34 2E 39 31 33 32  $GNGLL,4014.9132
          0010  38 2C 4E 2C 31 31 31 33 37 2E 32 31 31 36 35 2C  8,N,11137.21165,
          0020  57 2C 31 34 30 33 34 31 2E 30 30 2C 41 2C 41 2A  W,140341.00,A,A*
          0030  36 32 0D 0A                                      62...
          
14:03:42  0000  24 47 4E 52 4D 43 2C 31 34 30 33 34 32 2E 30 30  $GNRMC,140342.00
          0010  2C 41 2C 34 30 31 34 2E 39 31 33 32 39 2C 4E 2C  ,A,4014.91329,N,
          0020  31 31 31 33 37 2E 32 31 31 36 35 2C 57 2C 30 2E  11137.21165,W,0.
          0030  30 30 35 2C 2C 32 34 30 33 31 38 2C 2C 2C 41 2A  005,,240318,,,A*
          0040  37 30 0D 0A                                      70...
          
14:03:42  0000  24 47 4E 56 54 47 2C 2C 54 2C 2C 4D 2C 30 2E 30  $GNVTG,,T,,M,0.0
          0010  30 35 2C 4E 2C 30 2E 30 31 30 2C 4B 2C 41 2A 33  05,N,0.010,K,A*3
          0020  39 0D 0A                                         9...
          
14:03:42  0000  24 47 4E 47 47 41 2C 31 34 30 33 34 32 2E 30 30  $GNGGA,140342.00
          0010  2C 34 30 31 34 2E 39 31 33 32 39 2C 4E 2C 31 31  ,4014.91329,N,11
          0020  31 33 37 2E 32 31 31 36 35 2C 57 2C 31 2C 31 32  137.21165,W,1,12
          0030  2C 30 2E 39 33 2C 31 38 39 36 2E 39 2C 4D 2C 2D  ,0.93,1896.9,M,-
          0040  31 38 2E 38 2C 4D 2C 2C 2A 34 46 0D 0A           18.8,M,,*4F...
          
14:03:42  0000  24 47 4E 47 53 41 2C 41 2C 33 2C 30 31 2C 30 33  $GNGSA,A,3,01,03
          0010  2C 31 31 2C 31 34 2C 31 38 2C 32 32 2C 33 31 2C  ,11,14,18,22,31,
          0020  33 32 2C 2C 2C 2C 2C 32 2E 31 36 2C 30 2E 39 33  32,,,,,2.16,0.93
          0030  2C 31 2E 39 35 2A 31 33 0D 0A                    ,1.95*13...
          
14:03:42  0000  24 47 4E 47 53 41 2C 41 2C 33 2C 37 37 2C 37 38  $GNGSA,A,3,77,78
          0010  2C 38 34 2C 38 33 2C 36 37 2C 36 38 2C 2C 2C 2C  ,84,83,67,68,,,,
          0020  2C 2C 2C 32 2E 31 36 2C 30 2E 39 33 2C 31 2E 39  ,,,2.16,0.93,1.9
          0030  35 2A 31 39 0D 0A                                5*19...
          
14:03:42  0000  24 47 50 47 53 56 2C 34 2C 31 2C 31 33 2C 30 31  $GPGSV,4,1,13,01
          0010  2C 34 36 2C 32 38 34 2C 34 36 2C 30 33 2C 32 37  ,46,284,46,03,27
          0020  2C 33 30 38 2C 34 33 2C 31 30 2C 32 34 2C 31 31  ,308,43,10,24,11
          0030  39 2C 2C 31 31 2C 32 39 2C 32 36 32 2C 34 35 2A  9,,11,29,262,45*
          0040  37 39 0D 0A                                      79...
          
14:03:42  0000  24 47 50 47 53 56 2C 34 2C 32 2C 31 33 2C 31 32  $GPGSV,4,2,13,12
          0010  2C 30 35 2C 30 33 35 2C 2C 31 34 2C 36 37 2C 30  ,05,035,,14,67,0
          0020  33 30 2C 34 36 2C 31 38 2C 34 39 2C 32 34 33 2C  30,46,18,49,243,
          0030  35 30 2C 32 32 2C 34 38 2C 33 30 38 2C 34 37 2A  50,22,48,308,47*
          0040  37 38 0D 0A                                      78...
          
14:03:42  0000  24 47 50 47 53 56 2C 34 2C 33 2C 31 33 2C 32 33  $GPGSV,4,3,13,23
          0010  2C 30 36 2C 32 36 30 2C 34 30 2C 32 35 2C 31 38  ,06,260,40,25,18
          0020  2C 30 37 31 2C 2C 32 36 2C 30 36 2C 31 35 34 2C  ,071,,26,06,154,
          0030  2C 33 31 2C 37 30 2C 31 33 36 2C 35 30 2A 37 35  ,31,70,136,50*75
          0040  0D 0A                                            ...
          
14:03:42  0000  24 47 50 47 53 56 2C 34 2C 34 2C 31 33 2C 33 32  $GPGSV,4,4,13,32
          0010  2C 34 33 2C 30 35 38 2C 34 36 2A 34 32 0D 0A     ,43,058,46*42...
          
14:03:42  0000  24 47 4C 47 53 56 2C 33 2C 31 2C 31 32 2C 36 36  $GLGSV,3,1,12,66
          0010  2C 30 38 2C 30 39 36 2C 2C 36 37 2C 35 31 2C 30  ,08,096,,67,51,0
