STATUS: connecting to Ublox
STATUS: reading through Ublox messages
DATA: $GNRMC,233440.00,A,4014.80976,N,11138.92766,W,0.024,,290318,,,A*7E
DATA: $GNVTG,,T,,M,0.024,N,0.044,K,A*3B
DATA: $GNGGA,233440.00,4014.80976,N,11138.92766,W,1,06,2.33,1441.2,M,-18.8,M,,*4F
DATA: $GNGSA,A,3,13,15,19,17,24,,,,,,,,2.97,2.33,1.84*11
DATA: $GNGSA,A,3,83,,,,,,,,,,,,2.97,2.33,1.84*14
DATA: $GPGSV,3,1,12,01,28,055,14,06,16,174,,07,07,144,,11,20,048,*7A
DATA: $GPGSV,3,2,12,13,32,244,34,15,21,279,37,17,81,242,25,18,10,038,*7D
DATA: $GPGSV,3,3,12,19,57,227,21,24,14,316,15,28,54,062,22,30,32,147,19*70
DATA: $GLGSV,2,1,05,70,00,273,,71,05,319,22,78,13,123,,80,51,332,22*69
DATA: $GLGSV,2,2,05,83,14,204,20*5A
DATA: $GNGLL,4014.80976,N,11138.92766,W,233440.00,A,A*60
DATA: $GNTXT,01,01,02,u-blox AG - www.u-blox.com*4E
DATA: $GNTXT,01,01,02,HW UBX-M8030 00080000*60
DATA: $GNTXT,01,01,02,EXT CORE 3.01 (db0c89)*68
DATA: $GNTXT,01,01,02,ROM BASE 3.01 (107888)*25
DATA: $GNTXT,01,01,02,FWVER=HPG 1.40REF*0B
DATA: $GNTXT,01,01,02,PROTVER=20.30*19
DATA: $GNTXT,01,01,02,MOD=NEO-M8P-2*7B
DATA: $GNTXT,01,01,02,FIS=0xEF4015 (100111)*58
DATA: $GNTXT,01,01,02,GPS;GLO;BDS*06
DATA: $GNTXT,01,01,02,QZSS*58
DATA: $GNTXT,01,01,02,GNSS OTP=GPS;GLO*37
DATA: $GNTXT,01,01,02,LLC=FFFFFFFF-FFFFFFED-FFFFFFFF-FFFFF79E-FFFFFF69*2E
DATA: $GNTXT,01,01,02,ANTSUPERV=AC SD PDoS SR*3E
DATA: $GNTXT,01,01,02,ANTSTATUS=OK*25
DATA: $GNTXT,01,01,02,PF=300*4B
DATA: $GNRMC,233441.00,A,4014.80977,N,11138.92768,W,0.024,,290318,,,A*70
DATA: $GNVTG,,T,,M,0.024,N,0.044,K,A*3B
DATA: $GNGGA,233441.00,4014.80977,N,11138.92768,W,1,06,2.33,1441.3,M,-18.8,M,,*40
DATA: $GNGSA,A,3,13,15,19,17,24,,,,,,,,2.97,2.33,1.84*11
DATA: $GNGSA,A,3,83,,,,,,,,,,,,2.97,2.33,1.84*14
DATA: $GPGSV,3,1,12,01,28,055,12,06,16,174,,07,07,144,,11,20,048,*7C
DATA: $GPGSV,3,2,12,13,32,244,33,15,21,279,36,17,81,242,24,18,10,038,*7A
DATA: $GPGSV,3,3,12,19,57,227,18,24,14,316,15,28,54,062,21,30,32,147,18*78
DATA: $GLGSV,2,1,05,70,00,273,,71,05,319,22,78,13,123,,80,51,332,22*69
DATA: $GLGSV,2,2,05,83,14,204,20*5A
DATA: $GNGLL,4014.80977,N,11138.92768,W,233441.00,A,A*6E
DATA: $GNRMC,233442.00,A,4014.80978,N,11138.92770,W,0.023,,290318,,,A*72
DATA: $GNVTG,,T,,M,0.023,N,0.043,K,A*3B
DATA: $GNGGA,233442.00,4014.80978,N,11138.92770,W,1,06,2.33,1441.3,M,-18.8,M,,*45
DATA: $GNGSA,A,3,13,15,19,17,24,,,,,,,,2.97,2.33,1.84*11
DATA: $GNGSA,A,3,83,,,,,,,,,,,,2.97,2.33,1.84*14
DATA: $GPGSV,3,1,12,01,28,055,09,06,16,174,,07,07,144,,11,20,048,*76
DATA: $GPGSV,3,2,12,13,32,244,33,15,21,279,37,17,81,242,24,18,10,038,*7B
DATA: $GPGSV,3,3,12,19,57,227,17,24,14,316,16,28,54,062,21,30,32,147,17*7B
DATA: $GLGSV,2,1,05,70,00,273,,71,05,319,22,78,13,123,,80,51,332,22*69
DATA: $GLGSV,2,2,05,83,14,204,22*58
DATA: $GNGLL,4014.80978,N,11138.92770,W,233442.00,A,A*6B
DATA: $GNRMC,233443.00,A,4014.80979,N,11138.92771,W,0.023,,290318,,,A*73
DATA: $GNVTG,,T,,M,0.023,N,0.043,K,A*3B
DATA: $GNGGA,233443.00,4014.80979,N,11138.92771,W,1,06,2.33,1441.3,M,-18.8,M,,*44
DATA: $GNGSA,A,3,13,15,19,17,24,,,,,,,,2.97,2.33,1.84*11
DATA: $GNGSA,A,3,83,,,,,,,,,,,,2.97,2.33,1.84*14
DATA: $GPGSV,3,1,12,01,28,055,11,06,16,174,,07,07,144,,11,20,048,*7F
DATA: $GPGSV,3,2,12,13,32,244,33,15,21,279,36,17,81,242,24,18,10,038,*7A
DATA: $GPGSV,3,3,12,19,57,227,15,24,14,316,17,28,54,062,20,30,32,147,17*79
DATA: $GLGSV,2,1,05,70,00,273,,71,05,319,22,78,13,123,,80,51,332,22*69
DATA: $GLGSV,2,2,05,83,14,204,22*58
DATA: $GNGLL,4014.80979,N,11138.92771,W,233443.00,A,A*6A
DATA: $GNRMC,233444.00,A,4014.80981,N,11138.92770,W,0.023,,290318,,,A*72
DATA: $GNVTG,,T,,M,0.023,N,0.043,K,A*3B
DATA: $GNGGA,233444.00,4014.80981,N,11138.92770,W,1,06,2.33,1441.4,M,-18.8,M,,*42
DATA: $GNGSA,A,3,13,15,19,17,24,,,,,,,,2.97,2.33,1.84*11
DATA: $GNGSA,A,3,83,,,,,,,,,,,,2.97,2.33,1.84*14
DATA: $GPGSV,3,1,12,01,28,055,12,06,16,174,,07,07,144,,11,20,048,*7C
DATA: $GPGSV,3,2,12,13,32,244,33,15,21,279,36,17,81,242,24,18,10,038,*7A
DATA: $GPGSV,3,3,12,19,57,227,16,24,14,316,16,28,54,062,20,30,32,147,16*7A
DATA: $GLGSV,2,1,05,70,00,273,,71,05,319,23,78,13,123,,80,51,332,22*68
DATA: $GLGSV,2,2,05,83,14,204,22*58
DATA: $GNGLL,4014.80981,N,11138.92770,W,233444.00,A,A*6B
STATUS: enabling RTCM3
STATUS: enabling sending Station Coordinates (1005)
STATUS: enabling sending GPS Coordinates (1077)
STATUS: enabling sending Station GLONASS obs (1087)
STATUS: enabling sending GLONASS biases (1230)
STATUS: beginning Survey in for >=60s unti <=3m accuracy
STATUS: SENT CFGTMODE3: B5 62 06 71 28 00 00 00 01 00 00 00 00 00 00 00                     00 00 00 00 00 00 00 00 00 00 00 00 00 00 3C 00                     00 00 30 75 00 00 00 00 00 00 00 00 00 00 81 C0
STATUS: reading from Ublox
DATA: UBX: 0xb5620501020006000e37
DATA: UBX: 0xb5620501020006010f38
DATA: UBX: 0xb5620501020006010f38
DATA: UBX: 0xb5620501020006010f38
DATA: UBX: 0xb5620501020006010f38
DATA: UBX: 0xb5620501020006717fa8
DATA: $GNRMC,233445.00,A,4014.80982,N,11138.92771,W,0.023,,290318,,,A*71
DATA: $GNVTG,,T,,M,0.023,N,0.043,K,A*3B
DATA: $GNGGA,233445.00,4014.80982,N,11138.92771,W,1,06,2.33,1441.4,M,-18.8,M,,*41
DATA: $GNGSA,A,3,13,15,19,17,24,,,,,,,,2.97,2.33,1.84*11
DATA: $GNGSA,A,3,83,,,,,,,,,,,,2.97,2.33,1.84*14
DATA: $GPGSV,3,1,12,01,28,055,,06,16,174,,07,07,144,,11,20,048,*7F
DATA: $GPGSV,3,2,12,13,32,244,33,15,21,279,36,17,81,242,23,18,10,038,*7D
DATA: $GPGSV,3,3,12,19,57,227,17,24,14,316,16,28,54,062,20,30,32,147,16*7B
DATA: $GLGSV,2,1,05,70,00,273,,71,05,319,24,78,13,123,,80,51,332,23*6E
DATA: $GLGSV,2,2,05,83,14,204,21*5B
DATA: $GNGLL,4014.80982,N,11138.92771,W,233445.00,A,A*68
STATUS: reporting configuration
STATUS: SENT CFG_CHECK: B5 62 06 71 00 00 77 6B
STATUS: reading all ublox data
DATA: UBX: 0xb562067128000000010000000000000000000000000000000000000000003c00000030750000000000000000000081c0
DATA: UBX: 0xb5620501020006717fa8
DATA: $GNRMC,233446.00,A,4014.80983,N,11138.92772,W,0.023,,290318,,,A*70
DATA: $GNVTG,,T,,M,0.023,N,0.043,K,A*3B
DATA: $GNGGA,233446.00,4014.80983,N,11138.92772,W,1,06,2.33,1441.5,M,-18.8,M,,*41
DATA: $GNGSA,A,3,13,15,19,17,24,,,,,,,,2.97,2.33,1.84*11
DATA: $GNGSA,A,3,83,,,,,,,,,,,,2.97,2.33,1.84*14
DATA: $GPGSV,3,1,12,01,28,055,,06,16,174,,07,07,144,,11,20,048,*7F
DATA: $GPGSV,3,2,12,13,32,244,33,15,21,279,36,17,81,242,23,18,10,038,*7D
DATA: $GPGSV,3,3,12,19,57,227,19,24,14,316,16,28,54,062,19,30,32,147,17*7E
DATA: $GLGSV,2,1,05,70,00,273,,71,05,319,25,78,13,123,,80,51,332,23*6F
DATA: $GLGSV,2,2,05,83,14,204,20*5A
DATA: $GNGLL,4014.80983,N,11138.92772,W,233446.00,A,A*69
STATUS: entering Survey-in status loop
STATUS: SVIN second #1
STATUS: SENT CFG_CHECK: B5 62 01 3B 00 00 3C B5
DATA: UBX-NAV-SVIN: b562013b28000000000028fca819ed0b0000b12047f5546efce447e76f180dd10500a84806003e06000000010000c3f1
Time of Week: 430505000ms - Thursday 23:35:5
Suverying for: 3053
ECEF position in m: (-1798879.5087000001,-4532187.2991,4099868.8705)
Accuracy in m: 41.1816
Sample count: 1598
SVIN valid?: False
SVIN active?: True

DATA: $GNRMC,233447.00,A,4014.80985,N,11138.92771,W,0.023,,290318,,,A*74
DATA: $GNVTG,,T,,M,0.023,N,0.043,K,A*3B
DATA: $GNGGA,233447.00,4014.80985,N,11138.92771,W,1,06,2.33,1441.5,M,-18.8,M,,*45
DATA: $GNGSA,A,3,13,15,19,17,24,,,,,,,,2.97,2.33,1.85*10
DATA: $GNGSA,A,3,83,,,,,,,,,,,,2.97,2.33,1.85*15
DATA: $GPGSV,3,1,12,01,28,055,,06,16,174,,07,07,144,,11,20,048,*7F
DATA: $GPGSV,3,2,12,13,32,244,33,15,21,279,36,17,81,242,23,18,10,038,*7D
DATA: $GPGSV,3,3,12,19,57,227,19,24,14,316,15,28,54,062,19,30,32,147,17*7D
DATA: $GLGSV,2,1,05,70,00,273,,71,05,319,25,78,13,123,,80,51,332,22*6E
DATA: $GLGSV,2,2,05,83,14,204,19*50
DATA: $GNGLL,4014.80985,N,11138.92771,W,233447.00,A,A*6D
DATA: $GNRMC,233448.00,A,4014.80986,N,11138.92770,W,0.023,,290318,,,A*79
DATA: $GNVTG,,T,,M,0.023,N,0.043,K,A*3B
DATA: $GNGGA,233448.00,4014.80986,N,11138.92770,W,1,06,2.33,1441.5,M,-18.8,M,,*48
DATA: $GNGSA,A,3,13,15,19,17,24,,,,,,,,2.97,2.33,1.85*10
DATA: $GNGSA,A,3,83,,,,,,,,,,,,2.97,2.33,1.85*15
DATA: $GPGSV,3,1,12,01,28,055,,06,16,174,,07,07,144,,11,20,048,*7F
DATA: $GPGSV,3,2,12,13,32,244,33,15,21,279,36,17,81,242,23,18,10,038,*7D
DATA: $GPGSV,3,3,12,19,57,227,20,24,14,316,14,28,54,062,19,30,32,147,17*76
DATA: $GLGSV,2,1,05,70,00,273,,71,05,319,24,78,13,123,,80,51,332,22*6F
DATA: $GLGSV,2,2,05,83,14,204,20*5A
DATA: $GNGLL,4014.80986,N,11138.92770,W,233448.00,A,A*60
STATUS: SVIN second #2
STATUS: SENT CFG_CHECK: B5 62 01 3B 00 00 3C B5
DATA: UBX-NAV-SVIN: b562013b280000000000f803a919ef0b0000af2047f5566efce444e76f180aff0000d54706004006000000010000eea1
Time of Week: 430507000ms - Thursday 23:35:7
Suverying for: 3055
ECEF position in m: (-1798879.529,-4532187.274499999,4099868.84)
Accuracy in m: 41.1605
Sample count: 1600
SVIN valid?: False
SVIN active?: True

DATA: $GNRMC,233449.00,A,4014.80987,N,11138.92768,W,0.023,,290318,,,A*70
DATA: $GNVTG,,T,,M,0.023,N,0.042,K,A*3A
DATA: $GNGGA,233449.00,4014.80987,N,11138.92768,W,1,06,2.33,1441.5,M,-18.8,M,,*41
DATA: $GNGSA,A,3,13,15,19,17,24,,,,,,,,2.97,2.33,1.85*10
DATA: $GNGSA,A,3,83,,,,,,,,,,,,2.97,2.33,1.85*15
DATA: $GPGSV,3,1,12,01,28,055,,06,16,174,,07,07,144,,11,20,048,*7F
DATA: $GPGSV,3,2,12,13,32,244,34,15,21,279,36,17,81,242,24,18,10,038,*7D
DATA: $GPGSV,3,3,12,19,57,227,22,24,14,316,13,28,54,062,19,30,32,147,17*73
DATA: $GLGSV,2,1,05,70,00,273,,71,05,319,24,78,13,123,,80,51,332,22*6F
DATA: $GLGSV,2,2,05,83,14,204,20*5A
DATA: $GNGLL,4014.80987,N,11138.92768,W,233449.00,A,A*69
STATUS: SVIN second #3
STATUS: SENT CFG_CHECK: B5 62 01 3B 00 00 3C B5
DATA: UBX-NAV-SVIN: b562013b280000000000e007a919f00b0000ae2047f5576efce442e76f180b1530006c4706004106000000010000b8d7
Time of Week: 430508000ms - Thursday 23:35:8
Suverying for: 3056
ECEF position in m: (-1798879.5389,-4532187.2879,4099868.8248)
Accuracy in m: 41.15
Sample count: 1601
SVIN valid?: False
SVIN active?: True

DATA: $GNRMC,233450.00,A,4014.80987,N,11138.92764,W,0.023,,290318,,,A*74
DATA: $GNVTG,,T,,M,0.023,N,0.043,K,A*3B
DATA: $GNGGA,233450.00,4014.80987,N,11138.92764,W,1,06,2.33,1441.5,M,-18.8,M,,*45
DATA: $GNGSA,A,3,13,15,19,17,24,,,,,,,,2.97,2.33,1.85*10
DATA: $GNGSA,A,3,83,,,,,,,,,,,,2.97,2.33,1.85*15
DATA: $GPGSV,3,1,12,01,28,055,,06,16,174,,07,07,144,,11,20,048,*7F
DATA: $GPGSV,3,2,12,13,32,244,34,15,21,279,37,17,81,242,23,18,10,038,*7B
DATA: $GPGSV,3,3,12,19,57,227,24,24,14,316,11,28,54,062,19,30,32,147,17*77
DATA: $GLGSV,1,1,04,71,05,319,23,78,13,123,,80,51,332,22,83,14,204,21*60
DATA: $GNGLL,4014.80987,N,11138.92764,W,233450.00,A,A*6D
STATUS: SVIN second #4
STATUS: SENT CFG_CHECK: B5 62 01 3B 00 00 3C B5
DATA: UBX-NAV-SVIN: b562013b280000000000c80ba919f10b0000ad2047f5586efce441e76f180c2afd000347060042060000000100001fa8
Time of Week: 430509000ms - Thursday 23:35:9
Suverying for: 3057
ECEF position in m: (-1798879.5488,-4532187.2758,4099868.8353)
Accuracy in m: 41.1395
Sample count: 1602
SVIN valid?: False
SVIN active?: True

DATA: $GNRMC,233451.00,A,4014.80987,N,11138.92764,W,0.023,,290318,,,A*75
DATA: $GNVTG,,T,,M,0.023,N,0.043,K,A*3B
DATA: $GNGGA,233451.00,4014.80987,N,11138.92764,W,1,05,3.68,1441.5,M,-18.8,M,,*48
DATA: $GNGSA,A,3,13,15,19,17,,,,,,,,,4.81,3.68,3.10*16
DATA: $GNGSA,A,3,83,,,,,,,,,,,,4.81,3.68,3.10*15
DATA: $GPGSV,3,1,12,01,28,055,,06,16,174,,07,07,144,,11,20,048,*7F
DATA: $GPGSV,3,2,12,13,32,244,35,15,21,279,37,17,81,242,23,18,10,038,*7A
DATA: $GPGSV,3,3,12,19,57,227,24,24,14,316,09,28,54,062,19,30,32,147,17*7E
DATA: $GLGSV,1,1,04,71,05,318,24,78,13,123,,80,51,332,22,83,14,204,22*65
DATA: $GNGLL,4014.80987,N,11138.92764,W,233451.00,A,A*6C
STATUS: SVIN second #5
STATUS: SENT CFG_CHECK: B5 62 01 3B 00 00 3C B5
DATA: UBX-NAV-SVIN: b562013b280000000000b00fa919f20b0000ac2047f55a6efce43fe76f180edc2e009a4606004306000000010000872d
Time of Week: 430510000ms - Thursday 23:35:10
Suverying for: 3058
ECEF position in m: (-1798879.5586,-4532187.238,4099868.7946)
Accuracy in m: 41.129
Sample count: 1603
SVIN valid?: False
SVIN active?: True

DATA: $GNRMC,233452.00,A,4014.80987,N,11138.92766,W,0.023,,290318,,,A*74
DATA: $GNVTG,,T,,M,0.023,N,0.043,K,A*3B
DATA: $GNGGA,233452.00,4014.80987,N,11138.92766,W,1,05,3.68,1441.5,M,-18.8,M,,*49
DATA: $GNGSA,A,3,13,15,19,17,,,,,,,,,4.81,3.68,3.10*16
DATA: $GNGSA,A,3,83,,,,,,,,,,,,4.81,3.68,3.10*15
DATA: $GPGSV,3,1,12,01,28,055,,06,16,174,,07,07,144,,11,20,048,*7F
DATA: $GPGSV,3,2,12,13,32,244,34,15,21,279,37,17,81,242,24,18,10,038,*7C
DATA: $GPGSV,3,3,12,19,57,227,25,24,14,316,10,28,54,062,19,30,32,147,15*75
DATA: $GLGSV,1,1,04,71,05,318,25,78,13,123,,80,51,332,22,83,14,204,21*67
DATA: $GNGLL,4014.80987,N,11138.92766,W,233452.00,A,A*6D
DATA: $GNRMC,233453.00,A,4014.80988,N,11138.92767,W,0.023,,290318,,,A*7B
DATA: $GNVTG,,T,,M,0.023,N,0.043,K,A*3B
DATA: $GNGGA,233453.00,4014.80988,N,11138.92767,W,1,05,3.68,1441.5,M,-18.8,M,,*46
DATA: $GNGSA,A,3,13,15,19,17,,,,,,,,,4.81,3.68,3.10*16
DATA: $GNGSA,A,3,83,,,,,,,,,,,,4.81,3.68,3.10*15
DATA: $GPGSV,3,1,12,01,28,055,,06,16,174,,07,07,144,,11,20,048,*7F
DATA: $GPGSV,3,2,12,13,32,244,35,15,21,279,37,17,81,242,24,18,10,038,*7D
DATA: $GPGSV,3,3,12,19,57,227,26,24,14,316,09,28,54,062,19,30,32,147,14*7F
DATA: $GLGSV,1,1,04,71,05,318,25,78,13,123,,80,51,332,21,83,14,204,22*67
DATA: $GNGLL,4014.80988,N,11138.92767,W,233453.00,A,A*62
STATUS: SVIN second #6
STATUS: SENT CFG_CHECK: B5 62 01 3B 00 00 3C B5
DATA: UBX-NAV-SVIN: b562013b2800000000008017a919f40b0000aa2047f55c6efce43ce76f1811072e00c84506004506000000010000bb63
Time of Week: 430512000ms - Thursday 23:35:12
Suverying for: 3060
ECEF position in m: (-1798879.5783000002,-4532187.2393000005,4099868.7646)
Accuracy in m: 41.108
Sample count: 1605
SVIN valid?: False
SVIN active?: True

DATA: $GNRMC,233454.00,A,4014.80988,N,11138.92766,W,0.023,,290318,,,A*7D
DATA: $GNVTG,,T,,M,0.023,N,0.042,K,A*3A
DATA: $GNGGA,233454.00,4014.80988,N,11138.92766,W,1,06,2.33,1441.5,M,-18.8,M,,*4C
DATA: $GNGSA,A,3,13,15,19,17,24,,,,,,,,2.98,2.33,1.85*1F
DATA: $GNGSA,A,3,83,,,,,,,,,,,,2.98,2.33,1.85*1A
DATA: $GPGSV,3,1,12,01,28,055,,06,16,174,,07,07,144,,11,20,048,*7F
DATA: $GPGSV,3,2,12,13,32,244,34,15,21,279,37,17,81,242,23,18,10,038,*7B
DATA: $GPGSV,3,3,12,19,57,227,25,24,14,316,12,28,54,062,17,30,32,147,15*79
DATA: $GLGSV,1,1,04,71,05,318,25,78,13,123,,80,51,332,21,83,14,204,22*67
DATA: $GNGLL,4014.80988,N,11138.92766,W,233454.00,A,A*64
STATUS: SVIN second #7
STATUS: SENT CFG_CHECK: B5 62 01 3B 00 00 3C B5
DATA: UBX-NAV-SVIN: b562013b280000000000681ba919f50b0000a92047f55d6efce43be76f18131cfd005f45060046060000000100002560
Time of Week: 430513000ms - Thursday 23:35:13
Suverying for: 3061
ECEF position in m: (-1798879.5881,-4532187.227200001,4099868.7753)
Accuracy in m: 41.0975
Sample count: 1606
SVIN valid?: False
SVIN active?: True

DATA: $GNRMC,233455.00,A,4014.80989,N,11138.92767,W,0.023,,290318,,,A*7C
DATA: $GNVTG,,T,,M,0.023,N,0.042,K,A*3A
DATA: $GNGGA,233455.00,4014.80989,N,11138.92767,W,1,06,2.33,1441.5,M,-18.8,M,,*4D
DATA: $GNGSA,A,3,13,15,19,17,24,,,,,,,,2.98,2.33,1.85*1F
DATA: $GNGSA,A,3,83,,,,,,,,,,,,2.98,2.33,1.85*1A
DATA: $GPGSV,3,1,12,01,28,055,,06,16,174,,07,07,144,,11,20,048,*7F
DATA: $GPGSV,3,2,12,13,32,244,34,15,21,279,37,17,81,242,23,18,10,038,*7B
DATA: $GPGSV,3,3,12,19,57,227,25,24,14,316,10,28,54,062,16,30,32,147,16*79
DATA: $GLGSV,1,1,04,71,05,318,25,78,13,123,,80,51,332,21,83,14,204,22*67
DATA: $GNGLL,4014.80989,N,11138.92767,W,233455.00,A,A*65
STATUS: SVIN second #8
STATUS: SENT CFG_CHECK: B5 62 01 3B 00 00 3C B5
DATA: UBX-NAV-SVIN: b562013b280000000000501fa919f60b0000a82047f55e6efce439e76f1814313100f74406004706000000010000f2c0
Time of Week: 430514000ms - Thursday 23:35:14
Suverying for: 3062
ECEF position in m: (-1798879.598,-4532187.2151,4099868.7349)
Accuracy in m: 41.0871
Sample count: 1607
SVIN valid?: False
SVIN active?: True

DATA: $GNRMC,233456.00,A,4014.80989,N,11138.92771,W,0.022,,290318,,,A*79
DATA: $GNVTG,,T,,M,0.022,N,0.042,K,A*3B
DATA: $GNGGA,233456.00,4014.80989,N,11138.92771,W,1,06,2.33,1441.5,M,-18.8,M,,*49
DATA: $GNGSA,A,3,13,15,19,17,24,,,,,,,,2.98,2.33,1.85*1F
DATA: $GNGSA,A,3,83,,,,,,,,,,,,2.98,2.33,1.85*1A
DATA: $GPGSV,3,1,12,01,28,055,,06,16,174,,07,07,144,,11,20,048,*7F
DATA: $GPGSV,3,2,12,13,32,244,34,15,21,279,36,17,81,242,22,18,10,038,*7B
DATA: $GPGSV,3,3,12,19,57,227,26,24,14,316,09,28,54,062,16,30,32,147,17*73
DATA: $GLGSV,1,1,04,71,05,318,25,78,13,123,,80,51,332,21,83,14,204,21*64
DATA: $GNGLL,4014.80989,N,11138.92771,W,233456.00,A,A*61
STATUS: SVIN second #9
STATUS: SENT CFG_CHECK: B5 62 01 3B 00 00 3C B5
DATA: UBX-NAV-SVIN: b562013b2800000000003823a919f70b0000a72047f5606efce438e76f1815e201008e4406004806000000010000f9f7
Time of Week: 430515000ms - Thursday 23:35:15
Suverying for: 3063
ECEF position in m: (-1798879.6079000002,-4532187.1774,4099868.7201)
Accuracy in m: 41.0766
Sample count: 1608
SVIN valid?: False
SVIN active?: True

DATA: $GNRMC,233457.00,A,4014.80989,N,11138.92773,W,0.022,,290318,,,A*7A
DATA: $GNVTG,,T,,M,0.022,N,0.041,K,A*38
DATA: $GNGGA,233457.00,4014.80989,N,11138.92773,W,1,06,2.33,1441.5,M,-18.8,M,,*4A
DATA: $GNGSA,A,3,13,15,19,17,24,,,,,,,,2.98,2.33,1.85*1F
DATA: $GNGSA,A,3,83,,,,,,,,,,,,2.98,2.33,1.85*1A
DATA: $GPGSV,3,1,12,01,28,055,,06,16,174,,07,07,144,,11,20,048,*7F
DATA: $GPGSV,3,2,12,13,32,244,35,15,21,279,37,17,81,242,22,18,10,038,*7B
DATA: $GPGSV,3,3,12,19,57,227,26,24,14,316,09,28,54,062,16,30,32,147,17*73
DATA: $GLGSV,1,1,04,71,05,318,25,78,13,124,,80,51,332,21,83,14,204,20*62
DATA: $GNGLL,4014.80989,N,11138.92773,W,233457.00,A,A*62
STATUS: SVIN second #10
STATUS: SENT CFG_CHECK: B5 62 01 3B 00 00 3C B5
DATA: UBX-NAV-SVIN: b562013b2800000000002027a919f80b0000a62047f5616efce437e76f1816f6d10026440600490600000001000063ef
Time of Week: 430516000ms - Thursday 23:35:16
Suverying for: 3064
ECEF position in m: (-1798879.6178000001,-4532187.1654,4099868.7309)
Accuracy in m: 41.0662
Sample count: 1609
SVIN valid?: False
SVIN active?: True

DATA: $GNRMC,233458.00,A,4014.80988,N,11138.92774,W,0.022,,290318,,,A*73
DATA: $GNVTG,,T,,M,0.022,N,0.041,K,A*38
DATA: $GNGGA,233458.00,4014.80988,N,11138.92774,W,1,06,2.33,1441.5,M,-18.8,M,,*43
DATA: $GNGSA,A,3,13,15,19,17,24,,,,,,,,2.98,2.33,1.85*1F
DATA: $GNGSA,A,3,83,,,,,,,,,,,,2.98,2.33,1.85*1A
DATA: $GPGSV,3,1,12,01,28,055,,06,16,174,,07,07,144,,11,20,048,*7F
DATA: $GPGSV,3,2,12,13,32,244,35,15,21,279,36,17,81,242,22,18,10,038,*7A
DATA: $GPGSV,3,3,12,19,57,227,25,24,14,316,12,28,54,062,15,30,32,147,16*78
DATA: $GLGSV,1,1,04,71,05,318,25,78,13,124,,80,51,333,20,83,14,204,20*62
DATA: $GNGLL,4014.80988,N,11138.92774,W,233458.00,A,A*6B
DATA: $GNRMC,233459.00,A,4014.80987,N,11138.92781,W,0.022,,290318,,,A*77
DATA: $GNVTG,,T,,M,0.022,N,0.040,K,A*39
DATA: $GNGGA,233459.00,4014.80987,N,11138.92781,W,1,06,2.33,1441.5,M,-18.8,M,,*47
DATA: $GNGSA,A,3,13,15,19,17,24,,,,,,,,2.98,2.33,1.85*1F
DATA: $GNGSA,A,3,83,,,,,,,,,,,,2.98,2.33,1.85*1A
DATA: $GPGSV,3,1,12,01,28,055,,06,16,174,,07,07,144,,11,20,048,*7F
DATA: $GPGSV,3,2,12,13,32,244,35,15,21,279,35,17,81,242,22,18,10,038,*79
DATA: $GPGSV,3,3,12,19,57,227,25,24,14,316,09,28,54,062,15,30,32,147,15*71
DATA: $GLGSV,1,1,04,71,05,318,25,78,13,124,,80,51,333,20,83,14,204,20*62
DATA: $GNGLL,4014.80987,N,11138.92781,W,233459.00,A,A*6F
STATUS: SVIN second #11
STATUS: SENT CFG_CHECK: B5 62 01 3B 00 00 3C B5
DATA: UBX-NAV-SVIN: b562013b280000000000f02ea919fa0b0000a42047f5636efce434e76f18151fd7006e4306004b06000000010000b030
Time of Week: 430518000ms - Thursday 23:35:18
Suverying for: 3066
ECEF position in m: (-1798879.6379,-4532187.1669,4099868.7015)
Accuracy in m: 41.0478
Sample count: 1611
SVIN valid?: False
SVIN active?: True

DATA: $GNRMC,233500.00,A,4014.80987,N,11138.92784,W,0.021,,290318,,,A*7C
DATA: $GNVTG,,T,,M,0.021,N,0.040,K,A*3A
DATA: $GNGGA,233500.00,4014.80987,N,11138.92784,W,1,06,2.33,1441.5,M,-18.8,M,,*4F
DATA: $GNGSA,A,3,13,15,19,17,24,,,,,,,,2.98,2.33,1.85*1F
DATA: $GNGSA,A,3,83,,,,,,,,,,,,2.98,2.33,1.85*1A
DATA: $GPGSV,3,1,12,01,27,054,,06,16,174,,07,07,144,,11,20,048,*71
DATA: $GPGSV,3,2,12,13,32,244,35,15,21,279,35,17,81,242,22,18,10,038,*79
DATA: $GPGSV,3,3,12,19,57,227,24,24,14,316,10,28,54,062,13,30,32,147,13*78
DATA: $GLGSV,1,1,04,71,05,318,25,78,13,124,,80,51,333,20,83,14,204,19*68
DATA: $GNGLL,4014.80987,N,11138.92784,W,233500.00,A,A*67
STATUS: SVIN second #12
STATUS: SENT CFG_CHECK: B5 62 01 3B 00 00 3C B5
DATA: UBX-NAV-SVIN: b562013b280000000000d832a919fb0b0000a32047f5656efce432e76f1813cf0d001f4306004c0600000001000032e0
Time of Week: 430519000ms - Thursday 23:35:19
Suverying for: 3067
ECEF position in m: (-1798879.6480999999,-4532187.1293,4099868.6613000003)
Accuracy in m: 41.0399
Sample count: 1612
SVIN valid?: False
SVIN active?: True

DATA: $GNRMC,233501.00,A,4014.80987,N,11138.92787,W,0.021,,290318,,,A*7E
DATA: $GNVTG,,T,,M,0.021,N,0.040,K,A*3A
DATA: $GNGGA,233501.00,4014.80987,N,11138.92787,W,1,06,2.33,1441.5,M,-18.8,M,,*4D
DATA: $GNGSA,A,3,13,15,19,17,24,,,,,,,,2.98,2.33,1.85*1F
DATA: $GNGSA,A,3,83,,,,,,,,,,,,2.98,2.33,1.85*1A
DATA: $GPGSV,3,1,12,01,27,054,,06,16,174,,07,07,144,,11,20,048,*71
DATA: $GPGSV,3,2,12,13,32,244,34,15,21,279,35,17,81,242,21,18,10,038,*7B
DATA: $GPGSV,3,3,12,19,57,227,23,24,14,316,10,28,54,062,11,30,32,147,13*7D
DATA: $GLGSV,1,1,04,71,05,318,25,78,13,124,,80,51,333,20,83,14,204,21*63
DATA: $GNGLL,4014.80987,N,11138.92787,W,233501.00,A,A*65
STATUS: SVIN second #13
STATUS: SENT CFG_CHECK: B5 62 01 3B 00 00 3C B5
DATA: UBX-NAV-SVIN: b562013b280000000000c036a919fc0b0000a22047f5666efce431e76f1810e3df00d04206004d06000000010000b2d5
Time of Week: 430520000ms - Thursday 23:35:20
Suverying for: 3068
ECEF position in m: (-1798879.6583999998,-4532187.1173,4099868.6722999997)
Accuracy in m: 41.032
Sample count: 1613
SVIN valid?: False
SVIN active?: True

DATA: $GNRMC,233502.00,A,4014.80987,N,11138.92795,W,0.021,,290318,,,A*7E
DATA: $GNVTG,,T,,M,0.021,N,0.039,K,A*34
DATA: $GNGGA,233502.00,4014.80987,N,11138.92795,W,1,06,2.33,1441.5,M,-18.8,M,,*4D
DATA: $GNGSA,A,3,13,15,19,17,24,,,,,,,,2.98,2.33,1.85*1F
DATA: $GNGSA,A,3,83,,,,,,,,,,,,2.98,2.33,1.85*1A
DATA: $GPGSV,3,1,12,01,27,054,,06,16,174,,07,07,144,,11,20,048,*71
DATA: $GPGSV,3,2,12,13,32,244,34,15,21,279,35,17,81,242,21,18,10,038,*7B
DATA: $GPGSV,3,3,12,19,57,227,22,24,14,316,10,28,54,062,11,30,32,147,13*7C
DATA: $GLGSV,1,1,04,71,05,318,24,78,13,124,,80,51,333,20,83,14,204,21*62
DATA: $GNGLL,4014.80987,N,11138.92795,W,233502.00,A,A*65
STATUS: SVIN second #14
STATUS: SENT CFG_CHECK: B5 62 01 3B 00 00 3C B5
DATA: UBX-NAV-SVIN: b562013b280000000000a83aa919fd0b0000a12047f5676efce42fe76f180cf81700754206004e060000000100008cc4
Time of Week: 430521000ms - Thursday 23:35:21
Suverying for: 3069
ECEF position in m: (-1798879.6687999999,-4532187.1052,4099868.6322999997)
Accuracy in m: 41.0229
Sample count: 1614
SVIN valid?: False
SVIN active?: True

DATA: $GNRMC,233503.00,A,4014.80988,N,11138.92800,W,0.021,,290318,,,A*73
DATA: $GNVTG,,T,,M,0.021,N,0.039,K,A*34
DATA: $GNGGA,233503.00,4014.80988,N,11138.92800,W,1,06,2.33,1441.5,M,-18.8,M,,*40
DATA: $GNGSA,A,3,13,15,19,17,24,,,,,,,,2.98,2.33,1.85*1F
DATA: $GNGSA,A,3,83,,,,,,,,,,,,2.98,2.33,1.85*1A
DATA: $GPGSV,3,1,12,01,27,054,,06,16,174,,07,07,144,,11,20,048,*71
DATA: $GPGSV,3,2,12,13,32,244,34,15,21,279,35,17,81,242,22,18,10,038,*78
DATA: $GPGSV,3,3,12,19,57,227,21,24,14,316,08,28,54,062,,30,32,147,13*76
DATA: $GLGSV,1,1,04,71,05,318,25,78,13,124,,80,51,333,20,83,14,204,21*63
DATA: $GNGLL,4014.80988,N,11138.92800,W,233503.00,A,A*68
DATA: $GNRMC,233504.00,A,4014.80989,N,11138.92804,W,0.021,,290318,,,A*71
DATA: $GNVTG,,T,,M,0.021,N,0.040,K,A*3A
DATA: $GNGGA,233504.00,4014.80989,N,11138.92804,W,1,06,2.33,1441.5,M,-18.8,M,,*42
DATA: $GNGSA,A,3,13,15,19,17,24,,,,,,,,2.98,2.33,1.85*1F
DATA: $GNGSA,A,3,83,,,,,,,,,,,,2.98,2.33,1.85*1A
DATA: $GPGSV,3,1,12,01,27,054,32,06,17,174,,07,07,144,,11,20,048,*71
DATA: $GPGSV,3,2,12,13,32,244,35,15,21,279,34,17,81,242,22,18,10,038,*78
DATA: $GPGSV,3,3,12,19,57,227,21,24,14,316,14,28,54,062,,30,32,147,12*7A
DATA: $GLGSV,1,1,04,71,05,318,25,78,13,124,,80,51,333,20,83,14,204,21*63
DATA: $GNGLL,4014.80989,N,11138.92804,W,233504.00,A,A*6A
STATUS: SVIN second #15
STATUS: SENT CFG_CHECK: B5 62 01 3B 00 00 3C B5
DATA: UBX-NAV-SVIN: b562013b2800000000007842a919ff0b00009f2047f5696efce42ce76f1801212600a64106005006000000010000c2f2
Time of Week: 430523000ms - Thursday 23:35:23
Suverying for: 3071
ECEF position in m: (-1798879.6898999999,-4532187.1067,4099868.6038)
Accuracy in m: 41.0022
Sample count: 1616
SVIN valid?: False
SVIN active?: True

DATA: $GNRMC,233505.00,A,4014.80990,N,11138.92808,W,0.022,,290318,,,A*77
DATA: $GNVTG,,T,,M,0.022,N,0.040,K,A*39
DATA: $GNGGA,233505.00,4014.80990,N,11138.92808,W,1,06,2.33,1441.5,M,-18.8,M,,*47
DATA: $GNGSA,A,3,13,15,19,17,24,,,,,,,,2.98,2.33,1.86*1C
DATA: $GNGSA,A,3,83,,,,,,,,,,,,2.98,2.33,1.86*19
DATA: $GPGSV,3,1,12,01,27,054,22,06,17,174,,07,07,144,,11,20,048,*70
DATA: $GPGSV,3,2,12,13,32,244,35,15,21,279,33,17,81,242,23,18,10,038,*7E
DATA: $GPGSV,3,3,12,19,57,227,22,24,14,316,10,28,54,062,,30,32,147,12*7D
DATA: $GLGSV,1,1,04,71,05,318,26,78,13,124,,80,51,333,20,83,14,204,21*60
DATA: $GNGLL,4014.80990,N,11138.92808,W,233505.00,A,A*6F
STATUS: SVIN second #16
STATUS: SENT CFG_CHECK: B5 62 01 3B 00 00 3C B5
DATA: UBX-NAV-SVIN: b562013b2800000000006046a919000c00009e2047f56b6efce42be76f18fbd2fd003e4106005106000000010000cb46
Time of Week: 430524000ms - Thursday 23:35:24
Suverying for: 3072
ECEF position in m: (-1798879.6749,-4532187.069,4099868.6152999997)
Accuracy in m: 40.9918
Sample count: 1617
SVIN valid?: False
SVIN active?: True

DATA: $GNRMC,233506.00,A,4014.80991,N,11138.92812,W,0.022,,290318,,,A*7E
DATA: $GNVTG,,T,,M,0.022,N,0.040,K,A*39
DATA: $GNGGA,233506.00,4014.80991,N,11138.92812,W,1,06,2.33,1441.5,M,-18.8,M,,*4E
DATA: $GNGSA,A,3,13,15,19,17,24,,,,,,,,2.98,2.33,1.86*1C
DATA: $GNGSA,A,3,83,,,,,,,,,,,,2.98,2.33,1.86*19
DATA: $GPGSV,3,1,12,01,27,054,18,06,17,174,,07,07,144,,11,20,048,*79
DATA: $GPGSV,3,2,12,13,32,244,35,15,21,279,33,17,81,242,23,18,10,038,*7E
DATA: $GPGSV,3,3,12,19,57,227,23,24,14,316,19,28,54,062,,30,32,147,13*74
DATA: $GLGSV,1,1,04,71,05,318,26,78,13,124,,80,51,333,20,83,14,204,22*63
DATA: $GNGLL,4014.80991,N,11138.92812,W,233506.00,A,A*66
STATUS: SVIN second #17
STATUS: SENT CFG_CHECK: B5 62 01 3B 00 00 3C B5
DATA: UBX-NAV-SVIN: b562013b280000000000484aa919010c00009d2047f56c6efce42ae76f18f4e6d500e4400600520600000001000042cb
Time of Week: 430525000ms - Thursday 23:35:25
Suverying for: 3073
ECEF position in m: (-1798879.6856,-4532187.057,4099868.6013)
Accuracy in m: 40.9828
Sample count: 1618
SVIN valid?: False
SVIN active?: True

DATA: $GNRMC,233507.00,A,4014.80993,N,11138.92816,W,0.022,,290318,,,A*79
DATA: $GNVTG,,T,,M,0.022,N,0.040,K,A*39
DATA: $GNGGA,233507.00,4014.80993,N,11138.92816,W,1,06,2.33,1441.5,M,-18.8,M,,*49
DATA: $GNGSA,A,3,13,15,19,17,24,,,,,,,,2.98,2.33,1.86*1C
DATA: $GNGSA,A,3,83,,,,,,,,,,,,2.98,2.33,1.86*19
DATA: $GPGSV,3,1,12,01,27,054,16,06,17,174,,07,07,144,,11,20,048,*77
DATA: $GPGSV,3,2,12,13,32,244,35,15,21,279,33,17,81,242,24,18,10,038,*79
DATA: $GPGSV,3,3,12,19,57,227,22,24,14,316,08,28,54,062,,30,32,147,14*72
DATA: $GLGSV,1,1,04,71,05,318,25,78,13,124,,80,51,333,20,83,14,204,22*60
DATA: $GNGLL,4014.80993,N,11138.92816,W,233507.00,A,A*61
STATUS: SVIN second #18
STATUS: SENT CFG_CHECK: B5 62 01 3B 00 00 3C B5
DATA: UBX-NAV-SVIN: b562013b280000000000304ea919020c00009c2047f56d6efce428e76f18eefb130089400600530600000001000020ee
Time of Week: 430526000ms - Thursday 23:35:26
Suverying for: 3074
ECEF position in m: (-1798879.6962,-4532187.0449,4099868.5619)
Accuracy in m: 40.9737
Sample count: 1619
SVIN valid?: False
SVIN active?: True

DATA: $GNRMC,233508.00,A,4014.80994,N,11138.92819,W,0.022,,290318,,,A*7E
DATA: $GNVTG,,T,,M,0.022,N,0.041,K,A*38
DATA: $GNGGA,233508.00,4014.80994,N,11138.92819,W,1,05,3.68,1441.6,M,-18.8,M,,*41
DATA: $GNGSA,A,3,13,15,19,17,,,,,,,,,4.82,3.68,3.11*14
DATA: $GNGSA,A,3,83,,,,,,,,,,,,4.82,3.68,3.11*17
DATA: $GPGSV,3,1,12,01,27,054,14,06,17,174,,07,07,144,,11,20,048,*75
DATA: $GPGSV,3,2,12,13,32,244,35,15,21,279,33,17,81,242,24,18,10,038,*79
DATA: $GPGSV,3,3,12,19,57,227,22,24,14,316,07,28,54,062,,30,32,147,15*7C
DATA: $GLGSV,1,1,04,71,05,318,25,78,13,124,,80,51,333,21,83,14,204,21*62
DATA: $GNGLL,4014.80994,N,11138.92819,W,233508.00,A,A*66
DATA: $GNRMC,233509.00,A,4014.80996,N,11138.92823,W,0.022,,290318,,,A*74
DATA: $GNVTG,,T,,M,0.022,N,0.041,K,A*38
DATA: $GNGGA,233509.00,4014.80996,N,11138.92823,W,1,05,3.68,1441.6,M,-18.8,M,,*4B
DATA: $GNGSA,A,3,13,15,19,17,,,,,,,,,4.82,3.68,3.11*14
DATA: $GNGSA,A,3,83,,,,,,,,,,,,4.82,3.68,3.11*17
DATA: $GPGSV,3,1,12,01,27,054,11,06,17,174,,07,07,144,,11,20,047,*7F
DATA: $GPGSV,3,2,12,13,32,244,35,15,21,279,33,17,81,242,25,18,10,038,*78
DATA: $GPGSV,3,3,12,19,57,227,22,24,14,316,09,28,54,062,,30,32,147,14*73
DATA: $GLGSV,1,1,04,71,05,318,25,78,13,124,,80,51,333,21,83,14,204,22*61
DATA: $GNGLL,4014.80996,N,11138.92823,W,233509.00,A,A*6C
STATUS: SVIN second #19
STATUS: SENT CFG_CHECK: B5 62 01 3B 00 00 3C B5
DATA: UBX-NAV-SVIN: b562013b2800000000000056a919040c00009a2047f56f6efce425e76f18df242e00e03f06005506000000010000844c
Time of Week: 430528000ms - Thursday 23:35:28
Suverying for: 3076
ECEF position in m: (-1798879.7177,-4532187.046399999,4099868.5346)
Accuracy in m: 40.9568
Sample count: 1621
SVIN valid?: False
SVIN active?: True

DATA: $GNRMC,233510.00,A,4014.80998,N,11138.92824,W,0.023,,290318,,,A*74
DATA: $GNVTG,,T,,M,0.023,N,0.042,K,A*3A
DATA: $GNGGA,233510.00,4014.80998,N,11138.92824,W,1,06,2.33,1441.6,M,-18.8,M,,*46
DATA: $GNGSA,A,3,13,15,19,17,24,,,,,,,,2.98,2.33,1.86*1C
DATA: $GNGSA,A,3,83,,,,,,,,,,,,2.98,2.33,1.86*19
DATA: $GPGSV,3,1,12,01,27,054,08,06,17,174,,07,07,144,,11,20,047,*77
DATA: $GPGSV,3,2,12,13,32,244,35,15,21,279,33,17,81,242,25,18,10,038,*78
DATA: $GPGSV,3,3,12,19,57,227,22,24,14,316,11,28,54,062,,30,32,147,13*7D
DATA: $GLGSV,1,1,04,71,05,318,24,78,13,124,,80,51,333,21,83,14,204,21*63
DATA: $GNGLL,4014.80998,N,11138.92824,W,233510.00,A,A*6D
STATUS: SVIN second #20
STATUS: SENT CFG_CHECK: B5 62 01 3B 00 00 3C B5
DATA: UBX-NAV-SVIN: b562013b280000000000e859a919050c0000992047f5716efce424e76f18d6d50c00923f06005606000000010000a9c8
Time of Week: 430529000ms - Thursday 23:35:29
Suverying for: 3077
ECEF position in m: (-1798879.7286,-4532187.0087,4099868.5212)
Accuracy in m: 40.949
Sample count: 1622
SVIN valid?: False
SVIN active?: True

DATA: $GNRMC,233511.00,A,4014.81000,N,11138.92831,W,0.023,,290318,,,A*78
DATA: $GNVTG,,T,,M,0.023,N,0.042,K,A*3A
DATA: $GNGGA,233511.00,4014.81000,N,11138.92831,W,1,06,2.33,1441.6,M,-18.8,M,,*4A
DATA: $GNGSA,A,3,13,15,19,17,24,,,,,,,,2.98,2.33,1.86*1C
DATA: $GNGSA,A,3,83,,,,,,,,,,,,2.98,2.33,1.86*19
DATA: $GPGSV,3,1,12,01,27,054,07,06,17,174,,07,07,144,,11,20,047,*78
DATA: $GPGSV,3,2,12,13,32,243,35,15,21,279,33,17,81,242,26,18,10,038,*7C
DATA: $GPGSV,3,3,12,19,57,227,22,24,14,316,09,28,54,062,,30,32,147,11*76
DATA: $GLGSV,1,1,04,71,05,318,24,78,13,124,,80,51,333,20,83,14,204,22*61
DATA: $GNGLL,4014.81000,N,11138.92831,W,233511.00,A,A*61
STATUS: SVIN second #21
STATUS: SENT CFG_CHECK: B5 62 01 3B 00 00 3C B5
DATA: UBX-NAV-SVIN: b562013b280000000000d05da919060c0000972047f5726efce423e76f1830ebea002c3f060057060000000100007d2e
Time of Week: 430530000ms - Thursday 23:35:30
Suverying for: 3078
ECEF position in m: (-1798879.7652,-4532186.996499999,4099868.5333999996)
Accuracy in m: 40.9388
Sample count: 1623
SVIN valid?: False
SVIN active?: True

DATA: $GNRMC,233512.00,A,4014.81000,N,11138.92840,W,0.023,,290318,,,A*7D
DATA: $GNVTG,,T,,M,0.023,N,0.042,K,A*3A
DATA: $GNGGA,233512.00,4014.81000,N,11138.92840,W,1,06,2.34,1441.6,M,-18.8,M,,*48
DATA: $GNGSA,A,3,13,15,19,17,24,,,,,,,,2.99,2.34,1.86*1A
DATA: $GNGSA,A,3,83,,,,,,,,,,,,2.99,2.34,1.86*1F
DATA: $GPGSV,3,1,12,01,27,054,08,06,17,174,,07,07,144,,11,20,047,*77
DATA: $GPGSV,3,2,12,13,32,243,35,15,21,279,32,17,81,242,26,18,10,038,*7D
DATA: $GPGSV,3,3,12,19,57,227,23,24,14,316,16,28,54,062,,30,32,147,*79
DATA: $GLGSV,1,1,04,71,05,318,25,78,13,124,,80,51,333,20,83,14,204,22*60
DATA: $GNGLL,4014.81000,N,11138.92840,W,233512.00,A,A*64
STATUS: SVIN second #22
STATUS: SENT CFG_CHECK: B5 62 01 3B 00 00 3C B5
DATA: UBX-NAV-SVIN: b562013b280000000000b861a919070c0000962047f5736efce421e76f1822012e00c63e060058060000000100004ea5
Time of Week: 430531000ms - Thursday 23:35:31
Suverying for: 3079
ECEF position in m: (-1798879.7766,-4532187.0099,4099868.4946000003)
Accuracy in m: 40.9286
Sample count: 1624
SVIN valid?: False
SVIN active?: True

DATA: $GNRMC,233513.00,A,4014.81001,N,11138.92851,W,0.023,,290318,,,A*7D
DATA: $GNVTG,,T,,M,0.023,N,0.043,K,A*3B
DATA: $GNGGA,233513.00,4014.81001,N,11138.92851,W,1,06,2.34,1441.6,M,-18.8,M,,*48
DATA: $GNGSA,A,3,13,15,19,17,24,,,,,,,,2.99,2.34,1.86*1A
DATA: $GNGSA,A,3,83,,,,,,,,,,,,2.99,2.34,1.86*1F
DATA: $GPGSV,3,1,12,01,27,054,10,06,17,174,,07,07,144,,11,20,047,*7E
DATA: $GPGSV,3,2,12,13,32,243,34,15,21,278,32,17,81,242,26,18,10,038,*7D
DATA: $GPGSV,3,3,12,19,57,227,22,24,14,316,15,28,54,062,,30,32,147,*7B
DATA: $GLGSV,1,1,04,71,05,318,25,78,13,124,,80,51,333,20,83,14,204,22*60
DATA: $GNGLL,4014.81001,N,11138.92851,W,233513.00,A,A*64
DATA: $GNRMC,233514.00,A,4014.81003,N,11138.92863,W,0.024,,290318,,,A*7E
DATA: $GNVTG,,T,,M,0.024,N,0.044,K,A*3B
DATA: $GNGGA,233514.00,4014.81003,N,11138.92863,W,1,06,2.34,1441.7,M,-18.8,M,,*4D
DATA: $GNGSA,A,3,13,15,19,17,24,,,,,,,,2.99,2.34,1.86*1A
DATA: $GNGSA,A,3,83,,,,,,,,,,,,2.99,2.34,1.86*1F
DATA: $GPGSV,3,1,12,01,27,054,09,06,17,174,,07,07,144,,11,20,047,*76
DATA: $GPGSV,3,2,12,13,32,243,34,15,21,278,32,17,81,242,26,18,10,038,*7D
DATA: $GPGSV,3,3,12,19,57,227,22,24,14,316,16,28,54,062,,30,32,147,*78
DATA: $GLGSV,1,1,04,71,05,318,24,78,13,124,,80,51,333,18,83,14,204,22*6A
DATA: $GNGLL,4014.81003,N,11138.92863,W,233514.00,A,A*60
STATUS: SVIN second #23
STATUS: SENT CFG_CHECK: B5 62 01 3B 00 00 3C B5
DATA: UBX-NAV-SVIN: b562013b2800000000008869a919090c0000942047f5756efce41fe76f18ff2ff300053e06005a060000000100003759
Time of Week: 430533000ms - Thursday 23:35:33
Suverying for: 3081
ECEF position in m: (-1798879.7745,-4532186.9853,4099868.4943000004)
Accuracy in m: 40.9093
Sample count: 1626
SVIN valid?: False
SVIN active?: True

DATA: $GNRMC,233515.00,A,4014.81007,N,11138.92874,W,0.025,,290318,,,A*7C
DATA: $GNVTG,,T,,M,0.025,N,0.046,K,A*38
DATA: $GNGGA,233515.00,4014.81007,N,11138.92874,W,1,06,2.34,1441.7,M,-18.8,M,,*4E
DATA: $GNGSA,A,3,13,15,19,17,24,,,,,,,,2.99,2.34,1.86*1A
DATA: $GNGSA,A,3,83,,,,,,,,,,,,2.99,2.34,1.86*1F
DATA: $GPGSV,3,1,12,01,27,054,08,06,17,174,,07,07,144,,11,20,047,*77
DATA: $GPGSV,3,2,12,13,32,243,34,15,21,278,32,17,81,243,26,18,10,038,*7C
DATA: $GPGSV,3,3,12,19,57,227,22,24,14,316,16,28,54,062,,30,32,147,*78
DATA: $GLGSV,1,1,04,71,05,318,23,78,13,124,,80,51,333,18,83,14,204,22*6D
DATA: $GNGLL,4014.81007,N,11138.92874,W,233515.00,A,A*63
STATUS: SVIN second #24
STATUS: SENT CFG_CHECK: B5 62 01 3B 00 00 3C B5
DATA: UBX-NAV-SVIN: b562013b280000000000706da9190a0c0000932047f5776efce41ee76f18ebe3d800b83d06005b060000000100005cd8
Time of Week: 430534000ms - Thursday 23:35:34
Suverying for: 3082
ECEF position in m: (-1798879.7865000002,-4532186.9473,4099868.4816)
Accuracy in m: 40.9016
Sample count: 1627
SVIN valid?: False
SVIN active?: True

DATA: $GNRMC,233516.00,A,4014.81009,N,11138.92881,W,0.025,,290318,,,A*7B
DATA: $GNVTG,,T,,M,0.025,N,0.046,K,A*38
DATA: $GNGGA,233516.00,4014.81009,N,11138.92881,W,1,05,3.68,1441.7,M,-18.8,M,,*42
DATA: $GNGSA,A,3,13,15,19,17,,,,,,,,,4.83,3.68,3.12*16
DATA: $GNGSA,A,3,83,,,,,,,,,,,,4.83,3.68,3.12*15
DATA: $GPGSV,3,1,12,01,27,054,08,06,17,174,,07,07,144,,11,20,047,*77
DATA: $GPGSV,3,2,12,13,32,243,34,15,21,278,33,17,81,243,26,18,10,038,*7D
DATA: $GPGSV,3,3,12,19,57,227,23,24,14,316,06,28,54,062,,30,32,147,*78
DATA: $GLGSV,1,1,04,71,05,318,24,78,13,124,,80,51,333,18,83,14,204,21*69
DATA: $GNGLL,4014.81009,N,11138.92881,W,233516.00,A,A*64
STATUS: SVIN second #25
STATUS: SENT CFG_CHECK: B5 62 01 3B 00 00 3C B5
DATA: UBX-NAV-SVIN: b562013b2800000000005871a9190b0c0000922047f5786efce41ce76f18d7fb23005f3d06005c060000000100003e16
Time of Week: 430535000ms - Thursday 23:35:35
Suverying for: 3083
ECEF position in m: (-1798879.7985,-4532186.9349,4099868.4435)
Accuracy in m: 40.8927
Sample count: 1628
SVIN valid?: False
SVIN active?: True

DATA: $GNRMC,233517.00,A,4014.81011,N,11138.92881,W,0.025,,290318,,,A*73
DATA: $GNVTG,,T,,M,0.025,N,0.047,K,A*39
DATA: $GNGGA,233517.00,4014.81011,N,11138.92881,W,1,05,3.68,1441.8,M,-18.8,M,,*45
DATA: $GNGSA,A,3,13,15,19,17,,,,,,,,,4.83,3.68,3.12*16
DATA: $GNGSA,A,3,83,,,,,,,,,,,,4.83,3.68,3.12*15
DATA: $GPGSV,3,1,12,01,27,054,08,06,17,174,,07,07,144,,11,20,047,*77
DATA: $GPGSV,3,2,12,13,32,243,34,15,21,278,33,17,81,243,25,18,10,038,*7E
DATA: $GPGSV,3,3,12,19,58,227,24,24,14,316,08,28,54,062,,30,32,147,*7E
DATA: $GLGSV,1,1,04,71,05,318,24,78,13,124,,80,51,333,17,83,14,204,21*66
DATA: $GNGLL,4014.81011,N,11138.92881,W,233517.00,A,A*6C
STATUS: SVIN second #26
STATUS: SENT CFG_CHECK: B5 62 01 3B 00 00 3C B5
